
$GNGGA,063455.30,3039.09665563,N,12047.28782706,E,4,27,0.7,4.2472,M,9.8165,M,02,0*72
$GNRMC,063455.30,A,3039.09665563,N,12047.28782706,E,0.066,359.8,170120,5.8,W,D*32
#HEADINGA,COM2,0,42.0,FINE,2088,455713.300,1775687,17,18;SOL_COMPUTED,NARROW_INT,0.6984,263.6964,15.2350,0.0000,0.4146,1.0269,"999",38,22,22,8,3,01,3,73*8b003456
$GNGGA,063455.40,3039.09665522,N,12047.28782928,E,4,26,0.7,4.2568,M,9.8165,M,02,0*79
$GNRMC,063455.40,A,3039.09665522,N,12047.28782928,E,0.070,102.1,170120,5.8,W,D*30
#HEADINGA,COM2,0,45.0,FINE,2088,455713.400,1775787,18,18;SOL_COMPUTED,NARROW_FLOAT,0.7101,265.2823,11.8888,0.0000,0.4344,0.9573,"999",38,25,25,10,3,01,3,73*0c21e82d
$GNGGA,063455.50,3039.09665539,N,12047.28782478,E,4,27,0.7,4.2506,M,9.8165,M,02,0*73
$GNRMC,063455.50,A,3039.09665539,N,12047.28782478,E,0.140,272.6,170120,5.8,W,D*32
#HEADINGA,COM2,0,45.0,FINE,2088,455713.500,1775886,18,18;SOL_COMPUTED,NARROW_FLOAT,0.7068,265.6546,10.7599,0.0000,0.4472,1.0115,"999",38,24,24,9,3,01,3,73*f195846b
$GNGGA,063455.60,3039.09665249,N,12047.28782441,E,4,26,0.7,4.2685,M,9.8165,M,02,0*73
$GNRMC,063455.60,A,3039.09665249,N,12047.28782441,E,0.105,186.3,170120,5.8,W,D*37
#HEADINGA,COM2,0,45.0,FINE,2088,455713.600,1775986,26,18;SOL_COMPUTED,NARROW_FLOAT,0.7047,265.2353,13.5225,0.0000,0.5444,1.4928,"999",38,14,14,9,3,01,3,33*4cea648f
$GNGGA,063455.70,3039.09665020,N,12047.28782392,E,4,27,0.7,4.2707,M,9.8165,M,02,0*7C
$GNRMC,063455.70,A,3039.09665020,N,12047.28782392,E,0.084,190.5,170120,5.8,W,D*3B
#HEADINGA,COM2,0,45.0,FINE,2088,455713.700,1776086,17,18;SOL_COMPUTED,NARROW_INT,0.7032,265.4757,12.1270,0.0000,0.4383,0.9648,"999",38,25,25,10,3,01,3,73*d95fbe44
$GNGGA,063455.80,3039.09665384,N,12047.28782805,E,4,27,0.7,4.2725,M,9.8165,M,02,0*7B
$GNRMC,063455.80,A,3039.09665384,N,12047.28782805,E,0.183,44.4,170120,5.8,W,D*03
#HEADINGA,COM2,0,45.0,FINE,2088,455713.800,1776186,19,18;SOL_COMPUTED,NARROW_INT,0.7004,265.6166,9.6416,0.0000,0.4754,1.1490,"999",38,19,19,6,3,01,0,73*230aad20
$GNGGA,063455.90,3039.09665265,N,12047.28782572,E,4,27,0.7,4.2680,M,9.8165,M,02,0*77
$GNRMC,063455.90,A,3039.09665265,N,12047.28782572,E,0.084,239.6,170120,5.8,W,D*3D
#HEADINGA,COM2,0,45.0,FINE,2088,455713.900,1776286,18,18;SOL_COMPUTED,NARROW_INT,0.7035,266.1216,10.3143,0.0000,0.4677,1.0716,"999",38,23,23,8,3,01,3,73*34b5a24d
#REFSTATIONA,COM2,0,42.0,FINE,2088,455702.000,1774587,1803,18;00000000,-2811044.342,4717820.352,3232735.546,0,RTCMV3,"0000"*bb833470
$GNGGA,063456.00,3039.09665237,N,12047.28782369,E,4,27,0.7,4.2682,M,9.8165,M,03,0*75
$GNRMC,063456.00,A,3039.09665237,N,12047.28782369,E,0.064,260.9,170120,5.8,W,D*31
#HEADINGA,COM2,0,45.0,FINE,2088,455714.000,1776386,25,18;SOL_COMPUTED,NARROW_INT,0.7002,265.9446,8.6597,0.0000,0.4741,1.1515,"999",38,19,19,6,3,01,0,73*0b29773b
$GNGGA,063456.10,3039.09665249,N,12047.28782142,E,4,27,0.7,4.2719,M,9.8165,M,03,0*75
$GNRMC,063456.10,A,3039.09665249,N,12047.28782142,E,0.070,273.4,170120,5.8,W,D*38
#HEADINGA,COM2,0,45.0,FINE,2088,455714.100,1776487,18,18;SOL_COMPUTED,NARROW_INT,0.7000,265.8224,9.9861,0.0000,0.4717,1.0800,"999",38,23,23,8,3,01,3,73*4d0f17e4
$GNGGA,063456.20,3039.09665302,N,12047.28782229,E,4,27,0.7,4.2743,M,9.8165,M,03,0*79
$GNRMC,063456.20,A,3039.09665302,N,12047.28782229,E,0.033,54.9,170120,5.8,W,D*06
#HEADINGA,COM2,0,45.0,FINE,2088,455714.200,1776587,18,18;SOL_COMPUTED,NARROW_FLOAT,0.7067,265.0440,12.0619,0.0000,0.4380,1.0300,"999",38,24,24,10,3,01,3,73*213aa3cd
$GNGGA,063456.30,3039.09665191,N,12047.28782350,E,4,27,0.7,4.2642,M,9.8165,M,03,0*7F
$GNRMC,063456.30,A,3039.09665191,N,12047.28782350,E,0.055,136.4,170120,5.8,W,D*38
#HEADINGA,COM2,0,45.0,FINE,2088,455714.300,1776686,18,18;SOL_COMPUTED,NARROW_FLOAT,0.7134,264.8721,14.3371,0.0000,0.4009,0.8600,"999",37,25,25,10,3,01,3,73*8987d382
$GNGGA,063456.40,3039.09665116,N,12047.28782327,E,4,27,0.7,4.2702,M,9.8165,M,03,0*72
$GNRMC,063456.40,A,3039.09665116,N,12047.28782327,E,0.028,195.3,170120,5.8,W,D*34
#HEADINGA,COM2,0,45.0,FINE,2088,455714.400,1776786,22,18;SOL_COMPUTED,NARROW_FLOAT,0.7145,265.3850,12.2190,0.0000,0.4456,0.9394,"999",37,19,19,6,3,01,3,43*da9fcfde
$GNGGA,063456.50,3039.09665172,N,12047.28782436,E,4,27,0.7,4.2742,M,9.8165,M,03,0*72
$GNRMC,063456.50,A,3039.09665172,N,12047.28782436,E,0.039,59.3,170120,5.8,W,D*01
#HEADINGA,COM2,0,45.0,FINE,2088,455714.500,1776885,19,18;SOL_COMPUTED,NARROW_FLOAT,0.7140,265.4567,12.1005,0.0000,0.4123,0.8892,"999",37,23,23,9,3,01,3,73*0272a868
$GNGGA,063456.60,3039.09665287,N,12047.28781436,E,4,27,0.7,4.2539,M,9.8165,M,03,0*75
$GNRMC,063456.60,A,3039.09665287,N,12047.28781436,E,0.313,277.6,170120,5.8,W,D*38
#HEADINGA,COM2,0,45.0,FINE,2088,455714.600,1776985,26,18;SOL_COMPUTED,NARROW_FLOAT,0.7143,264.6124,13.6526,0.0000,0.4581,1.0539,"999",37,15,15,9,3,01,3,33*d65b5848
$GNGGA,063456.70,3039.09665223,N,12047.28781701,E,4,29,0.7,4.2473,M,9.8165,M,03,0*7C
$GNRMC,063456.70,A,3039.09665223,N,12047.28781701,E,0.085,105.6,170120,5.8,W,D*3A
#HEADINGA,COM2,0,45.0,FINE,2088,455714.700,1777085,18,18;SOL_COMPUTED,NARROW_FLOAT,0.7159,264.5018,14.3367,0.0000,0.3942,0.7661,"999",37,24,24,10,3,01,3,73*a5583f51
$GNGGA,063456.80,3039.09665320,N,12047.28782000,E,4,29,0.7,4.2540,M,9.8165,M,03,0*75
$GNRMC,063456.80,A,3039.09665320,N,12047.28782000,E,0.099,69.4,170120,5.8,W,D*06
#HEADINGA,COM2,0,45.0,FINE,2088,455714.800,1777185,18,18;SOL_COMPUTED,NARROW_FLOAT,0.7147,264.0594,15.0381,0.0000,0.4099,0.8000,"999",37,23,23,10,3,01,3,73*d2083737
$GNGGA,063456.90,3039.09665275,N,12047.28782100,E,4,29,0.7,4.2691,M,9.8165,M,03,0*7B
$GNRMC,063456.90,A,3039.09665275,N,12047.28782100,E,0.035,117.6,170120,5.8,W,D*3B
#HEADINGA,COM2,0,45.0,FINE,2088,455714.900,1777285,18,18;SOL_COMPUTED,NARROW_INT,0.7026,264.1462,15.3053,0.0000,0.4286,0.7758,"999",37,23,23,10,3,01,3,73*bf8a03af
#REFSTATIONA,COM2,0,42.0,FINE,2088,455702.000,1774587,2803,18;00000000,-2811044.342,4717820.352,3232735.546,0,RTCMV3,"0000"*1ffdb6b5
$GNGGA,063457.00,3039.09665271,N,12047.28782106,E,4,28,0.7,4.2663,M,9.8165,M,04,0*7A
$GNRMC,063457.00,A,3039.09665271,N,12047.28782106,E,0.002,128.4,170120,5.8,W,D*3B
#HEADINGA,COM2,0,45.0,FINE,2088,455715.000,1777386,23,18;SOL_COMPUTED,NARROW_FLOAT,0.7076,265.1209,12.6243,0.0000,0.4171,0.8537,"999",37,24,24,9,3,01,3,73*7c431d00
$GNGGA,063457.10,3039.09665324,N,12047.28782262,E,4,29,0.7,4.2586,M,9.8165,M,04,0*72
$GNRMC,063457.10,A,3039.09665324,N,12047.28782262,E,0.052,68.4,170120,5.8,W,D*0A
#HEADINGA,COM2,0,45.0,FINE,2088,455715.100,1777486,18,18;SOL_COMPUTED,NARROW_FLOAT,0.7102,265.3000,11.8156,0.0000,0.4133,0.8708,"999",37,23,23,9,3,01,3,73*f7c1c944
$GNGGA,063457.20,3039.09665148,N,12047.28782099,E,4,29,0.7,4.2664,M,9.8165,M,04,0*70
$GNRMC,063457.20,A,3039.09665148,N,12047.28782099,E,0.081,218.7,170120,5.8,W,D*3F
#HEADINGA,COM2,0,45.0,FINE,2088,455715.200,1777586,18,18;SOL_COMPUTED,NARROW_FLOAT,0.7074,265.3026,12.1594,0.0000,0.4068,0.8232,"999",37,25,25,10,3,01,3,73*0509f846
$GNGGA,063457.30,3039.09665160,N,12047.28782050,E,4,29,0.7,4.2643,M,9.8165,M,03,0*7C
$GNRMC,063457.30,A,3039.09665160,N,12047.28782050,E,0.016,285.6,170120,5.8,W,D*3A
#HEADINGA,COM2,0,45.0,FINE,2088,455715.300,1777685,23,18;SOL_COMPUTED,NARROW_FLOAT,0.7066,265.3608,13.1668,0.0000,0.4510,0.9447,"999",36,17,17,10,3,01,3,33*5df85e47
$GNGGA,063457.40,3039.09665191,N,12047.28781994,E,4,29,0.7,4.2616,M,9.8165,M,03,0*77
$GNRMC,063457.40,A,3039.09665191,N,12047.28781994,E,0.021,302.7,170120,5.8,W,D*3A
#HEADINGA,COM2,0,45.0,FINE,2088,455715.400,1777785,18,18;SOL_COMPUTED,NARROW_INT,0.7038,265.3372,13.0745,0.0000,0.3035,0.7367,"999",36,28,28,10,3,01,3,73*1bdc082a
$GNGGA,063457.50,3039.09665434,N,12047.28782238,E,4,29,0.7,4.2597,M,9.8165,M,03,0*78
$GNRMC,063457.50,A,3039.09665434,N,12047.28782238,E,0.116,40.9,170120,5.8,W,D*01
#HEADINGA,COM2,0,45.0,FINE,2088,455715.500,1777884,18,18;SOL_COMPUTED,NARROW_FLOAT,0.7141,264.9457,13.7567,0.0000,0.2982,0.7028,"999",36,29,29,10,3,01,3,73*7066bcbc
$GNGGA,063457.60,3039.09665422,N,12047.28782159,E,4,29,0.7,4.2500,M,9.8165,M,03,0*76
$GNRMC,063457.60,A,3039.09665422,N,12047.28782159,E,0.025,259.9,170120,5.8,W,D*3A
#HEADINGA,COM2,0,45.0,FINE,2088,455715.600,1777985,20,18;SOL_COMPUTED,NARROW_FLOAT,0.7133,265.1750,13.1422,0.0000,0.2996,0.7259,"999",36,28,28,10,3,01,3,73*aff6e09d
$GNGGA,063457.70,3039.09665407,N,12047.28782219,E,4,29,0.7,4.2492,M,9.8165,M,03,0*7D
$GNRMC,063457.70,A,3039.09665407,N,12047.28782219,E,0.019,106.0,170120,5.8,W,D*34
#HEADINGA,COM2,0,45.0,FINE,2088,455715.700,1778085,17,18;SOL_COMPUTED,NARROW_FLOAT,0.7097,265.2698,12.9704,0.0000,0.3010,0.7308,"999",36,28,28,10,3,01,3,73*bc8373dd
$GNGGA,063457.80,3039.09665257,N,12047.28782264,E,4,29,0.7,4.2486,M,9.8165,M,03,0*7E
$GNRMC,063457.80,A,3039.09665257,N,12047.28782264,E,0.056,165.5,170120,5.8,W,D*39
#HEADINGA,COM2,0,45.0,FINE,2088,455715.800,1778185,18,18;SOL_COMPUTED,NARROW_FLOAT,0.7138,265.2775,12.4175,0.0000,0.3005,0.7426,"999",36,27,27,9,3,01,3,73*d6643ca8
$GNGGA,063457.90,3039.09665546,N,12047.28782479,E,4,29,0.7,4.2486,M,9.8165,M,03,0*72
$GNRMC,063457.90,A,3039.09665546,N,12047.28782479,E,0.123,32.8,170120,5.8,W,D*08
#HEADINGA,COM2,0,45.0,FINE,2088,455715.900,1778284,18,18;SOL_COMPUTED,NARROW_FLOAT,0.7185,265.1408,12.4475,0.0000,0.2971,0.7250,"999",36,28,28,10,3,01,3,73*c1b04191
#REFSTATIONA,COM2,0,45.0,FINE,2088,455702.000,1777586,803,18;00000000,-2811044.342,4717820.352,3232735.546,0,RTCMV3,"0000"*ca5d7c6e
$GNGGA,063458.00,3039.09665398,N,12047.28782086,E,4,29,0.7,4.2505,M,9.8165,M,04,0*78
$GNRMC,063458.00,A,3039.09665398,N,12047.28782086,E,0.133,246.4,170120,5.8,W,D*33
#HEADINGA,COM2,0,45.0,FINE,2088,455716.000,1778385,22,18;SOL_COMPUTED,NARROW_FLOAT,0.7122,265.0133,13.0187,0.0000,0.2987,0.7073,"999",36,29,29,10,3,01,3,73*99edbf14
$GNGGA,063458.10,3039.09665513,N,12047.28782246,E,4,29,0.7,4.2509,M,9.8165,M,04,0*7E
$GNRMC,063458.10,A,3039.09665513,N,12047.28782246,E,0.065,50.2,170120,5.8,W,D*08
#HEADINGA,COM2,0,45.0,FINE,2088,455716.100,1778485,18,18;SOL_COMPUTED,NARROW_FLOAT,0.7117,265.2481,12.5257,0.0000,0.3000,0.7310,"999",36,28,28,10,3,01,3,73*4453d150
$GNGGA,063458.20,3039.09665480,N,12047.28782182,E,4,29,0.7,4.2429,M,9.8165,M,04,0*7E
$GNRMC,063458.20,A,3039.09665480,N,12047.28782182,E,0.023,239.2,170120,5.8,W,D*34
#HEADINGA,COM2,0,45.0,FINE,2088,455716.200,1778586,19,18;SOL_COMPUTED,NARROW_INT,0.7021,265.7270,12.0976,0.0000,0.3133,0.7722,"999",36,26,26,8,3,01,3,73*4625076b
$GNGGA,063458.30,3039.09665573,N,12047.28782355,E,4,29,0.7,4.2478,M,9.8165,M,04,0*7E
$GNRMC,063458.30,A,3039.09665573,N,12047.28782355,E,0.063,58.1,170120,5.8,W,D*02
#HEADINGA,COM2,0,45.0,FINE,2088,455716.300,1778685,22,18;SOL_COMPUTED,NARROW_INT,0.7001,265.2036,12.3000,0.0000,0.3221,0.7979,"999",36,22,22,7,3,01,0,73*c67be33d
$GNGGA,063458.40,3039.09665431,N,12047.28782142,E,4,29,0.7,4.2437,M,9.8165,M,04,0*71
$GNRMC,063458.40,A,3039.09665431,N,12047.28782142,E,0.084,232.4,170120,5.8,W,D*34
#HEADINGA,COM2,0,45.0,FINE,2088,455716.400,1778785,19,18;SOL_COMPUTED,NARROW_FLOAT,0.7086,264.9937,13.6330,0.0000,0.3135,0.7449,"999",36,26,26,10,3,01,3,73*8818853a
$GNGGA,063458.50,3039.09668695,N,12047.28775077,E,4,29,0.7,4.4333,M,9.8165,M,04,0*7B
$GNRMC,063458.50,A,3039.09668695,N,12047.28775077,E,2.488,298.1,170120,5.8,W,D*34
#HEADINGA,COM2,0,41.0,FINE,2088,455716.500,1778884,22,18;SOL_COMPUTED,NARROW_INT,0.6985,265.2413,12.6083,0.0000,0.3218,0.7602,"999",36,26,26,9,3,01,3,73*69ba6153
$GNGGA,063458.60,3039.09668655,N,12047.28774848,E,4,29,0.7,4.4407,M,9.8165,M,04,0*71
$GNRMC,063458.60,A,3039.09668655,N,12047.28774848,E,0.073,258.6,170120,5.8,W,D*37
#HEADINGA,COM2,0,41.0,FINE,2088,455716.600,1778985,18,18;SOL_COMPUTED,NARROW_INT,0.6881,265.6211,11.8167,0.0000,0.3269,0.7741,"999",36,26,26,9,3,01,3,73*fff30123
$GNGGA,063458.70,3039.09668503,N,12047.28774962,E,4,29,0.7,4.4400,M,9.8165,M,04,0*7E
$GNRMC,063458.70,A,3039.09668503,N,12047.28774962,E,0.065,147.1,170120,5.8,W,D*32
#HEADINGA,COM2,0,41.0,FINE,2088,455716.700,1779084,25,18;SOL_COMPUTED,NARROW_INT,0.6939,265.4212,16.8220,0.0000,0.5816,1.3423,"999",36,14,14,9,3,01,3,33*c2001c88
$GNGGA,063458.80,3039.09668659,N,12047.28774976,E,4,29,0.7,4.4419,M,9.8165,M,04,0*70
$GNRMC,063458.80,A,3039.09668659,N,12047.28774976,E,0.056,4.3,170120,5.8,W,D*30
#HEADINGA,COM2,0,41.0,FINE,2088,455716.800,1779184,25,18;SOL_COMPUTED,NARROW_INT,0.6901,265.2661,15.2496,0.0000,0.5598,1.3567,"999",36,15,15,9,3,01,3,33*44dfe469
$GNGGA,063458.90,3039.09668294,N,12047.28774892,E,4,29,0.7,4.4379,M,9.8165,M,04,0*7E
$GNRMC,063458.90,A,3039.09668294,N,12047.28774892,E,0.134,191.2,170120,5.8,W,D*36
#HEADINGA,COM2,0,41.0,FINE,2088,455716.900,1779284,26,18;SOL_COMPUTED,NARROW_FLOAT,0.7399,263.5291,14.1082,0.0000,0.4939,0.9749,"999",36,17,17,6,3,01,3,70*2b178431
#REFSTATIONA,COM2,0,45.0,FINE,2088,455702.000,1777586,1803,18;00000000,-2811044.342,4717820.352,3232735.546,0,RTCMV3,"0000"*25637055
$GNGGA,063459.00,3039.09668432,N,12047.28775026,E,4,29,0.7,4.4456,M,9.8165,M,05,0*71
$GNRMC,063459.00,A,3039.09668432,N,12047.28775026,E,0.065,40.1,170120,5.8,W,D*09
#HEADINGA,COM2,0,41.0,FINE,2088,455717.000,1779385,27,18;SOL_COMPUTED,NARROW_INT,0.6744,266.4093,9.4048,0.0000,0.3352,0.8297,"999",36,23,23,7,3,01,0,73*33bc1749
$GNGGA,063459.10,3039.09668582,N,12047.28775263,E,4,29,0.7,4.4424,M,9.8165,M,05,0*7C
$GNRMC,063459.10,A,3039.09668582,N,12047.28775263,E,0.091,53.8,170120,5.8,W,D*01
#HEADINGA,COM2,0,41.0,FINE,2088,455717.100,1779485,25,18;SOL_COMPUTED,NARROW_INT,0.6830,266.4216,11.8234,0.0000,0.4775,1.0112,"999",36,16,16,9,3,01,3,33*412332a7
$GNGGA,063459.20,3039.09668482,N,12047.28775029,E,4,29,0.7,4.4434,M,9.8165,M,05,0*73
$GNRMC,063459.20,A,3039.09668482,N,12047.28775029,E,0.081,243.7,170120,5.8,W,D*32
#HEADINGA,COM2,0,41.0,FINE,2088,455717.200,1779586,26,18;SOL_COMPUTED,NARROW_INT,0.7036,265.0276,12.5680,0.0000,0.4968,1.0791,"999",36,14,14,8,3,01,3,33*3a288beb
$GNGGA,063459.30,3039.09668397,N,12047.28775266,E,4,29,0.7,4.4402,M,9.8165,M,02,0*7A
$GNRMC,063459.30,A,3039.09668397,N,12047.28775266,E,0.080,112.6,170120,5.8,W,D*3E
#HEADINGA,COM2,0,41.0,FINE,2088,455717.300,1779685,23,18;SOL_COMPUTED,NARROW_FLOAT,0.7172,264.5855,12.5622,0.0000,0.3632,0.8090,"999",36,20,20,6,3,01,3,43*4cea2de0
$GNGGA,063459.40,3039.09668376,N,12047.28775262,E,4,29,0.7,4.4493,M,9.8165,M,02,0*7E
$GNRMC,063459.40,A,3039.09668376,N,12047.28775262,E,0.008,188.9,170120,5.8,W,D*3E
#HEADINGA,COM2,0,41.0,FINE,2088,455717.400,1779785,22,18;SOL_COMPUTED,NARROW_FLOAT,0.7159,264.5338,11.6992,0.0000,0.3602,0.8243,"999",36,20,20,7,3,01,0,73*9ffba919
$GNGGA,063459.50,3039.09668398,N,12047.28775189,E,4,29,0.7,4.4531,M,9.8165,M,02,0*70
$GNRMC,063459.50,A,3039.09668398,N,12047.28775189,E,0.024,289.6,170120,5.8,W,D*3A
#HEADINGA,COM2,0,41.0,FINE,2088,455717.500,1779885,19,18;SOL_COMPUTED,NARROW_FLOAT,0.7193,264.3792,13.0423,0.0000,0.3432,0.7315,"999",36,25,25,10,3,01,3,73*3402aba4
$GNGGA,063459.60,3039.09670231,N,12047.28769681,E,4,29,0.7,4.5919,M,9.8165,M,02,0*7D
$GNRMC,063459.60,A,3039.09670231,N,12047.28769681,E,1.833,291.1,170120,5.8,W,D*31
#HEADINGA,COM2,0,41.0,FINE,2088,455717.600,1779985,26,18;SOL_COMPUTED,NARROW_FLOAT,0.7181,264.5609,15.1427,0.0000,0.4510,0.9351,"999",36,17,17,10,3,01,3,33*aca2e491
$GNGGA,063459.70,3039.09670347,N,12047.28769691,E,4,29,0.7,4.5887,M,9.8165,M,02,0*7B
$GNRMC,063459.70,A,3039.09670347,N,12047.28769691,E,0.042,4.1,170120,5.8,W,D*30
#HEADINGA,COM2,0,41.0,FINE,2088,455717.700,1780085,22,18;SOL_COMPUTED,NARROW_FLOAT,0.7246,264.3992,16.1480,0.0000,0.4500,0.9241,"999",36,17,17,10,3,01,3,33*f4204448
$GNGGA,063459.80,3039.09670290,N,12047.28769774,E,4,29,0.7,4.5877,M,9.8165,M,02,0*7A
$GNRMC,063459.80,A,3039.09670290,N,12047.28769774,E,0.033,128.4,170120,5.8,W,D*32
#HEADINGA,COM2,0,41.0,FINE,2088,455717.800,1780185,22,18;SOL_COMPUTED,NARROW_FLOAT,0.7204,264.4656,13.1137,0.0000,0.3641,0.8081,"999",36,20,20,6,3,01,3,43*44a4a58f
$GNGGA,063459.90,3039.09670356,N,12047.28769785,E,4,29,0.7,4.5885,M,9.8165,M,02,0*73
$GNRMC,063459.90,A,3039.09670356,N,12047.28769785,E,0.024,8.1,170120,5.8,W,D*36
#HEADINGA,COM2,0,41.0,FINE,2088,455717.900,1780285,18,18;SOL_COMPUTED,NARROW_FLOAT,0.7194,264.5614,12.5294,0.0000,0.3480,0.7725,"999",36,24,24,10,3,01,3,73*add74e6f
#REFSTATIONA,COM2,0,41.0,FINE,2088,455715.000,1779586,803,18;00000000,-2811044.342,4717820.352,3232735.546,0,RTCMV3,"0000"*07b6f524
$GNGGA,063500.00,3039.09670223,N,12047.28769688,E,4,29,0.7,4.5952,M,9.8165,M,03,0*72
$GNRMC,063500.00,A,3039.09670223,N,12047.28769688,E,0.057,212.4,170120,5.8,W,D*35
#HEADINGA,COM2,0,41.0,FINE,2088,455718.000,1780385,29,18;SOL_COMPUTED,NARROW_FLOAT,0.7222,265.0319,15.9459,0.0000,0.5105,0.9866,"999",36,14,14,8,3,01,3,33*696680f3
$GNGGA,063500.10,3039.09670238,N,12047.28769576,E,4,29,0.7,4.5888,M,9.8165,M,03,0*7D
$GNRMC,063500.10,A,3039.09670238,N,12047.28769576,E,0.035,279.0,170120,5.8,W,D*31
#HEADINGA,COM2,0,41.0,FINE,2088,455718.100,1780485,24,18;SOL_COMPUTED,NARROW_FLOAT,0.7239,264.3282,14.0226,0.0000,0.4774,1.0447,"999",36,14,14,8,3,01,3,33*1cb5b402
$GNGGA,063500.20,3039.09670278,N,12047.28769966,E,4,29,0.7,4.5913,M,9.8165,M,03,0*74
$GNRMC,063500.20,A,3039.09670278,N,12047.28769966,E,0.122,83.3,170120,5.8,W,D*08
#HEADINGA,COM2,0,41.0,FINE,2088,455718.200,1780586,20,18;SOL_COMPUTED,NARROW_FLOAT,0.7227,264.9940,12.3281,0.0000,0.3478,0.7721,"999",36,24,24,10,3,01,3,73*1b962b55
$GNGGA,063500.30,3039.09670041,N,12047.28769635,E,4,29,0.7,4.5910,M,9.8165,M,02,0*76
$GNRMC,063500.30,A,3039.09670041,N,12047.28769635,E,0.133,230.4,170120,5.8,W,D*35
#HEADINGA,COM2,0,41.0,FINE,2088,455718.300,1780685,19,18;SOL_COMPUTED,NARROW_INT,0.6942,266.6551,10.7408,0.0000,0.3476,0.9031,"999",36,24,24,8,3,01,3,73*3844d595
$GNGGA,063500.40,3039.09670337,N,12047.28769777,E,4,29,0.7,4.5854,M,9.8165,M,02,0*75
$GNRMC,063500.40,A,3039.09670337,N,12047.28769777,E,0.115,22.5,170120,5.8,W,D*03
#HEADINGA,COM2,0,41.0,FINE,2088,455718.400,1780785,21,18;SOL_COMPUTED,NARROW_INT,0.7029,265.4204,10.4477,0.0000,0.3729,0.9582,"999",36,19,19,6,3,01,0,73*f5d09387
$GNGGA,063500.50,3039.09670241,N,12047.28769670,E,4,29,0.7,4.5912,M,9.8165,M,02,0*71
$GNRMC,063500.50,A,3039.09670241,N,12047.28769670,E,0.048,223.9,170120,5.8,W,D*32
#HEADINGA,COM2,0,41.0,FINE,2088,455718.500,1780885,20,18;SOL_COMPUTED,NARROW_INT,0.6924,266.5710,9.7335,0.0000,0.3710,0.9757,"999",36,20,20,6,3,01,0,73*27e16ee1
$GNGGA,063500.60,3039.09670381,N,12047.28769793,E,4,29,0.7,4.5874,M,9.8165,M,02,0*72
$GNRMC,063500.60,A,3039.09670381,N,12047.28769793,E,0.063,37.3,170120,5.8,W,D*04
#HEADINGA,COM2,0,41.0,FINE,2088,455718.600,1780985,17,18;SOL_COMPUTED,NARROW_INT,0.6964,265.3783,10.1528,0.0000,0.3388,0.9356,"999",36,24,24,9,3,01,3,73*d37165e1
$GNGGA,063500.70,3039.09670511,N,12047.28769646,E,4,29,0.7,4.5984,M,9.8165,M,02,0*7B
$GNRMC,063500.70,A,3039.09670511,N,12047.28769646,E,0.065,315.6,170120,5.8,W,D*33
#HEADINGA,COM2,0,41.0,FINE,2088,455718.700,1781085,16,18;SOL_COMPUTED,NARROW_INT,0.7028,264.7383,11.2853,0.0000,0.3184,0.8041,"999",36,26,26,10,3,01,3,73*88816f54
$GNGGA,063500.80,3039.09670196,N,12047.28769632,E,4,29,0.7,4.5941,M,9.8165,M,02,0*75
$GNRMC,063500.80,A,3039.09670196,N,12047.28769632,E,0.113,182.2,170120,5.8,W,D*3C
#HEADINGA,COM2,0,41.0,FINE,2088,455718.800,1781185,22,18;SOL_COMPUTED,NARROW_FLOAT,0.7197,265.0754,11.6664,0.0000,0.4473,1.0532,"999",36,14,14,8,3,01,3,33*12d8ce87
$GNGGA,063500.90,3039.09670186,N,12047.28769374,E,4,29,0.7,4.5853,M,9.8165,M,02,0*70
$GNRMC,063500.90,A,3039.09670186,N,12047.28769374,E,0.080,267.4,170120,5.8,W,D*3E
#HEADINGA,COM2,0,41.0,FINE,2088,455718.900,1781284,18,18;SOL_COMPUTED,NARROW_INT,0.6904,265.6451,11.7084,0.0000,0.3708,0.8887,"999",36,23,23,9,3,01,3,73*4e8494ab
#REFSTATIONA,COM2,0,41.0,FINE,2088,455715.000,1780586,803,18;00000000,-2811044.342,4717820.352,3232735.546,0,RTCMV3,"0000"*ad1befc0
$GNGGA,063501.00,3039.09670342,N,12047.28769488,E,4,29,0.7,4.5920,M,9.8165,M,03,0*72
$GNRMC,063501.00,A,3039.09670342,N,12047.28769488,E,0.066,32.2,170120,5.8,W,D*04
#HEADINGA,COM2,0,41.0,FINE,2088,455719.000,1781385,28,18;SOL_COMPUTED,NARROW_INT,0.7023,264.7331,13.2363,0.0000,0.4289,1.0163,"999",36,16,16,10,3,01,3,33*62e4bea4
$GNGGA,063501.10,3039.09670283,N,12047.28769911,E,4,29,0.7,4.5868,M,9.8165,M,03,0*7F
$GNRMC,063501.10,A,3039.09670283,N,12047.28769911,E,0.133,99.3,170120,5.8,W,D*05
#HEADINGA,COM2,0,41.0,FINE,2088,455719.100,1781485,23,18;SOL_COMPUTED,NARROW_FLOAT,0.7076,265.2043,16.3072,0.0000,0.5184,1.2518,"999",36,15,15,10,3,01,3,33*420f59b5
$GNGGA,063501.20,3039.09670368,N,12047.28769871,E,4,29,0.7,4.5905,M,9.8165,M,03,0*75
$GNRMC,063501.20,A,3039.09670368,N,12047.28769871,E,0.033,338.0,170120,5.8,W,D*3F
#HEADINGA,COM2,0,41.0,FINE,2088,455719.200,1781586,19,18;SOL_COMPUTED,NARROW_FLOAT,0.7113,265.2541,13.2569,0.0000,0.3249,0.8071,"999",36,24,24,10,3,01,3,73*e1f954c5
$GNGGA,063501.30,3039.09670320,N,12047.28769593,E,4,29,0.7,4.5941,M,9.8165,M,02,0*78
$GNRMC,063501.30,A,3039.09670320,N,12047.28769593,E,0.088,258.7,170120,5.8,W,D*33
#HEADINGA,COM2,0,41.0,FINE,2088,455719.300,1781685,17,18;SOL_COMPUTED,NARROW_INT,0.7051,265.1121,12.1852,0.0000,0.3385,0.8022,"999",36,24,24,10,3,01,3,73*5fa5eeda
$GNGGA,063501.40,3039.09670452,N,12047.28769774,E,4,29,0.7,4.5825,M,9.8165,M,02,0*75
$GNRMC,063501.40,A,3039.09670452,N,12047.28769774,E,0.074,49.7,170120,5.8,W,D*0C
#HEADINGA,COM2,0,41.0,FINE,2088,455719.400,1781785,18,18;SOL_COMPUTED,NARROW_FLOAT,0.7113,264.6852,13.3168,0.0000,0.3362,0.7902,"999",36,24,24,10,3,01,3,73*a06e00d3
$GNGGA,063501.50,3039.09670300,N,12047.28769587,E,4,29,0.7,4.5819,M,9.8165,M,02,0*75
$GNRMC,063501.50,A,3039.09670300,N,12047.28769587,E,0.080,226.8,170120,5.8,W,D*3C
#HEADINGA,COM2,0,41.0,FINE,2088,455719.500,1781885,18,18;SOL_COMPUTED,NARROW_FLOAT,0.7068,265.0587,11.9407,0.0000,0.3318,0.8066,"999",36,25,25,10,3,01,3,73*0c3d4cee
$GNGGA,063501.60,3039.09670397,N,12047.28769485,E,4,29,0.7,4.5788,M,9.8165,M,02,0*7C
$GNRMC,063501.60,A,3039.09670397,N,12047.28769485,E,0.047,317.8,170120,5.8,W,D*3A
#HEADINGA,COM2,0,41.0,FINE,2088,455719.600,1781985,20,18;SOL_COMPUTED,NARROW_FLOAT,0.7111,265.3279,10.2508,0.0000,0.3479,1.0027,"999",36,20,20,7,3,01,0,73*5c233d81
$GNGGA,063501.70,3039.09670486,N,12047.28769774,E,4,29,0.7,4.5807,M,9.8165,M,02,0*7F
$GNRMC,063501.70,A,3039.09670486,N,12047.28769774,E,0.095,70.5,170120,5.8,W,D*01
#HEADINGA,COM2,0,41.0,FINE,2088,455719.700,1782084,19,18;SOL_COMPUTED,NARROW_FLOAT,0.7218,265.8152,10.5857,0.0000,0.3366,0.9298,"999",36,23,23,10,3,01,3,73*7c408f8a
$GNGGA,063501.80,3039.09670230,N,12047.28769660,E,4,29,0.7,4.5869,M,9.8165,M,02,0*77
$GNRMC,063501.80,A,3039.09670230,N,12047.28769660,E,0.099,201.2,170120,5.8,W,D*3E
#HEADINGA,COM2,0,41.0,FINE,2088,455719.800,1782185,18,18;SOL_COMPUTED,NARROW_FLOAT,0.7146,266.0950,9.5154,0.0000,0.3359,0.9534,"999",36,23,23,9,3,01,3,73*413e10f7
$GNGGA,063501.90,3039.09670140,N,12047.28769492,E,4,29,0.7,4.5858,M,9.8165,M,02,0*7F
$GNRMC,063501.90,A,3039.09670140,N,12047.28769492,E,0.061,238.1,170120,5.8,W,D*3A
#HEADINGA,COM2,0,41.0,FINE,2088,455719.900,1782285,17,18;SOL_COMPUTED,NARROW_FLOAT,0.7084,265.5247,11.0183,0.0000,0.3399,0.9589,"999",36,23,23,9,3,01,3,73*024cfc07
#REFSTATIONA,COM2,0,41.0,FINE,2088,455715.000,1781586,803,18;00000000,-2811044.342,4717820.352,3232735.546,0,RTCMV3,"0000"*5ad7b3ce
$GNGGA,063502.00,3039.09670228,N,12047.28769884,E,4,29,0.7,4.5927,M,9.8165,M,03,0*7B
$GNRMC,063502.00,A,3039.09670228,N,12047.28769884,E,0.126,75.4,170120,5.8,W,D*0A
#HEADINGA,COM2,0,41.0,FINE,2088,455720.000,1782385,25,18;SOL_COMPUTED,NARROW_INT,0.6982,265.4005,11.4701,0.0000,0.3472,0.9033,"999",36,19,19,6,3,01,0,73*317e91e3
$GNGGA,063502.10,3039.09670178,N,12047.28769685,E,4,29,0.7,4.5946,M,9.8165,M,03,0*74
$GNRMC,063502.10,A,3039.09670178,N,12047.28769685,E,0.064,253.7,170120,5.8,W,D*30
#HEADINGA,COM2,0,41.0,FINE,2088,455720.100,1782485,19,18;SOL_COMPUTED,NARROW_FLOAT,0.7079,265.1470,11.7222,0.0000,0.3417,0.8295,"999",36,23,23,9,3,01,3,73*e2a02dd1
$GNGGA,063502.20,3039.09670135,N,12047.28769830,E,4,29,0.7,4.5875,M,9.8165,M,03,0*7F
$GNRMC,063502.20,A,3039.09670135,N,12047.28769830,E,0.048,108.9,170120,5.8,W,D*37
#HEADINGA,COM2,0,41.0,FINE,2088,455720.200,1782586,19,18;SOL_COMPUTED,NARROW_FLOAT,0.7081,265.6822,11.9415,0.0000,0.3447,0.8661,"999",36,22,22,8,3,01,3,73*31d116be
$GNGGA,063502.30,3039.09670239,N,12047.28769988,E,4,30,0.6,4.5889,M,9.8165,M,03,0*79
$GNRMC,063502.30,A,3039.09670239,N,12047.28769988,E,0.062,52.7,170120,5.8,W,D*03
#HEADINGA,COM2,0,41.0,FINE,2088,455720.300,1782685,18,18;SOL_COMPUTED,NARROW_FLOAT,0.7080,265.6010,11.5783,0.0000,0.3317,0.8320,"999",36,24,24,9,3,01,3,73*37520566
$GNGGA,063502.40,3039.09670298,N,12047.28770006,E,4,30,0.6,4.5949,M,9.8165,M,03,0*7F
$GNRMC,063502.40,A,3039.09670298,N,12047.28770006,E,0.022,14.9,170120,5.8,W,D*00
#HEADINGA,COM2,0,41.0,FINE,2088,455720.400,1782785,18,18;SOL_COMPUTED,NARROW_FLOAT,0.7124,265.2898,11.9283,0.0000,0.3027,0.7558,"999",36,27,27,9,3,01,3,73*46df6107
$GNGGA,063502.50,3039.09670172,N,12047.28769752,E,4,30,0.6,4.5912,M,9.8165,M,03,0*79
$GNRMC,063502.50,A,3039.09670172,N,12047.28769752,E,0.091,240.2,170120,5.8,W,D*38
#HEADINGA,COM2,0,41.0,FINE,2088,455720.500,1782885,19,18;SOL_COMPUTED,NARROW_INT,0.7033,265.6473,11.8286,0.0000,0.3145,0.7834,"999",36,26,26,8,3,01,3,73*52eb7135
$GNGGA,063502.60,3039.09670180,N,12047.28769788,E,4,30,0.6,4.5934,M,9.8165,M,03,0*74
$GNRMC,063502.60,A,3039.09670180,N,12047.28769788,E,0.011,75.6,170120,5.8,W,D*09
#HEADINGA,COM2,0,41.0,FINE,2088,455720.600,1782985,16,18;SOL_COMPUTED,NARROW_FLOAT,0.7076,265.3818,11.8244,0.0000,0.3030,0.7380,"999",36,28,28,9,3,01,3,73*62ebbcaa
$GNGGA,063502.70,3039.09670341,N,12047.28769801,E,4,30,0.6,4.5895,M,9.8165,M,03,0*7E
$GNRMC,063502.70,A,3039.09670341,N,12047.28769801,E,0.058,4.2,170120,5.8,W,D*36
#HEADINGA,COM2,0,41.0,FINE,2088,455720.700,1783085,16,18;SOL_COMPUTED,NARROW_FLOAT,0.7148,265.2188,12.1202,0.0000,0.3004,0.7300,"999",36,28,28,9,3,01,3,73*8fb5ae59
$GNGGA,063502.80,3039.09670172,N,12047.28769864,E,4,30,0.6,4.5935,M,9.8165,M,03,0*7B
$GNRMC,063502.80,A,3039.09670172,N,12047.28769864,E,0.064,162.3,170120,5.8,W,D*37
#HEADINGA,COM2,0,41.0,FINE,2088,455720.800,1783185,16,18;SOL_COMPUTED,NARROW_FLOAT,0.7129,265.3835,11.5491,0.0000,0.3006,0.7331,"999",36,28,28,9,3,01,3,73*01fe4b00
$GNGGA,063502.90,3039.09670203,N,12047.28769770,E,4,30,0.6,4.5887,M,9.8165,M,03,0*7D
$GNRMC,063502.90,A,3039.09670203,N,12047.28769770,E,0.031,290.7,170120,5.8,W,D*33
#HEADINGA,COM2,0,41.0,FINE,2088,455720.900,1783285,17,18;SOL_COMPUTED,NARROW_FLOAT,0.7082,265.6343,11.6472,0.0000,0.3045,0.7601,"999",36,27,27,9,3,01,3,73*690fd809
#REFSTATIONA,COM2,0,41.0,FINE,2088,455715.000,1781586,1803,18;00000000,-2811044.342,4717820.352,3232735.546,0,RTCMV3,"0000"*f3255972
$GNGGA,063503.00,3039.09670311,N,12047.28769665,E,4,30,0.6,4.5778,M,9.8165,M,04,0*7A
$GNRMC,063503.00,A,3039.09670311,N,12047.28769665,E,0.050,320.2,170120,5.8,W,D*34
#HEADINGA,COM2,0,41.0,FINE,2088,455721.000,1783385,24,18;SOL_COMPUTED,NARROW_INT,0.7053,265.7030,11.7123,0.0000,0.3132,0.7762,"999",36,26,26,8,3,01,3,73*e87ee824
$GNGGA,063503.10,3039.09670372,N,12047.28769743,E,4,30,0.6,4.5756,M,9.8165,M,04,0*77
$GNRMC,063503.10,A,3039.09670372,N,12047.28769743,E,0.033,47.6,170120,5.8,W,D*06
#HEADINGA,COM2,0,41.0,FINE,2088,455721.100,1783485,20,18;SOL_COMPUTED,NARROW_INT,0.7051,265.7506,12.0221,0.0000,0.3136,0.7793,"999",36,25,25,8,3,01,3,73*ea4580d4
$GNGGA,063503.20,3039.09670464,N,12047.28769844,E,4,30,0.6,4.5811,M,9.8165,M,04,0*70
$GNRMC,063503.20,A,3039.09670464,N,12047.28769844,E,0.046,43.4,170120,5.8,W,D*09
#HEADINGA,COM2,0,41.0,FINE,2088,455721.200,1783586,19,18;SOL_COMPUTED,NARROW_FLOAT,0.7062,265.3970,12.3384,0.0000,0.3058,0.7607,"999",36,26,26,9,3,01,3,73*f190f858
$GNGGA,063503.30,3039.09670346,N,12047.28769772,E,4,30,0.6,4.5779,M,9.8165,M,02,0*7B
$GNRMC,063503.30,A,3039.09670346,N,12047.28769772,E,0.048,207.8,170120,5.8,W,D*35
#HEADINGA,COM2,0,41.0,FINE,2088,455721.300,1783685,19,18;SOL_COMPUTED,NARROW_FLOAT,0.7100,265.7491,12.4179,0.0000,0.3044,0.7553,"999",36,27,27,9,3,01,3,73*6a8f03e0
$GNGGA,063503.40,3039.09670418,N,12047.28769825,E,4,30,0.6,4.5762,M,9.8165,M,02,0*77
$GNRMC,063503.40,A,3039.09670418,N,12047.28769825,E,0.031,32.7,170120,5.8,W,D*06
#HEADINGA,COM2,0,41.0,FINE,2088,455721.400,1783786,18,18;SOL_COMPUTED,NARROW_FLOAT,0.7089,265.4434,12.6893,0.0000,0.3013,0.7383,"999",36,29,29,9,3,01,3,73*76111304
$GNGGA,063503.50,3039.09670370,N,12047.28769752,E,4,30,0.6,4.5816,M,9.8165,M,02,0*7C
$GNRMC,063503.50,A,3039.09670370,N,12047.28769752,E,0.028,233.1,170120,5.8,W,D*3C
#HEADINGA,COM2,0,41.0,FINE,2088,455721.500,1783885,18,18;SOL_COMPUTED,NARROW_FLOAT,0.7091,265.3104,12.5538,0.0000,0.3008,0.7375,"999",36,29,29,9,3,01,3,73*e1aa1bbb
$GNGGA,063503.60,3039.09670281,N,12047.28769749,E,4,30,0.6,4.5836,M,9.8165,M,02,0*78
$GNRMC,063503.60,A,3039.09670281,N,12047.28769749,E,0.032,181.8,170120,5.8,W,D*32
#HEADINGA,COM2,0,41.0,FINE,2088,455721.600,1783985,18,18;SOL_COMPUTED,NARROW_INT,0.7055,265.2242,12.2057,0.0000,0.3018,0.7424,"999",36,29,29,9,3,01,3,73*4304c652
$GNGGA,063503.70,3039.09670580,N,12047.28769896,E,4,30,0.6,4.5775,M,9.8165,M,02,0*7A
$GNRMC,063503.70,A,3039.09670580,N,12047.28769896,E,0.117,23.0,170120,5.8,W,D*0F
#HEADINGA,COM2,0,41.0,FINE,2088,455721.700,1784085,18,18;SOL_COMPUTED,NARROW_FLOAT,0.7089,264.9587,13.4737,0.0000,0.3045,0.7490,"999",36,27,27,9,3,01,3,73*a1b73872
$GNGGA,063503.80,3039.09670502,N,12047.28769843,E,4,30,0.6,4.5792,M,9.8165,M,02,0*7E
$GNRMC,063503.80,A,3039.09670502,N,12047.28769843,E,0.032,210.7,170120,5.8,W,D*31
#HEADINGA,COM2,0,41.0,FINE,2088,455721.800,1784185,16,18;SOL_COMPUTED,NARROW_FLOAT,0.7070,264.8670,13.5156,0.0000,0.3007,0.7155,"999",36,30,30,9,3,01,3,73*9b39dbd2
$GNGGA,063503.90,3039.09670450,N,12047.28769742,E,4,30,0.6,4.5757,M,9.8165,M,02,0*7E
$GNRMC,063503.90,A,3039.09670450,N,12047.28769742,E,0.036,239.2,170120,5.8,W,D*32
#HEADINGA,COM2,0,41.0,FINE,2088,455721.900,1784285,18,18;SOL_COMPUTED,NARROW_INT,0.7046,265.0073,12.9761,0.0000,0.3024,0.7412,"999",36,28,28,9,3,01,3,73*55387074
#REFSTATIONA,COM2,0,41.0,FINE,2088,455715.000,1783586,803,18;00000000,-2811044.342,4717820.352,3232735.546,0,RTCMV3,"0000"*6e3e0d93
$GNGGA,063504.00,3039.09670450,N,12047.28769907,E,4,30,0.6,4.5832,M,9.8165,M,03,0*72
$GNRMC,063504.00,A,3039.09670450,N,12047.28769907,E,0.051,89.9,170120,5.8,W,D*00
#HEADINGA,COM2,0,41.0,FINE,2088,455722.000,1784385,23,18;SOL_COMPUTED,NARROW_FLOAT,0.7109,265.1756,12.6660,0.0000,0.2993,0.7340,"999",36,29,29,9,3,01,3,73*f8df4e1b
$GNGGA,063504.10,3039.09670546,N,12047.28769866,E,4,30,0.6,4.5798,M,9.8165,M,03,0*7C
$GNRMC,063504.10,A,3039.09670546,N,12047.28769866,E,0.037,339.7,170120,5.8,W,D*37
#HEADINGA,COM2,0,41.0,FINE,2088,455722.100,1784485,19,18;SOL_COMPUTED,NARROW_FLOAT,0.7112,264.9903,13.0544,0.0000,0.2996,0.7328,"999",36,29,29,9,3,01,3,73*6a2b2086
$GNGGA,063504.20,3039.09670321,N,12047.28769761,E,4,30,0.6,4.5775,M,9.8165,M,03,0*73
$GNRMC,063504.20,A,3039.09670321,N,12047.28769761,E,0.087,202.0,170120,5.8,W,D*3E
#HEADINGA,COM2,0,41.0,FINE,2088,455722.200,1784586,19,18;SOL_COMPUTED,NARROW_FLOAT,0.7099,265.1070,12.9291,0.0000,0.3003,0.7345,"999",36,29,29,9,3,01,3,73*0777bea8
$GNGGA,063504.30,3039.09670368,N,12047.28769665,E,4,30,0.6,4.5781,M,9.8165,M,02,0*70
$GNRMC,063504.30,A,3039.09670368,N,12047.28769665,E,0.034,299.4,170120,5.8,W,D*39
#HEADINGA,COM2,0,41.0,FINE,2088,455722.300,1784685,20,18;SOL_COMPUTED,NARROW_FLOAT,0.7062,264.7930,12.9765,0.0000,0.3008,0.7388,"999",36,28,28,9,3,01,3,73*6647dc14
$GNGGA,063504.40,3039.09670475,N,12047.28769824,E,4,30,0.6,4.5779,M,9.8165,M,02,0*70
$GNRMC,063504.40,A,3039.09670475,N,12047.28769824,E,0.063,52.1,170120,5.8,W,D*0C
#HEADINGA,COM2,0,41.0,FINE,2088,455722.400,1784785,18,18;SOL_COMPUTED,NARROW_FLOAT,0.7115,264.8032,13.7520,0.0000,0.2983,0.7108,"999",36,30,30,10,3,01,3,73*e2835f90
$GNGGA,063504.50,3039.09670246,N,12047.28769620,E,4,30,0.6,4.5749,M,9.8165,M,02,0*7E
$GNRMC,063504.50,A,3039.09670246,N,12047.28769620,E,0.104,217.6,170120,5.8,W,D*35
#HEADINGA,COM2,0,39.0,FINE,2088,455722.500,1784885,18,18;SOL_COMPUTED,NARROW_FLOAT,0.7097,264.9670,13.6030,0.0000,0.3005,0.7341,"999",36,29,29,10,3,01,3,73*a42ff210
$GNGGA,063504.60,3039.09670290,N,12047.28769833,E,4,30,0.6,4.5803,M,9.8165,M,02,0*7B
$GNRMC,063504.60,A,3039.09670290,N,12047.28769833,E,0.068,76.6,170120,5.8,W,D*0F
#HEADINGA,COM2,0,39.0,FINE,2088,455722.600,1784985,17,18;SOL_COMPUTED,NARROW_FLOAT,0.7098,265.3225,12.4186,0.0000,0.2996,0.7366,"999",36,29,29,10,3,01,3,73*c68ffc84
$GNGGA,063504.70,3039.09670275,N,12047.28769606,E,4,30,0.6,4.5759,M,9.8165,M,02,0*79
$GNRMC,063504.70,A,3039.09670275,N,12047.28769606,E,0.071,265.6,170120,5.8,W,D*35
#HEADINGA,COM2,0,39.0,FINE,2088,455722.700,1785085,18,18;SOL_COMPUTED,NARROW_INT,0.7030,265.5144,13.1077,0.0000,0.3137,0.7678,"999",36,27,27,9,3,01,3,73*d9f131ad
$GNGGA,063504.80,3039.09670378,N,12047.28769874,E,4,30,0.6,4.5850,M,9.8165,M,02,0*77
$GNRMC,063504.80,A,3039.09670378,N,12047.28769874,E,0.091,66.0,170120,5.8,W,D*04
#HEADINGA,COM2,0,39.0,FINE,2088,455722.800,1785185,17,18;SOL_COMPUTED,NARROW_FLOAT,0.7091,265.2122,12.7861,0.0000,0.3001,0.7368,"999",36,29,29,10,3,01,3,73*213f74ed
$GNGGA,063504.90,3039.09670407,N,12047.28769712,E,4,30,0.6,4.5807,M,9.8165,M,02,0*74
$GNRMC,063504.90,A,3039.09670407,N,12047.28769712,E,0.051,281.9,170120,5.8,W,D*3B
#HEADINGA,COM2,0,39.0,FINE,2088,455722.900,1785285,17,18;SOL_COMPUTED,NARROW_FLOAT,0.7078,264.9579,12.8896,0.0000,0.3007,0.7376,"999",36,29,29,10,3,01,3,73*88e00b3f
#REFSTATIONA,COM2,0,41.0,FINE,2088,455715.000,1784586,803,18;00000000,-2811044.342,4717820.352,3232735.546,0,RTCMV3,"0000"*c4c8937a
$GNGGA,063505.00,3039.09670338,N,12047.28769722,E,4,30,0.6,4.5830,M,9.8165,M,03,0*71
$GNRMC,063505.00,A,3039.09670338,N,12047.28769722,E,0.025,172.4,170120,5.8,W,D*3A
#HEADINGA,COM2,0,39.0,FINE,2088,455723.000,1785385,22,18;SOL_COMPUTED,NARROW_FLOAT,0.7117,264.8281,13.9630,0.0000,0.2988,0.7090,"999",36,30,30,10,3,01,3,73*ffb2aea4
$GNGGA,063505.10,3039.09670342,N,12047.28769724,E,4,30,0.6,4.5769,M,9.8165,M,03,0*78
$GNRMC,063505.10,A,3039.09670342,N,12047.28769724,E,0.002,13.1,170120,5.8,W,D*06
#HEADINGA,COM2,0,39.0,FINE,2088,455723.100,1785485,18,18;SOL_COMPUTED,NARROW_FLOAT,0.7135,264.8724,13.1033,0.0000,0.2984,0.7311,"999",36,29,29,10,3,01,3,73*6b9f3160
$GNGGA,063505.20,3039.09670430,N,12047.28769674,E,4,30,0.6,4.5797,M,9.8165,M,03,0*7C
$GNRMC,063505.20,A,3039.09670430,N,12047.28769674,E,0.035,334.2,170120,5.8,W,D*32
#HEADINGA,COM2,0,39.0,FINE,2088,455723.200,1785586,19,18;SOL_COMPUTED,NARROW_FLOAT,0.7121,264.7229,13.7776,0.0000,0.2994,0.7309,"999",36,29,29,10,3,01,3,73*41b0e301
$GNGGA,063505.30,3039.09670391,N,12047.28769842,E,4,30,0.6,4.5743,M,9.8165,M,01,0*71
$GNRMC,063505.30,A,3039.09670391,N,12047.28769842,E,0.054,104.9,170120,5.8,W,D*39
#HEADINGA,COM2,0,39.0,FINE,2088,455723.300,1785685,19,18;SOL_COMPUTED,NARROW_FLOAT,0.7103,265.2205,13.2680,0.0000,0.3004,0.7342,"999",36,29,29,10,3,01,3,73*e4fcbcd6
$GNGGA,063505.40,3039.09670356,N,12047.28769783,E,4,30,0.6,4.5770,M,9.8165,M,01,0*7F
$GNRMC,063505.40,A,3039.09670356,N,12047.28769783,E,0.022,235.1,170120,5.8,W,D*3F
#HEADINGA,COM2,0,39.0,FINE,2088,455723.400,1785786,18,18;SOL_COMPUTED,NARROW_FLOAT,0.7083,265.1293,12.6928,0.0000,0.3007,0.7377,"999",36,29,29,10,3,01,3,73*f9430dc9
$GNGGA,063505.50,3039.09670447,N,12047.28769863,E,4,30,0.6,4.5777,M,9.8165,M,01,0*7F
$GNRMC,063505.50,A,3039.09670447,N,12047.28769863,E,0.041,37.3,170120,5.8,W,D*0F
#HEADINGA,COM2,0,39.0,FINE,2088,455723.500,1785885,19,18;SOL_COMPUTED,NARROW_FLOAT,0.7076,265.2575,13.0196,0.0000,0.3012,0.7377,"999",36,29,29,10,3,01,3,73*c76a4f79
$GNGGA,063505.60,3039.09670398,N,12047.28769705,E,4,30,0.6,4.5820,M,9.8165,M,01,0*7B
$GNRMC,063505.60,A,3039.09670398,N,12047.28769705,E,0.052,250.3,170120,5.8,W,D*37
#HEADINGA,COM2,0,39.0,FINE,2088,455723.600,1785985,18,18;SOL_COMPUTED,NARROW_FLOAT,0.7093,264.9715,12.6816,0.0000,0.2996,0.7366,"999",36,29,29,10,3,01,3,73*ee4c88fc
$GNGGA,063505.70,3039.09670367,N,12047.28769926,E,4,30,0.6,4.5878,M,9.8165,M,01,0*78
$GNRMC,063505.70,A,3039.09670367,N,12047.28769926,E,0.070,99.2,170120,5.8,W,D*0F
#HEADINGA,COM2,0,39.0,FINE,2088,455723.700,1786085,18,18;SOL_COMPUTED,NARROW_INT,0.7058,265.1792,12.1873,0.0000,0.3008,0.7429,"999",36,28,28,10,3,01,3,73*4d8d5c0e
$GNGGA,063505.80,3039.09670489,N,12047.28769793,E,4,30,0.6,4.5808,M,9.8165,M,01,0*77
$GNRMC,063505.80,A,3039.09670489,N,12047.28769793,E,0.060,316.7,170120,5.8,W,D*37
#HEADINGA,COM2,0,39.0,FINE,2088,455723.800,1786185,17,18;SOL_COMPUTED,NARROW_FLOAT,0.7090,265.0322,12.8511,0.0000,0.2999,0.7364,"999",36,29,29,10,3,01,3,73*0be83703
$GNGGA,063505.90,3039.09670462,N,12047.28769761,E,4,30,0.6,4.5836,M,9.8165,M,01,0*73
$GNRMC,063505.90,A,3039.09670462,N,12047.28769761,E,0.014,225.7,170120,5.8,W,D*3C
#HEADINGA,COM2,0,39.0,FINE,2088,455723.900,1786284,18,18;SOL_COMPUTED,NARROW_FLOAT,0.7077,265.0750,12.5547,0.0000,0.3002,0.7378,"999",36,29,29,10,3,01,3,73*49fe669f
#REFSTATIONA,COM2,0,39.0,FINE,2088,455722.000,1785586,803,18;00000000,-2811044.342,4717820.352,3232735.546,0,RTCMV3,"0000"*31373571
$GNGGA,063506.00,3039.09670382,N,12047.28769745,E,4,30,0.6,4.5765,M,9.8165,M,02,0*7C
$GNRMC,063506.00,A,3039.09670382,N,12047.28769745,E,0.029,189.7,170120,5.8,W,D*32
#HEADINGA,COM2,0,39.0,FINE,2088,455724.000,1786384,25,18;SOL_COMPUTED,NARROW_INT,0.7011,265.2120,12.9216,0.0000,0.3046,0.7587,"999",36,27,27,9,3,01,3,73*3512dac8
$GNGGA,063506.10,3039.09670429,N,12047.28769866,E,4,30,0.6,4.5782,M,9.8165,M,02,0*7C
$GNRMC,063506.10,A,3039.09670429,N,12047.28769866,E,0.041,65.4,170120,5.8,W,D*05
#HEADINGA,COM2,0,39.0,FINE,2088,455724.100,1786485,18,18;SOL_COMPUTED,NARROW_FLOAT,0.7102,265.2451,12.4183,0.0000,0.2992,0.7355,"999",36,29,29,10,3,01,3,73*4b78069a
$GNGGA,063506.20,3039.09670448,N,12047.28769818,E,4,30,0.6,4.5789,M,9.8165,M,02,0*7A
$GNRMC,063506.20,A,3039.09670448,N,12047.28769818,E,0.016,294.7,170120,5.8,W,D*35
#HEADINGA,COM2,0,39.0,FINE,2088,455724.200,1786586,19,18;SOL_COMPUTED,NARROW_FLOAT,0.7088,265.1395,12.4492,0.0000,0.2996,0.7366,"999",36,29,29,10,3,01,3,73*4365bc2d
$GNGGA,063506.30,3039.09670581,N,12047.28769899,E,4,30,0.6,4.5743,M,9.8165,M,01,0*73
$GNRMC,063506.30,A,3039.09670581,N,12047.28769899,E,0.054,27.8,170120,5.8,W,D*0A
#HEADINGA,COM2,0,39.0,FINE,2088,455724.300,1786684,19,18;SOL_COMPUTED,NARROW_INT,0.7042,265.3381,12.5808,0.0000,0.3020,0.7412,"999",36,29,29,10,3,01,3,73*bc18f986
$GNGGA,063506.40,3039.09670581,N,12047.28769819,E,4,30,0.6,4.5767,M,9.8165,M,01,0*7A
$GNRMC,063506.40,A,3039.09670581,N,12047.28769819,E,0.025,270.3,170120,5.8,W,D*38
#HEADINGA,COM2,0,39.0,FINE,2088,455724.400,1786785,19,18;SOL_COMPUTED,NARROW_INT,0.6993,265.1258,13.0918,0.0000,0.3044,0.7464,"999",36,28,28,10,3,01,3,73*0d962700
$GNGGA,063506.50,3039.09670439,N,12047.28769841,E,4,30,0.6,4.5775,M,9.8165,M,01,0*77
$GNRMC,063506.50,A,3039.09670439,N,12047.28769841,E,0.051,172.2,170120,5.8,W,D*35
#HEADINGA,COM2,0,39.0,FINE,2088,455724.500,1786884,18,18;SOL_COMPUTED,NARROW_FLOAT,0.7073,265.0534,12.7035,0.0000,0.3003,0.7374,"999",36,29,29,10,3,01,3,73*09293daf
$GNGGA,063506.60,3039.09670465,N,12047.28769876,E,4,30,0.6,4.5771,M,9.8165,M,01,0*7D
$GNRMC,063506.60,A,3039.09670465,N,12047.28769876,E,0.014,50.0,170120,5.8,W,D*09
#HEADINGA,COM2,0,39.0,FINE,2088,455724.600,1786984,18,18;SOL_COMPUTED,NARROW_FLOAT,0.7108,265.0400,12.8455,0.0000,0.2991,0.7336,"999",36,29,29,10,3,01,3,73*24df2aed
$GNGGA,063506.70,3039.09670394,N,12047.28769742,E,4,30,0.6,4.5733,M,9.8165,M,01,0*7B
$GNRMC,063506.70,A,3039.09670394,N,12047.28769742,E,0.049,238.6,170120,5.8,W,D*3B
#HEADINGA,COM2,0,39.0,FINE,2088,455724.700,1787084,17,18;SOL_COMPUTED,NARROW_INT,0.7056,265.1012,12.7796,0.0000,0.3014,0.7395,"999",36,29,29,10,3,01,3,73*2e123373
$GNGGA,063506.80,3039.09670547,N,12047.28769751,E,4,30,0.6,4.5826,M,9.8165,M,01,0*75
$GNRMC,063506.80,A,3039.09670547,N,12047.28769751,E,0.055,2.9,170120,5.8,W,D*37
#HEADINGA,COM2,0,39.0,FINE,2088,455724.800,1787185,17,18;SOL_COMPUTED,NARROW_INT,0.7055,264.9547,12.6002,0.0000,0.3010,0.7403,"999",36,29,29,10,3,01,3,73*66833f24
$GNGGA,063506.90,3039.09670471,N,12047.28769818,E,4,30,0.6,4.5766,M,9.8165,M,01,0*79
$GNRMC,063506.90,A,3039.09670471,N,12047.28769818,E,0.034,142.7,170120,5.8,W,D*3C
#HEADINGA,COM2,0,39.0,FINE,2088,455724.900,1787284,18,18;SOL_COMPUTED,NARROW_FLOAT,0.7085,264.8962,12.3778,0.0000,0.2993,0.7372,"999",36,29,29,10,3,01,3,73*368b75a4
#REFSTATIONA,COM2,0,39.0,FINE,2088,455722.000,1786586,803,18;00000000,-2811044.342,4717820.352,3232735.546,0,RTCMV3,"0000"*f212d722
$GNGGA,063507.00,3039.09670432,N,12047.28769779,E,4,31,0.6,4.5736,M,9.8165,M,02,0*79
$GNRMC,063507.00,A,3039.09670432,N,12047.28769779,E,0.018,220.1,170120,5.8,W,D*34
#HEADINGA,COM2,0,39.0,FINE,2088,455725.000,1787385,24,18;SOL_COMPUTED,NARROW_FLOAT,0.7075,265.1716,13.1156,0.0000,0.3011,0.7367,"999",36,29,29,10,3,01,3,73*f9686baf
$GNGGA,063507.10,3039.09670537,N,12047.28769865,E,4,31,0.6,4.5717,M,9.8165,M,02,0*7D
$GNRMC,063507.10,A,3039.09670537,N,12047.28769865,E,0.046,35.1,170120,5.8,W,D*0E
#HEADINGA,COM2,0,39.0,FINE,2088,455725.100,1787485,23,18;SOL_COMPUTED,NARROW_INT,0.6990,265.2116,12.0368,0.0000,0.3136,0.8079,"999",36,23,23,6,3,01,0,73*bb4bb3f9
$GNGGA,063507.20,3039.09670417,N,12047.28769761,E,4,30,0.7,4.5691,M,9.8165,M,02,0*79
$GNRMC,063507.20,A,3039.09670417,N,12047.28769761,E,0.054,216.7,170120,5.8,W,D*33
#HEADINGA,COM2,0,39.0,FINE,2088,455725.200,1787586,18,18;SOL_COMPUTED,NARROW_FLOAT,0.7118,264.8760,13.4414,0.0000,0.3017,0.7339,"999",36,28,28,10,3,01,3,73*2526663d
$GNGGA,063507.30,3039.09670277,N,12047.28769874,E,4,30,0.7,4.5766,M,9.8165,M,02,0*7A
$GNRMC,063507.30,A,3039.09670277,N,12047.28769874,E,0.061,145.2,170120,5.8,W,D*3F
#HEADINGA,COM2,0,39.0,FINE,2088,455725.300,1787685,17,18;SOL_COMPUTED,NARROW_FLOAT,0.7122,265.0671,13.2457,0.0000,0.2978,0.7028,"999",36,29,29,10,3,01,3,73*c8225e75
$GNGGA,063507.40,3039.09670365,N,12047.28769850,E,4,30,0.7,4.5742,M,9.8165,M,02,0*7F
$GNRMC,063507.40,A,3039.09670365,N,12047.28769850,E,0.033,346.6,170120,5.8,W,D*3E
#HEADINGA,COM2,0,39.0,FINE,2088,455725.400,1787785,17,18;SOL_COMPUTED,NARROW_FLOAT,0.7091,264.9973,13.1045,0.0000,0.2988,0.7062,"999",36,29,29,10,3,01,3,73*2d65d775
$GNGGA,063507.50,3039.09670351,N,12047.28769642,E,4,30,0.7,4.5755,M,9.8165,M,02,0*72
$GNRMC,063507.50,A,3039.09670351,N,12047.28769642,E,0.065,265.6,170120,5.8,W,D*36
#HEADINGA,COM2,0,39.0,FINE,2088,455725.500,1787885,18,18;SOL_COMPUTED,NARROW_FLOAT,0.7134,264.9154,13.7530,0.0000,0.3013,0.7145,"999",36,28,28,10,3,01,3,73*2a6aabba
$GNGGA,063507.60,3039.09670594,N,12047.28770003,E,4,30,0.7,4.5768,M,9.8165,M,02,0*7B
$GNRMC,063507.60,A,3039.09670594,N,12047.28770003,E,0.142,52.1,170120,5.8,W,D*04
#HEADINGA,COM2,0,42.0,FINE,2088,455725.600,1787985,16,18;SOL_COMPUTED,NARROW_FLOAT,0.7128,264.6898,12.8697,0.0000,0.2966,0.7041,"999",36,29,29,10,3,01,3,73*91c8577d
$GNGGA,063507.70,3039.09670386,N,12047.28769860,E,4,30,0.7,4.5783,M,9.8165,M,02,0*7F
$GNRMC,063507.70,A,3039.09670386,N,12047.28769860,E,0.087,210.6,170120,5.8,W,D*3E
#HEADINGA,COM2,0,42.0,FINE,2088,455725.700,1788084,16,18;SOL_COMPUTED,NARROW_FLOAT,0.7105,265.0249,13.5180,0.0000,0.2989,0.7050,"999",36,29,29,10,3,01,3,73*2f00e38d
$GNGGA,063507.80,3039.09670429,N,12047.28769998,E,4,31,0.6,4.5733,M,9.8165,M,02,0*7F
$GNRMC,063507.80,A,3039.09670429,N,12047.28769998,E,0.045,69.9,170120,5.8,W,D*08
#HEADINGA,COM2,0,42.0,FINE,2088,455725.800,1788184,17,18;SOL_COMPUTED,NARROW_FLOAT,0.7119,265.1013,12.7881,0.0000,0.2976,0.7057,"999",36,29,29,10,3,01,3,73*13006b57
$GNGGA,063507.90,3039.09670420,N,12047.28769944,E,4,31,0.6,4.5727,M,9.8165,M,02,0*73
$GNRMC,063507.90,A,3039.09670420,N,12047.28769944,E,0.017,258.2,170120,5.8,W,D*3D
#HEADINGA,COM2,0,42.0,FINE,2088,455725.900,1788285,16,18;SOL_COMPUTED,NARROW_FLOAT,0.7139,265.1990,12.9519,0.0000,0.2970,0.7028,"999",36,29,29,10,3,01,3,73*bf17cd5f
#REFSTATIONA,COM2,0,39.0,FINE,2088,455722.000,1787586,803,18;00000000,-2811044.342,4717820.352,3232735.546,0,RTCMV3,"0000"*05de8b2c
$GNGGA,063508.00,3039.09670240,N,12047.28769529,E,4,31,0.6,4.5732,M,9.8165,M,03,0*77
$GNRMC,063508.00,A,3039.09670240,N,12047.28769529,E,0.144,243.5,170120,5.8,W,D*36
#HEADINGA,COM2,0,42.0,FINE,2088,455726.000,1788385,22,18;SOL_COMPUTED,NARROW_FLOAT,0.7094,265.0647,13.3742,0.0000,0.2992,0.7068,"999",36,29,29,10,3,01,3,73*6d8b4f2c
$GNGGA,063508.10,3039.09670477,N,12047.28769894,E,4,31,0.6,4.5714,M,9.8165,M,03,0*7B
$GNRMC,063508.10,A,3039.09670477,N,12047.28769894,E,0.142,53.0,170120,5.8,W,D*0E
#HEADINGA,COM2,0,42.0,FINE,2088,455726.100,1788485,17,18;SOL_COMPUTED,NARROW_FLOAT,0.7121,264.9386,13.2463,0.0000,0.2977,0.7045,"999",36,29,29,10,3,01,3,73*9e96a903
$GNGGA,063508.20,3039.09670269,N,12047.28769837,E,4,30,0.6,4.5788,M,9.8165,M,03,0*7C
$GNRMC,063508.20,A,3039.09670269,N,12047.28769837,E,0.077,193.2,170120,5.8,W,D*35
#HEADINGA,COM2,0,42.0,FINE,2088,455726.200,1788586,18,18;SOL_COMPUTED,NARROW_INT,0.7049,265.2302,12.4416,0.0000,0.3040,0.7465,"999",36,27,27,10,3,01,3,73*dc2393c6
$GNGGA,063508.30,3039.09670296,N,12047.28769751,E,4,30,0.6,4.5816,M,9.8165,M,01,0*78
$GNRMC,063508.30,A,3039.09670296,N,12047.28769751,E,0.028,289.7,170120,5.8,W,D*3C
#HEADINGA,COM2,0,42.0,FINE,2088,455726.300,1788685,17,18;SOL_COMPUTED,NARROW_FLOAT,0.7100,265.1097,12.6011,0.0000,0.3016,0.7382,"999",36,28,28,10,3,01,3,73*f367ee01
$GNGGA,063508.40,3039.09670408,N,12047.28769916,E,4,30,0.6,4.5724,M,9.8165,M,01,0*7D
$GNRMC,063508.40,A,3039.09670408,N,12047.28769916,E,0.065,51.8,170120,5.8,W,D*06
#HEADINGA,COM2,0,42.0,FINE,2088,455726.400,1788785,19,18;SOL_COMPUTED,NARROW_FLOAT,0.7115,265.1432,12.3759,0.0000,0.2992,0.7476,"999",36,28,28,9,3,01,3,73*a80eb440
$GNGGA,063508.50,3039.09670335,N,12047.28769752,E,4,30,0.6,4.5724,M,9.8165,M,01,0*7B
$GNRMC,063508.50,A,3039.09670335,N,12047.28769752,E,0.057,242.8,170120,5.8,W,D*31
#HEADINGA,COM2,0,42.0,FINE,2088,455726.500,1788884,19,18;SOL_COMPUTED,NARROW_FLOAT,0.7102,264.9829,12.6788,0.0000,0.2990,0.7353,"999",36,29,29,10,3,01,3,73*c67d795d
$GNGGA,063508.60,3039.09670267,N,12047.28769688,E,4,30,0.6,4.5775,M,9.8165,M,01,0*7C
$GNRMC,063508.60,A,3039.09670267,N,12047.28769688,E,0.032,218.9,170120,5.8,W,D*3F
#HEADINGA,COM2,0,42.0,FINE,2088,455726.600,1788984,18,18;SOL_COMPUTED,NARROW_FLOAT,0.7099,264.9257,12.7396,0.0000,0.2991,0.7348,"999",36,29,29,10,3,01,3,73*d34063ef
$GNGGA,063508.70,3039.09670304,N,12047.28769710,E,4,31,0.6,4.5762,M,9.8165,M,01,0*7E
$GNRMC,063508.70,A,3039.09670304,N,12047.28769710,E,0.015,26.8,170120,5.8,W,D*01
#HEADINGA,COM2,0,42.0,FINE,2088,455726.700,1789084,18,18;SOL_COMPUTED,NARROW_INT,0.7022,265.3027,12.7923,0.0000,0.3031,0.7432,"999",36,29,29,10,3,01,3,73*58eb5a96
$GNGGA,063508.80,3039.09670491,N,12047.28769696,E,4,31,0.6,4.5816,M,9.8165,M,01,0*79
$GNRMC,063508.80,A,3039.09670491,N,12047.28769696,E,0.067,356.3,170120,5.8,W,D*30
#HEADINGA,COM2,0,42.0,FINE,2088,455726.800,1789184,18,18;SOL_COMPUTED,NARROW_FLOAT,0.7069,264.9110,11.9818,0.0000,0.2996,0.7400,"999",36,29,29,10,3,01,3,73*104323df
$GNGGA,063508.90,3039.09670486,N,12047.28769965,E,4,31,0.6,4.5739,M,9.8165,M,01,0*7F
$GNRMC,063508.90,A,3039.09670486,N,12047.28769965,E,0.084,91.2,170120,5.8,W,D*00
#HEADINGA,COM2,0,42.0,FINE,2088,455726.900,1789284,17,18;SOL_COMPUTED,NARROW_FLOAT,0.7107,264.9455,13.0256,0.0000,0.2992,0.7339,"999",36,29,29,10,3,01,3,73*1500a419
#REFSTATIONA,COM2,0,42.0,FINE,2088,455725.000,1788586,803,18;00000000,-2811044.342,4717820.352,3232735.546,0,RTCMV3,"0000"*3c11fdb6
$GNGGA,063509.00,3039.09670452,N,12047.28769803,E,4,31,0.6,4.5818,M,9.8165,M,02,0*70
$GNRMC,063509.00,A,3039.09670452,N,12047.28769803,E,0.052,256.1,170120,5.8,W,D*31
#HEADINGA,COM2,0,42.0,FINE,2088,455727.000,1789385,24,18;SOL_COMPUTED,NARROW_INT,0.7025,265.2087,12.7768,0.0000,0.3028,0.7443,"999",36,28,28,10,3,01,3,73*1469b6ab
$GNGGA,063509.10,3039.09670352,N,12047.28769854,E,4,31,0.6,4.5752,M,9.8165,M,02,0*75
$GNRMC,063509.10,A,3039.09670352,N,12047.28769854,E,0.039,156.2,170120,5.8,W,D*38
#HEADINGA,COM2,0,42.0,FINE,2088,455727.100,1789485,18,18;SOL_COMPUTED,NARROW_INT,0.7049,265.2240,12.3001,0.0000,0.3015,0.7410,"999",36,29,29,10,3,01,3,73*2ac42154
$GNGGA,063509.20,3039.09670380,N,12047.28769841,E,4,31,0.6,4.5798,M,9.8165,M,02,0*7B
$GNRMC,063509.20,A,3039.09670380,N,12047.28769841,E,0.011,338.7,170120,5.8,W,D*35
#HEADINGA,COM2,0,42.0,FINE,2088,455727.200,1789586,19,18;SOL_COMPUTED,NARROW_INT,0.7023,265.1757,12.4562,0.0000,0.3029,0.7450,"999",36,28,28,10,3,01,3,73*e86ea181
$GNGGA,063509.30,3039.09670250,N,12047.28769654,E,4,31,0.6,4.5744,M,9.8165,M,01,0*7E
$GNRMC,063509.30,A,3039.09670250,N,12047.28769654,E,0.074,231.1,170120,5.8,W,D*3F
#HEADINGA,COM2,0,42.0,FINE,2088,455727.300,1789685,19,18;SOL_COMPUTED,NARROW_INT,0.6957,265.3995,12.1229,0.0000,0.3131,0.7675,"999",36,27,27,9,3,01,3,73*a6fb698c
$GNGGA,063509.40,3039.09670515,N,12047.28769867,E,4,31,0.6,4.5795,M,9.8165,M,01,0*7D
$GNRMC,063509.40,A,3039.09670515,N,12047.28769867,E,0.116,34.7,170120,5.8,W,D*04
#HEADINGA,COM2,0,42.0,FINE,2088,455727.400,1789785,19,18;SOL_COMPUTED,NARROW_FLOAT,0.7093,264.7809,12.9648,0.0000,0.2964,0.7027,"999",36,30,30,10,3,01,3,73*4e4595fe
$GNGGA,063509.50,3039.09670376,N,12047.28769694,E,4,31,0.6,4.5774,M,9.8165,M,01,0*72
$GNRMC,063509.50,A,3039.09670376,N,12047.28769694,E,0.073,227.1,170120,5.8,W,D*30
#HEADINGA,COM2,0,42.0,FINE,2088,455727.500,1789885,19,18;SOL_COMPUTED,NARROW_INT,0.7014,264.8773,12.5676,0.0000,0.2991,0.7145,"999",36,29,29,10,3,01,3,73*3cc4382f
$GNGGA,063509.60,3039.09670352,N,12047.28769776,E,4,31,0.6,4.5792,M,9.8165,M,01,0*72
$GNRMC,063509.60,A,3039.09670352,N,12047.28769776,E,0.027,108.8,170120,5.8,W,D*3E
#HEADINGA,COM2,0,42.0,FINE,2088,455727.600,1789985,17,18;SOL_COMPUTED,NARROW_FLOAT,0.7114,264.8292,12.8244,0.0000,0.2955,0.7016,"999",36,30,30,10,3,01,3,73*5b0dcffb
$GNGGA,063509.70,3039.09670505,N,12047.28770003,E,4,31,0.6,4.5685,M,9.8165,M,01,0*7D
$GNRMC,063509.70,A,3039.09670505,N,12047.28770003,E,0.089,51.9,170120,5.8,W,D*0E
#HEADINGA,COM2,0,42.0,FINE,2088,455727.700,1790084,17,18;SOL_COMPUTED,NARROW_FLOAT,0.7155,264.7756,13.8984,0.0000,0.2938,0.6761,"999",36,31,31,10,3,01,3,73*661c099b
$GNGGA,063509.80,3039.09670428,N,12047.28769701,E,4,31,0.6,4.5743,M,9.8165,M,01,0*7A
$GNRMC,063509.80,A,3039.09670428,N,12047.28769701,E,0.098,253.5,170120,5.8,W,D*3E
#HEADINGA,COM2,0,42.0,FINE,2088,455727.800,1790185,17,18;SOL_COMPUTED,NARROW_INT,0.7049,264.8596,13.0764,0.0000,0.2985,0.7073,"999",36,30,30,10,3,01,3,73*982b8d41
$GNGGA,063509.90,3039.09670381,N,12047.28769808,E,4,31,0.6,4.5813,M,9.8165,M,01,0*73
$GNRMC,063509.90,A,3039.09670381,N,12047.28769808,E,0.037,117.1,170120,5.8,W,D*3F
#HEADINGA,COM2,0,42.0,FINE,2088,455727.900,1790284,18,18;SOL_COMPUTED,NARROW_FLOAT,0.7089,265.0612,12.4833,0.0000,0.2965,0.7046,"999",36,30,30,10,3,01,3,73*6a5a7353
#REFSTATIONA,COM2,0,42.0,FINE,2088,455725.000,1789586,803,18;00000000,-2811044.342,4717820.352,3232735.546,0,RTCMV3,"0000"*cbdda1b8
$GNGGA,063510.00,3039.09670498,N,12047.28769931,E,4,31,0.6,4.5739,M,9.8165,M,02,0*72
$GNRMC,063510.00,A,3039.09670498,N,12047.28769931,E,0.057,42.2,170120,5.8,W,D*0E
#HEADINGA,COM2,0,42.0,FINE,2088,455728.000,1790385,23,18;SOL_COMPUTED,NARROW_INT,0.7059,264.9688,12.8100,0.0000,0.2979,0.7066,"999",36,30,30,10,3,01,3,73*0345a05e
$GNGGA,063510.10,3039.09670382,N,12047.28769770,E,4,31,0.6,4.5786,M,9.8165,M,02,0*70
$GNRMC,063510.10,A,3039.09670382,N,12047.28769770,E,0.065,230.4,170120,5.8,W,D*38
#HEADINGA,COM2,0,42.0,FINE,2088,455728.100,1790485,18,18;SOL_COMPUTED,NARROW_FLOAT,0.7065,264.8238,12.7348,0.0000,0.2970,0.7063,"999",36,30,30,10,3,01,3,73*3586c88c
$GNGGA,063510.20,3039.09670326,N,12047.28769621,E,4,31,0.6,4.5760,M,9.8165,M,02,0*70
$GNRMC,063510.20,A,3039.09670326,N,12047.28769621,E,0.051,246.4,170120,5.8,W,D*36
#HEADINGA,COM2,0,42.0,FINE,2088,455728.200,1790586,19,18;SOL_COMPUTED,NARROW_INT,0.7058,264.6949,12.8879,0.0000,0.2973,0.7096,"999",36,29,29,10,3,01,3,73*561c4b96
$GNGGA,063510.30,3039.09670156,N,12047.28769559,E,4,31,0.6,4.5753,M,9.8165,M,02,0*78
$GNRMC,063510.30,A,3039.09670156,N,12047.28769559,E,0.064,197.5,170120,5.8,W,D*36
#HEADINGA,COM2,0,42.0,FINE,2088,455728.300,1790685,19,18;SOL_COMPUTED,NARROW_INT,0.7018,265.0540,12.9483,0.0000,0.2997,0.7138,"999",36,29,29,10,3,01,3,73*6615dde3
$GNGGA,063510.40,3039.09670293,N,12047.28769847,E,4,31,0.6,4.5798,M,9.8165,M,02,0*70
$GNRMC,063510.40,A,3039.09670293,N,12047.28769847,E,0.102,61.2,170120,5.8,W,D*07
#HEADINGA,COM2,0,42.0,FINE,2088,455728.400,1790785,18,18;SOL_COMPUTED,NARROW_FLOAT,0.7074,265.0334,12.5026,0.0000,0.2968,0.7065,"999",36,30,30,10,3,01,3,73*e1a97276
$GNGGA,063510.50,3039.09670430,N,12047.28769783,E,4,31,0.6,4.5793,M,9.8165,M,02,0*72
$GNRMC,063510.50,A,3039.09670430,N,12047.28769783,E,0.053,337.9,170120,5.8,W,D*30
#HEADINGA,COM2,0,42.0,FINE,2088,455728.500,1790884,19,18;SOL_COMPUTED,NARROW_FLOAT,0.7074,264.8543,13.0964,0.0000,0.2970,0.7051,"999",36,30,30,10,3,01,3,73*503e069b
$GNGGA,063510.60,3039.09670231,N,12047.28769690,E,4,31,0.6,4.5742,M,9.8165,M,02,0*79
$GNRMC,063510.60,A,3039.09670231,N,12047.28769690,E,0.077,202.0,170120,5.8,W,D*3F
#HEADINGA,COM2,0,37.0,FINE,2088,455728.600,1790985,18,18;SOL_COMPUTED,NARROW_INT,0.6993,264.9776,12.9331,0.0000,0.3007,0.7165,"999",36,29,29,10,3,01,3,73*3d53f563
$GNGGA,063510.70,3039.09670188,N,12047.28769787,E,4,31,0.6,4.5758,M,9.8165,M,02,0*75
$GNRMC,063510.70,A,3039.09670188,N,12047.28769787,E,0.034,117.3,170120,5.8,W,D*3B
#HEADINGA,COM2,0,37.0,FINE,2088,455728.700,1791084,17,18;SOL_COMPUTED,NARROW_FLOAT,0.7087,265.2513,13.3658,0.0000,0.2963,0.6837,"999",36,31,31,10,3,01,3,73*bc6303f4
$GNGGA,063510.80,3039.09670336,N,12047.28769597,E,4,31,0.6,4.5818,M,9.8165,M,02,0*75
$GNRMC,063510.80,A,3039.09670336,N,12047.28769597,E,0.079,312.1,170120,5.8,W,D*3C
#HEADINGA,COM2,0,37.0,FINE,2088,455728.800,1791184,19,18;SOL_COMPUTED,NARROW_INT,0.6993,264.8780,12.4955,0.0000,0.2996,0.7172,"999",36,29,29,10,3,01,3,73*980c8946
$GNGGA,063510.90,3039.09670290,N,12047.28769733,E,4,31,0.6,4.5679,M,9.8165,M,02,0*7C
$GNRMC,063510.90,A,3039.09670290,N,12047.28769733,E,0.045,111.7,170120,5.8,W,D*34
#HEADINGA,COM2,0,37.0,FINE,2088,455728.900,1791284,18,18;SOL_COMPUTED,NARROW_INT,0.7062,265.0861,13.5125,0.0000,0.2986,0.7053,"999",36,30,30,10,3,01,3,73*c1a571d3
#REFSTATIONA,COM2,0,42.0,FINE,2088,455725.000,1789586,1803,18;00000000,-2811044.342,4717820.352,3232735.546,0,RTCMV3,"0000"*4ad28769
$GNGGA,063511.00,3039.09670363,N,12047.28769691,E,4,31,0.6,4.5765,M,9.8165,M,03,0*7D
$GNRMC,063511.00,A,3039.09670363,N,12047.28769691,E,0.029,333.7,170120,5.8,W,D*30
#HEADINGA,COM2,0,37.0,FINE,2088,455729.000,1791384,25,18;SOL_COMPUTED,NARROW_INT,0.7020,265.0096,12.7384,0.0000,0.2991,0.7141,"999",36,29,29,10,3,01,3,73*14af3647
$GNGGA,063511.10,3039.09670386,N,12047.28769665,E,4,31,0.6,4.5754,M,9.8165,M,03,0*7E
$GNRMC,063511.10,A,3039.09670386,N,12047.28769665,E,0.011,316.0,170120,5.8,W,D*3A
#HEADINGA,COM2,0,37.0,FINE,2088,455729.100,1791485,17,18;SOL_COMPUTED,NARROW_FLOAT,0.7079,264.8488,13.9947,0.0000,0.2966,0.6825,"999",36,31,31,10,3,01,3,73*8549db39
$GNGGA,063511.20,3039.09670399,N,12047.28769532,E,4,31,0.6,4.5677,M,9.8165,M,03,0*72
$GNRMC,063511.20,A,3039.09670399,N,12047.28769532,E,0.042,276.6,170120,5.8,W,D*31
#HEADINGA,COM2,0,37.0,FINE,2088,455729.200,1791586,17,18;SOL_COMPUTED,NARROW_FLOAT,0.7076,264.6443,14.1245,0.0000,0.2967,0.6839,"999",36,31,31,10,3,01,3,73*f342b196
$GNGGA,063511.30,3039.09670584,N,12047.28769802,E,4,31,0.6,4.5678,M,9.8165,M,02,0*79
$GNRMC,063511.30,A,3039.09670584,N,12047.28769802,E,0.107,51.6,170120,5.8,W,D*03
#HEADINGA,COM2,0,37.0,FINE,2088,455729.300,1791685,17,18;SOL_COMPUTED,NARROW_FLOAT,0.7106,264.6732,13.7952,0.0000,0.2949,0.6818,"999",36,31,31,10,3,01,3,73*253ff615
$GNGGA,063511.40,3039.09670428,N,12047.28769686,E,4,31,0.6,4.5759,M,9.8165,M,02,0*79
$GNRMC,063511.40,A,3039.09670428,N,12047.28769686,E,0.067,212.6,170120,5.8,W,D*33
#HEADINGA,COM2,0,37.0,FINE,2088,455729.400,1791785,17,18;SOL_COMPUTED,NARROW_FLOAT,0.7079,264.8506,13.6124,0.0000,0.2961,0.6848,"999",36,31,31,10,3,01,3,73*a9aff01e
$GNGGA,063511.50,3039.09670544,N,12047.28769787,E,4,31,0.6,4.5659,M,9.8165,M,02,0*72
$GNRMC,063511.50,A,3039.09670544,N,12047.28769787,E,0.052,36.8,170120,5.8,W,D*05
#HEADINGA,COM2,0,37.0,FINE,2088,455729.500,1791884,19,18;SOL_COMPUTED,NARROW_FLOAT,0.7078,264.7472,13.4532,0.0000,0.2978,0.7164,"999",36,29,29,9,3,01,3,73*d21c17d8
$GNGGA,063511.60,3039.09670605,N,12047.28769847,E,4,31,0.6,4.5693,M,9.8165,M,02,0*72
$GNRMC,063511.60,A,3039.09670605,N,12047.28769847,E,0.029,40.5,170120,5.8,W,D*03
#HEADINGA,COM2,0,37.0,FINE,2088,455729.600,1791984,17,18;SOL_COMPUTED,NARROW_FLOAT,0.7093,264.6793,14.0044,0.0000,0.2958,0.6827,"999",36,31,31,10,3,01,3,73*c310f57b
$GNGGA,063511.70,3039.09670596,N,12047.28769715,E,4,31,0.6,4.5769,M,9.8165,M,02,0*76
$GNRMC,063511.70,A,3039.09670596,N,12047.28769715,E,0.041,265.5,170120,5.8,W,D*38
#HEADINGA,COM2,0,37.0,FINE,2088,455729.700,1792084,17,18;SOL_COMPUTED,NARROW_INT,0.7061,264.7684,13.3108,0.0000,0.2982,0.7080,"999",36,30,30,10,3,01,3,73*5733abb5
$GNGGA,063511.80,3039.09670511,N,12047.28769658,E,4,31,0.6,4.5741,M,9.8165,M,02,0*74
$GNRMC,063511.80,A,3039.09670511,N,12047.28769658,E,0.035,209.9,170120,5.8,W,D*35
#HEADINGA,COM2,0,37.0,FINE,2088,455729.800,1792184,18,18;SOL_COMPUTED,NARROW_INT,0.7063,264.8711,13.3398,0.0000,0.2984,0.7083,"999",36,30,30,10,3,01,3,73*37246499
$GNGGA,063511.90,3039.09670513,N,12047.28769665,E,4,31,0.6,4.5747,M,9.8165,M,02,0*7F
$GNRMC,063511.90,A,3039.09670513,N,12047.28769665,E,0.002,75.8,170120,5.8,W,D*04
#HEADINGA,COM2,0,37.0,FINE,2088,455729.900,1792284,18,18;SOL_COMPUTED,NARROW_FLOAT,0.7081,264.8081,13.5787,0.0000,0.2980,0.7060,"999",36,30,30,10,3,01,3,73*7d2edfbb
#REFSTATIONA,COM2,0,37.0,FINE,2088,455725.000,1791586,803,18;00000000,-2811044.342,4717820.352,3232735.546,0,RTCMV3,"0000"*9139bcf6
$GNGGA,063512.00,3039.09670539,N,12047.28769834,E,4,31,0.6,4.5703,M,9.8165,M,03,0*76
$GNRMC,063512.00,A,3039.09670539,N,12047.28769834,E,0.053,80.0,170120,5.8,W,D*0A
#HEADINGA,COM2,0,37.0,FINE,2088,455730.000,1792384,24,18;SOL_COMPUTED,NARROW_FLOAT,0.7080,264.8156,13.2706,0.0000,0.2977,0.7070,"999",36,30,30,10,3,01,3,73*1d090605
$GNGGA,063512.10,3039.09670295,N,12047.28769581,E,4,31,0.6,4.5738,M,9.8165,M,03,0*7D
$GNRMC,063512.10,A,3039.09670295,N,12047.28769581,E,0.118,221.9,170120,5.8,W,D*37
#HEADINGA,COM2,0,37.0,FINE,2088,455730.100,1792485,19,18;SOL_COMPUTED,NARROW_FLOAT,0.7072,264.8917,13.1848,0.0000,0.2983,0.7080,"999",36,30,30,10,3,01,3,73*6ae11ae6
$GNGGA,063512.20,3039.09670351,N,12047.28769535,E,4,31,0.6,4.5731,M,9.8165,M,03,0*71
$GNRMC,063512.20,A,3039.09670351,N,12047.28769535,E,0.025,324.6,170120,5.8,W,D*36
#HEADINGA,COM2,0,37.0,FINE,2088,455730.200,1792586,19,18;SOL_COMPUTED,NARROW_INT,0.7040,265.1459,13.0572,0.0000,0.2997,0.7112,"999",36,30,30,10,3,01,3,73*2c03a405
$GNGGA,063512.30,3039.09670533,N,12047.28769647,E,4,31,0.6,4.5643,M,9.8165,M,02,0*71
$GNRMC,063512.30,A,3039.09670533,N,12047.28769647,E,0.074,28.0,170120,5.8,W,D*0E
#HEADINGA,COM2,0,37.0,FINE,2088,455730.300,1792684,17,18;SOL_COMPUTED,NARROW_FLOAT,0.7088,264.5611,14.4388,0.0000,0.2978,0.6833,"999",36,31,31,10,3,01,3,73*92fcbec9
$GNGGA,063512.40,3039.09670263,N,12047.28769490,E,4,31,0.6,4.5743,M,9.8165,M,02,0*7D
$GNRMC,063512.40,A,3039.09670263,N,12047.28769490,E,0.108,206.8,170120,5.8,W,D*3F
#HEADINGA,COM2,0,37.0,FINE,2088,455730.400,1792784,19,18;SOL_COMPUTED,NARROW_INT,0.7039,264.9695,13.1591,0.0000,0.3002,0.7118,"999",36,30,30,10,3,01,3,73*2a5c5b12
$GNGGA,063512.50,3039.09670492,N,12047.28769632,E,4,31,0.6,4.5709,M,9.8165,M,02,0*70
$GNRMC,063512.50,A,3039.09670492,N,12047.28769632,E,0.093,28.2,170120,5.8,W,D*0B
#HEADINGA,COM2,0,37.0,FINE,2088,455730.500,1792884,19,18;SOL_COMPUTED,NARROW_INT,0.7003,264.7219,13.0552,0.0000,0.3008,0.7174,"999",36,29,29,10,3,01,3,73*2d6c5294
$GNGGA,063512.60,3039.09670335,N,12047.28769543,E,4,31,0.6,4.5650,M,9.8165,M,02,0*71
$GNRMC,063512.60,A,3039.09670335,N,12047.28769543,E,0.063,206.1,170120,5.8,W,D*35
#HEADINGA,COM2,0,37.0,FINE,2088,455730.600,1792984,17,18;SOL_COMPUTED,NARROW_FLOAT,0.7072,264.8320,14.0496,0.0000,0.2981,0.6855,"999",36,31,31,10,3,01,3,73*e24f3681
$GNGGA,063512.70,3039.09670485,N,12047.28769589,E,4,31,0.6,4.5656,M,9.8165,M,02,0*7C
$GNRMC,063512.70,A,3039.09670485,N,12047.28769589,E,0.056,14.8,170120,5.8,W,D*00
