
$GNGGA,062420.80,3039.10725375,N,12047.28354216,E,4,28,0.7,4.2512,M,9.8162,M,10,0*71
$GNRMC,062420.80,A,3039.10725375,N,12047.28354216,E,0.137,14.1,170120,5.8,W,D*0B
#HEADINGA,COM2,0,59.0,FINE,2088,455078.800,1141185,16,18;SOL_COMPUTED,NARROW_INT,0.5662,242.7925,22.7617,0.0000,0.4497,1.0543,"999",35,27,27,9,3,01,3,73*292a3efd
$GNGGA,062420.90,3039.10725151,N,12047.28353972,E,4,28,0.7,4.2475,M,9.8162,M,10,0*7A
$GNRMC,062420.90,A,3039.10725151,N,12047.28353972,E,0.110,223.4,170120,5.8,W,D*36
#HEADINGA,COM2,0,59.0,FINE,2088,455078.900,1141284,17,18;SOL_COMPUTED,NARROW_INT,0.5531,242.8785,21.4698,0.0000,0.4430,1.0561,"999",35,28,28,9,3,01,3,73*ead927b2
#REFSTATIONA,COM2,0,59.0,FINE,2088,455068.000,1139586,1803,18;00000000,-2811044.342,4717820.352,3232735.546,0,RTCMV3,"0000"*9b182c9b
$GNGGA,062421.00,3039.10725091,N,12047.28354391,E,4,29,0.7,4.2499,M,9.8162,M,11,0*7D
$GNRMC,062421.00,A,3039.10725091,N,12047.28354391,E,0.132,99.4,170120,5.8,W,D*00
#HEADINGA,COM2,0,59.0,FINE,2088,455079.000,1141385,23,18;SOL_COMPUTED,NARROW_INT,0.5510,242.7053,21.7416,0.0000,0.4603,1.1692,"999",35,26,26,8,3,01,3,73*59873226
$GNGGA,062421.10,3039.10725074,N,12047.28354174,E,4,29,0.7,4.2438,M,9.8162,M,11,0*75
$GNRMC,062421.10,A,3039.10725074,N,12047.28354174,E,0.068,264.8,170120,5.8,W,D*31
#HEADINGA,COM2,0,59.0,FINE,2088,455079.100,1141485,19,18;SOL_COMPUTED,NARROW_INT,0.5666,242.7355,23.2605,0.0000,0.4601,1.0663,"999",35,26,26,9,3,01,3,73*5f4cc5b3
$GNGGA,062421.20,3039.10725239,N,12047.28353970,E,4,29,0.7,4.2411,M,9.8162,M,11,0*7D
$GNRMC,062421.20,A,3039.10725239,N,12047.28353970,E,0.087,313.1,170120,5.8,W,D*3B
#HEADINGA,COM2,0,59.0,FINE,2088,455079.200,1141586,19,18;SOL_COMPUTED,NARROW_INT,0.5607,242.6171,22.1318,0.0000,0.4568,1.1554,"999",35,25,25,8,3,01,3,73*9be494ff
$GNGGA,062421.30,3039.10725121,N,12047.28353979,E,4,29,0.7,4.2483,M,9.8162,M,09,0*7D
$GNRMC,062421.30,A,3039.10725121,N,12047.28353979,E,0.042,176.1,170120,5.8,W,D*31
#HEADINGA,COM2,0,59.0,FINE,2088,455079.300,1141685,23,18;SOL_COMPUTED,NARROW_INT,0.5695,242.8349,23.4447,0.0000,0.4728,1.1365,"999",35,23,23,8,3,01,0,73*020323a3
$GNGGA,062421.40,3039.10725289,N,12047.28354414,E,4,29,0.7,4.2483,M,9.8162,M,09,0*7A
$GNRMC,062421.40,A,3039.10725289,N,12047.28354414,E,0.148,65.9,170120,5.8,W,D*06
#HEADINGA,COM2,0,59.0,FINE,2088,455079.400,1141785,17,18;SOL_COMPUTED,NARROW_INT,0.5542,243.3156,22.4169,0.0000,0.4483,1.0257,"999",35,29,29,10,3,01,3,73*560420cc
$GNGGA,062421.50,3039.10725169,N,12047.28354251,E,4,28,0.7,4.2401,M,9.8162,M,09,0*7A
$GNRMC,062421.50,A,3039.10725169,N,12047.28354251,E,0.066,229.5,170120,5.8,W,D*36
#HEADINGA,COM2,0,59.0,FINE,2088,455079.500,1141885,21,18;SOL_COMPUTED,NARROW_INT,0.5627,243.4164,22.8962,0.0000,0.4573,1.0516,"999",35,27,27,10,3,01,3,73*139d81a1
$GNGGA,062421.60,3039.10725407,N,12047.28354664,E,4,29,0.7,4.2374,M,9.8162,M,09,0*72
$GNRMC,062421.60,A,3039.10725407,N,12047.28354664,E,0.154,56.3,170120,5.8,W,D*06
#HEADINGA,COM2,0,59.0,FINE,2088,455079.600,1141985,18,18;SOL_COMPUTED,NARROW_INT,0.5613,243.2145,23.2891,0.0000,0.4656,1.0635,"999",35,25,25,10,3,01,3,73*e67552c9
$GNGGA,062421.70,3039.10725297,N,12047.28354338,E,4,28,0.7,4.2287,M,9.8162,M,09,0*7C
$GNRMC,062421.70,A,3039.10725297,N,12047.28354338,E,0.109,248.6,170120,5.8,W,D*34
#HEADINGA,COM2,0,59.0,FINE,2088,455079.700,1142085,17,18;SOL_COMPUTED,NARROW_INT,0.5479,243.3362,21.6734,0.0000,0.4679,1.1661,"999",35,26,26,9,3,01,3,73*f706192d
$GNGGA,062421.80,3039.10725354,N,12047.28354517,E,4,29,0.7,4.2378,M,9.8162,M,09,0*76
$GNRMC,062421.80,A,3039.10725354,N,12047.28354517,E,0.059,69.9,170120,5.8,W,D*04
#HEADINGA,COM2,0,59.0,FINE,2088,455079.800,1142185,15,18;SOL_COMPUTED,NARROW_INT,0.5530,243.0240,21.5261,0.0000,0.4461,1.0459,"999",35,28,28,10,3,01,3,73*2aef417d
$GNGGA,062421.90,3039.10725295,N,12047.28354573,E,4,29,0.7,4.2366,M,9.8162,M,09,0*76
$GNRMC,062421.90,A,3039.10725295,N,12047.28354573,E,0.027,140.1,170120,5.8,W,D*30
#HEADINGA,COM2,0,59.0,FINE,2088,455079.900,1142285,18,18;SOL_COMPUTED,NARROW_INT,0.5537,243.7121,22.9999,0.0000,0.4778,1.0899,"999",35,25,25,10,3,01,3,73*26ed7fc4
#REFSTATIONA,COM2,0,59.0,FINE,2088,455070.000,1141586,803,18;00000000,-2811044.342,4717820.352,3232735.546,0,RTCMV3,"0000"*4b0e36b9
$GNGGA,062422.00,3039.10725068,N,12047.28354461,E,4,29,0.7,4.2309,M,9.8162,M,10,0*7F
$GNRMC,062422.00,A,3039.10725068,N,12047.28354461,E,0.089,203.1,170120,5.8,W,D*38
#HEADINGA,COM2,0,59.0,FINE,2088,455080.000,1142385,24,18;SOL_COMPUTED,NARROW_INT,0.5693,242.9725,23.7679,0.0000,0.4615,1.0527,"999",35,25,25,9,3,01,3,73*38d84182
$GNGGA,062422.10,3039.10725310,N,12047.28354787,E,4,28,0.7,4.2359,M,9.8162,M,10,0*7D
$GNRMC,062422.10,A,3039.10725310,N,12047.28354787,E,0.133,49.3,170120,5.8,W,D*00
#HEADINGA,COM2,0,59.0,FINE,2088,455080.100,1142485,19,18;SOL_COMPUTED,NARROW_INT,0.5677,242.9568,23.2807,0.0000,0.4526,1.0460,"999",35,26,26,9,3,01,3,73*eaac5919
$GNGGA,062422.20,3039.10725147,N,12047.28354723,E,4,28,0.7,4.2382,M,9.8162,M,10,0*76
$GNRMC,062422.20,A,3039.10725147,N,12047.28354723,E,0.062,198.9,170120,5.8,W,D*3F
#HEADINGA,COM2,0,60.0,FINE,2088,455080.200,1142586,17,18;SOL_COMPUTED,NARROW_INT,0.5643,242.7830,22.7018,0.0000,0.4395,1.0202,"999",35,27,27,9,3,01,3,73*c8e6157a
$GNGGA,062422.30,3039.10725274,N,12047.28354594,E,4,29,0.7,4.2307,M,9.8162,M,10,0*76
$GNRMC,062422.30,A,3039.10725274,N,12047.28354594,E,0.061,318.7,170120,5.8,W,D*34
#HEADINGA,COM2,0,60.0,FINE,2088,455080.300,1142686,18,18;SOL_COMPUTED,NARROW_INT,0.5665,242.8134,23.4074,0.0000,0.4527,1.0460,"999",35,26,26,9,3,01,3,73*8761d3d9
$GNGGA,062422.40,3039.10725315,N,12047.28354724,E,4,29,0.7,4.2368,M,9.8162,M,10,0*77
$GNRMC,062422.40,A,3039.10725315,N,12047.28354724,E,0.043,70.0,170120,5.8,W,D*06
#HEADINGA,COM2,0,60.0,FINE,2088,455080.400,1142785,22,18;SOL_COMPUTED,NARROW_INT,0.5973,243.3901,25.3415,0.0000,0.5469,1.1754,"999",35,22,22,6,3,01,0,73*69aec49b
$GNGGA,062422.50,3039.10725249,N,12047.28354885,E,4,28,0.7,4.2388,M,9.8162,M,10,0*75
$GNRMC,062422.50,A,3039.10725249,N,12047.28354885,E,0.055,115.6,170120,5.8,W,D*38
#HEADINGA,COM2,0,60.0,FINE,2088,455080.500,1142885,17,18;SOL_COMPUTED,NARROW_INT,0.5595,243.2681,23.3904,0.0000,0.4542,1.0414,"999",35,27,27,9,3,01,3,73*7ccf7ce6
$GNGGA,062422.60,3039.10725014,N,12047.28354397,E,4,28,0.7,4.2468,M,9.8162,M,10,0*7D
$GNRMC,062422.60,A,3039.10725014,N,12047.28354397,E,0.173,240.9,170120,5.8,W,D*30
#HEADINGA,COM2,0,60.0,FINE,2088,455080.600,1142985,20,18;SOL_COMPUTED,NARROW_INT,0.5592,242.6586,21.3022,0.0000,0.4363,1.0388,"999",35,27,27,9,3,01,3,73*14f2d1f2
$GNGGA,062422.70,3039.10724819,N,12047.28354583,E,4,28,0.7,4.2394,M,9.8162,M,10,0*7F
$GNRMC,062422.70,A,3039.10724819,N,12047.28354583,E,0.091,140.4,170120,5.8,W,D*35
#HEADINGA,COM2,0,60.0,FINE,2088,455080.700,1143085,18,18;SOL_COMPUTED,NARROW_INT,0.5577,242.7644,22.4584,0.0000,0.4568,1.1347,"999",35,25,25,8,3,01,3,73*0afb03eb
$GNGGA,062422.80,3039.10724868,N,12047.28354299,E,4,28,0.7,4.2377,M,9.8162,M,10,0*77
$GNRMC,062422.80,A,3039.10724868,N,12047.28354299,E,0.090,281.3,170120,5.8,W,D*38
#HEADINGA,COM2,0,60.0,FINE,2088,455080.800,1143184,21,18;SOL_COMPUTED,NARROW_INT,0.5809,242.6826,23.3942,0.0000,0.4472,1.3859,"999",35,22,22,5,3,01,0,73*baeeff13
$GNGGA,062422.90,3039.10725089,N,12047.28354476,E,4,29,0.7,4.2335,M,9.8162,M,10,0*70
$GNRMC,062422.90,A,3039.10725089,N,12047.28354476,E,0.097,34.8,170120,5.8,W,D*08
#HEADINGA,COM2,0,60.0,FINE,2088,455080.900,1143284,18,18;SOL_COMPUTED,NARROW_INT,0.5612,243.2661,22.8609,0.0000,0.4509,1.0455,"999",35,27,27,9,3,01,3,73*26a30c21
#REFSTATIONA,COM2,0,59.0,FINE,2088,455070.000,1141586,1803,18;00000000,-2811044.342,4717820.352,3232735.546,0,RTCMV3,"0000"*3d556468
$GNGGA,062423.00,3039.10725108,N,12047.28354488,E,4,29,0.7,4.2342,M,9.8162,M,11,0*70
$GNRMC,062423.00,A,3039.10725108,N,12047.28354488,E,0.008,28.5,170120,5.8,W,D*0F
#HEADINGA,COM2,0,60.0,FINE,2088,455081.000,1143385,21,18;SOL_COMPUTED,NARROW_INT,0.5607,242.6660,22.7209,0.0000,0.4350,1.0073,"999",35,28,28,9,3,01,3,73*bcb3f44b
$GNGGA,062423.10,3039.10724893,N,12047.28354438,E,4,29,0.7,4.2465,M,9.8162,M,11,0*72
$GNRMC,062423.10,A,3039.10724893,N,12047.28354438,E,0.079,191.4,170120,5.8,W,D*3B
#HEADINGA,COM2,0,60.0,FINE,2088,455081.100,1143485,17,18;SOL_COMPUTED,NARROW_INT,0.5569,243.1227,23.0154,0.0000,0.4544,1.0509,"999",35,27,27,9,3,01,3,73*350618dc
$GNGGA,062423.20,3039.10724935,N,12047.28354310,E,4,29,0.7,4.2395,M,9.8162,M,11,0*79
$GNRMC,062423.20,A,3039.10724935,N,12047.28354310,E,0.043,290.5,170120,5.8,W,D*32
#HEADINGA,COM2,0,60.0,FINE,2088,455081.200,1143585,19,18;SOL_COMPUTED,NARROW_INT,0.5524,243.2802,21.0891,0.0000,0.4551,1.1526,"999",35,26,26,8,3,01,3,73*4bde7c04
$GNGGA,062423.30,3039.10724661,N,12047.28354252,E,4,29,0.7,4.2331,M,9.8162,M,11,0*7F
$GNRMC,062423.30,A,3039.10724661,N,12047.28354252,E,0.100,190.2,170120,5.8,W,D*38
#HEADINGA,COM2,0,60.0,FINE,2088,455081.300,1143685,17,18;SOL_COMPUTED,NARROW_INT,0.5575,243.5336,22.1742,0.0000,0.4412,1.0150,"999",35,28,28,10,3,01,3,73*5998973b
$GNGGA,062423.40,3039.10724760,N,12047.28354278,E,4,29,0.7,4.2371,M,9.8162,M,11,0*74
$GNRMC,062423.40,A,3039.10724760,N,12047.28354278,E,0.036,12.5,170120,5.8,W,D*0F
#HEADINGA,COM2,0,60.0,FINE,2088,455081.400,1143785,18,18;SOL_COMPUTED,NARROW_INT,0.5630,243.7392,23.0544,0.0000,0.4544,1.0340,"999",35,27,27,10,3,01,3,73*1a328638
$GNGGA,062423.50,3039.10724730,N,12047.28353781,E,4,29,0.7,4.2401,M,9.8162,M,11,0*74
$GNRMC,062423.50,A,3039.10724730,N,12047.28353781,E,0.154,266.0,170120,5.8,W,D*3E
#HEADINGA,COM2,0,60.0,FINE,2088,455081.500,1143885,20,18;SOL_COMPUTED,NARROW_INT,0.5603,243.8906,22.3885,0.0000,0.4550,1.0480,"999",35,27,27,10,3,01,3,73*40e73eae
$GNGGA,062423.60,3039.10724628,N,12047.28354199,E,4,29,0.7,4.2433,M,9.8162,M,11,0*76
$GNRMC,062423.60,A,3039.10724628,N,12047.28354199,E,0.135,105.8,170120,5.8,W,D*34
#HEADINGA,COM2,0,60.0,FINE,2088,455081.600,1143985,18,18;SOL_COMPUTED,NARROW_INT,0.5541,243.4286,21.3686,0.0000,0.4604,1.1487,"999",35,25,25,9,3,01,3,73*2f11e245
$GNGGA,062423.70,3039.10724860,N,12047.28354002,E,4,29,0.7,4.2420,M,9.8162,M,11,0*74
$GNRMC,062423.70,A,3039.10724860,N,12047.28354002,E,0.103,323.7,170120,5.8,W,D*38
#HEADINGA,COM2,0,60.0,FINE,2088,455081.700,1144085,16,18;SOL_COMPUTED,NARROW_INT,0.5591,243.5742,23.0482,0.0000,0.4578,1.0428,"999",34,27,27,10,3,01,3,73*13a2a260
$GNGGA,062423.80,3039.10724816,N,12047.28353948,E,4,29,0.7,4.2494,M,9.8162,M,11,0*75
$GNRMC,062423.80,A,3039.10724816,N,12047.28353948,E,0.023,227.2,170120,5.8,W,D*35
#HEADINGA,COM2,0,60.0,FINE,2088,455081.800,1144185,17,18;SOL_COMPUTED,NARROW_INT,0.5592,243.3708,22.4873,0.0000,0.4554,1.0501,"999",34,27,27,10,3,01,3,73*96783da4
$GNGGA,062423.90,3039.10724889,N,12047.28354243,E,4,28,0.7,4.2464,M,9.8162,M,11,0*7B
$GNRMC,062423.90,A,3039.10724889,N,12047.28354243,E,0.095,74.0,170120,5.8,W,D*0E
#HEADINGA,COM2,0,60.0,FINE,2088,455081.900,1144284,18,18;SOL_COMPUTED,NARROW_INT,0.5515,243.2661,21.8005,0.0000,0.4611,1.1390,"999",34,26,26,9,3,01,3,73*a2d1acbb
#REFSTATIONA,COM2,0,59.0,FINE,2088,455070.000,1141586,2803,18;00000000,-2811044.342,4717820.352,3232735.546,0,RTCMV3,"0000"*992be6ad
$GNGGA,062424.00,3039.10724732,N,12047.28353949,E,4,29,0.7,4.2432,M,9.8162,M,12,0*7D
$GNRMC,062424.00,A,3039.10724732,N,12047.28353949,E,0.108,238.3,170120,5.8,W,D*35
#HEADINGA,COM2,0,60.0,FINE,2088,455082.000,1144385,22,18;SOL_COMPUTED,NARROW_INT,0.5606,243.4401,22.9301,0.0000,0.4558,1.0415,"999",34,27,27,10,3,01,3,73*0be0e1ff
$GNGGA,062424.10,3039.10724763,N,12047.28354043,E,4,29,0.7,4.2517,M,9.8162,M,12,0*7A
$GNRMC,062424.10,A,3039.10724763,N,12047.28354043,E,0.031,69.0,170120,5.8,W,D*0A
#HEADINGA,COM2,0,60.0,FINE,2088,455082.100,1144485,18,18;SOL_COMPUTED,NARROW_INT,0.5549,242.9913,21.9028,0.0000,0.4449,1.0341,"999",34,27,27,10,3,01,3,73*0d68d9ea
$GNGGA,062424.20,3039.10724649,N,12047.28353655,E,4,28,0.7,4.2444,M,9.8162,M,12,0*70
$GNRMC,062424.20,A,3039.10724649,N,12047.28353655,E,0.127,251.3,170120,5.8,W,D*3A
#HEADINGA,COM2,0,60.0,FINE,2088,455082.200,1144585,18,18;SOL_COMPUTED,NARROW_INT,0.5617,243.7012,22.8016,0.0000,0.4552,1.0389,"999",34,27,27,10,3,01,3,73*51933602
$GNGGA,062424.30,3039.10724706,N,12047.28354014,E,4,29,0.7,4.2392,M,9.8162,M,12,0*72
$GNRMC,062424.30,A,3039.10724706,N,12047.28354014,E,0.113,79.6,170120,5.8,W,D*0F
#HEADINGA,COM2,0,60.0,FINE,2088,455082.300,1144685,18,18;SOL_COMPUTED,NARROW_INT,0.5655,243.6988,23.5560,0.0000,0.4550,1.0249,"999",35,27,27,10,3,01,3,73*930ab00d
$GNGGA,062424.40,3039.10724497,N,12047.28353434,E,4,28,0.7,4.2441,M,9.8162,M,12,0*77
$GNRMC,062424.40,A,3039.10724497,N,12047.28353434,E,0.195,247.4,170120,5.8,W,D*31
#HEADINGA,COM2,0,60.0,FINE,2088,455082.400,1144785,17,18;SOL_COMPUTED,NARROW_INT,0.5523,243.7792,22.4469,0.0000,0.4613,1.0564,"999",35,27,27,10,3,01,3,73*630ba018
$GNGGA,062424.50,3039.10725582,N,12047.28354685,E,4,28,0.7,4.2544,M,9.8162,M,12,0*79
$GNRMC,062424.50,A,3039.10725582,N,12047.28354685,E,0.550,44.9,170120,5.8,W,D*0A
#HEADINGA,COM2,0,60.0,FINE,2088,455082.500,1144884,20,18;SOL_COMPUTED,NARROW_INT,0.5481,243.0005,21.4226,0.0000,0.4433,1.0360,"999",35,28,28,10,3,01,3,73*8042216c
$GNGGA,062424.60,3039.10725312,N,12047.28354941,E,4,29,0.7,4.2468,M,9.8162,M,12,0*7C
$GNRMC,062424.60,A,3039.10725312,N,12047.28354941,E,0.125,140.6,170120,5.8,W,D*3D
#HEADINGA,COM2,0,60.0,FINE,2088,455082.600,1144985,17,18;SOL_COMPUTED,NARROW_INT,0.5610,243.6502,23.1233,0.0000,0.4507,1.0163,"999",35,26,26,10,3,01,3,73*3d42c3a8
$GNGGA,062424.70,3039.10725378,N,12047.28354701,E,4,29,0.7,4.2590,M,9.8162,M,12,0*7D
$GNRMC,062424.70,A,3039.10725378,N,12047.28354701,E,0.078,287.8,170120,5.8,W,D*35
#HEADINGA,COM2,0,60.0,FINE,2088,455082.700,1145084,17,18;SOL_COMPUTED,NARROW_INT,0.5630,243.4139,22.2271,0.0000,0.4531,1.0486,"999",35,26,26,10,3,01,3,73*76897c48
$GNGGA,062424.80,3039.10725177,N,12047.28354501,E,4,29,0.7,4.2502,M,9.8162,M,12,0*76
$GNRMC,062424.80,A,3039.10725177,N,12047.28354501,E,0.095,220.8,170120,5.8,W,D*3B
#HEADINGA,COM2,0,60.0,FINE,2088,455082.800,1145184,17,18;SOL_COMPUTED,NARROW_INT,0.5623,243.6539,22.7805,0.0000,0.4563,1.0429,"999",35,26,26,10,3,01,3,73*beaf843b
$GNGGA,062424.90,3039.10725560,N,12047.28354965,E,4,29,0.7,4.2497,M,9.8162,M,12,0*76
$GNRMC,062424.90,A,3039.10725560,N,12047.28354965,E,0.199,46.4,170120,5.8,W,D*05
#HEADINGA,COM2,0,60.0,FINE,2088,455082.900,1145284,16,18;SOL_COMPUTED,NARROW_INT,0.5577,243.3746,22.3702,0.0000,0.4400,1.0074,"999",35,28,28,10,3,01,3,73*4882a6d1
#REFSTATIONA,COM2,0,59.0,FINE,2088,455070.000,1141586,3803,18;00000000,-2811044.342,4717820.352,3232735.546,0,RTCMV3,"0000"*4c2e9ad1
$GNGGA,062425.00,3039.10725377,N,12047.28354534,E,4,29,0.7,4.2558,M,9.8162,M,13,0*75
$GNRMC,062425.00,A,3039.10725377,N,12047.28354534,E,0.149,243.9,170120,5.8,W,D*32
#HEADINGA,COM2,0,60.0,FINE,2088,455083.000,1145385,22,18;SOL_COMPUTED,NARROW_INT,0.5556,243.7891,22.8037,0.0000,0.4588,1.0460,"999",35,27,27,10,3,01,3,73*956b6669
$GNGGA,062425.10,3039.10725388,N,12047.28354604,E,4,29,0.7,4.2524,M,9.8162,M,13,0*7F
$GNRMC,062425.10,A,3039.10725388,N,12047.28354604,E,0.022,80.3,170120,5.8,W,D*08
#HEADINGA,COM2,0,60.0,FINE,2088,455083.100,1145485,18,18;SOL_COMPUTED,NARROW_INT,0.5590,243.6859,23.0551,0.0000,0.4601,1.0457,"999",35,26,26,10,3,01,3,73*5583aae5
$GNGGA,062425.20,3039.10725297,N,12047.28354594,E,4,29,0.7,4.2470,M,9.8162,M,13,0*79
$GNRMC,062425.20,A,3039.10725297,N,12047.28354594,E,0.033,185.4,170120,5.8,W,D*3D
#HEADINGA,COM2,0,59.0,FINE,2088,455083.200,1145585,20,18;SOL_COMPUTED,NARROW_INT,0.5545,243.0173,22.7433,0.0000,0.4610,1.1075,"999",35,26,26,9,3,01,3,73*6867428a
$GNGGA,062425.30,3039.10725511,N,12047.28354498,E,4,29,0.7,4.2543,M,9.8162,M,13,0*7D
$GNRMC,062425.30,A,3039.10725511,N,12047.28354498,E,0.083,338.8,170120,5.8,W,D*3B
#HEADINGA,COM2,0,59.0,FINE,2088,455083.300,1145685,18,18;SOL_COMPUTED,NARROW_INT,0.5586,243.2331,23.2988,0.0000,0.4548,1.0208,"999",35,28,28,10,3,01,3,73*5da9a9ad
$GNGGA,062425.40,3039.10725474,N,12047.28354694,E,4,29,0.7,4.2404,M,9.8162,M,12,0*75
$GNRMC,062425.40,A,3039.10725474,N,12047.28354694,E,0.062,102.3,170120,5.8,W,D*3F
#HEADINGA,COM2,0,59.0,FINE,2088,455083.400,1145785,18,18;SOL_COMPUTED,NARROW_INT,0.5575,243.7620,23.1653,0.0000,0.4568,1.0247,"999",35,28,28,10,3,01,3,73*4ec23ac9
$GNGGA,062425.50,3039.10725374,N,12047.28354659,E,4,29,0.7,4.2465,M,9.8162,M,12,0*75
$GNRMC,062425.50,A,3039.10725374,N,12047.28354659,E,0.038,196.8,170120,5.8,W,D*31
#HEADINGA,COM2,0,59.0,FINE,2088,455083.500,1145885,20,18;SOL_COMPUTED,NARROW_INT,0.5571,243.7274,23.1630,0.0000,0.4571,1.0255,"999",35,28,28,10,3,01,3,73*1decd9c4
$GNGGA,062425.60,3039.10725201,N,12047.28354463,E,4,29,0.7,4.2478,M,9.8162,M,12,0*72
$GNRMC,062425.60,A,3039.10725201,N,12047.28354463,E,0.087,224.5,170120,5.8,W,D*39
#HEADINGA,COM2,0,59.0,FINE,2088,455083.600,1145985,17,18;SOL_COMPUTED,NARROW_INT,0.5516,243.6086,22.8310,0.0000,0.4620,1.0438,"999",35,27,27,10,3,01,3,73*2a263713
$GNGGA,062425.70,3039.10725277,N,12047.28354654,E,4,29,0.7,4.2478,M,9.8162,M,12,0*74
$GNRMC,062425.70,A,3039.10725277,N,12047.28354654,E,0.065,65.3,170120,5.8,W,D*02
#HEADINGA,COM2,0,59.0,FINE,2088,455083.700,1146084,17,18;SOL_COMPUTED,NARROW_INT,0.5514,243.3511,22.8991,0.0000,0.4575,1.0246,"999",35,27,27,10,3,01,3,73*46651a70
$GNGGA,062425.80,3039.10725250,N,12047.28354594,E,4,29,0.7,4.2502,M,9.8162,M,12,0*7D
$GNRMC,062425.80,A,3039.10725250,N,12047.28354594,E,0.021,242.1,170120,5.8,W,D*32
#HEADINGA,COM2,0,59.0,FINE,2088,455083.800,1146185,17,18;SOL_COMPUTED,NARROW_INT,0.5586,243.4255,23.0472,0.0000,0.4579,1.0325,"999",35,27,27,10,3,01,3,73*5f809be8
$GNGGA,062425.90,3039.10725332,N,12047.28354826,E,4,29,0.7,4.2464,M,9.8162,M,12,0*7C
$GNRMC,062425.90,A,3039.10725332,N,12047.28354826,E,0.078,67.7,170120,5.8,W,D*0D
#HEADINGA,COM2,0,59.0,FINE,2088,455083.900,1146284,18,18;SOL_COMPUTED,NARROW_INT,0.5582,243.5568,23.4771,0.0000,0.4567,1.0187,"999",35,28,28,10,3,01,3,73*f6bac4ec
#REFSTATIONA,COM2,0,59.0,FINE,2088,455070.000,1145685,704,18;00000000,-2811044.342,4717820.352,3232735.546,0,RTCMV3,"0000"*b939b662
$GNGGA,062426.00,3039.10725314,N,12047.28354655,E,4,29,0.7,4.2455,M,9.8162,M,13,0*7B
$GNRMC,062426.00,A,3039.10725314,N,12047.28354655,E,0.054,263.3,170120,5.8,W,D*35
#HEADINGA,COM2,0,59.0,FINE,2088,455084.000,1146385,22,18;SOL_COMPUTED,NARROW_INT,0.5564,243.9128,23.1401,0.0000,0.4582,1.0266,"999",35,28,28,10,3,01,3,73*3228a309
$GNGGA,062426.10,3039.10725315,N,12047.28354669,E,4,29,0.7,4.2438,M,9.8162,M,13,0*7F
$GNRMC,062426.10,A,3039.10725315,N,12047.28354669,E,0.005,85.3,170120,5.8,W,D*04
#HEADINGA,COM2,0,59.0,FINE,2088,455084.100,1146485,18,18;SOL_COMPUTED,NARROW_INT,0.5565,243.7268,22.9307,0.0000,0.4569,1.0368,"999",35,27,27,10,3,01,3,73*80cd43f5
$GNGGA,062426.20,3039.10725309,N,12047.28354691,E,4,29,0.7,4.2483,M,9.8162,M,13,0*76
$GNRMC,062426.20,A,3039.10725309,N,12047.28354691,E,0.007,107.2,170120,5.8,W,D*35
#HEADINGA,COM2,0,59.0,FINE,2088,455084.200,1146586,19,18;SOL_COMPUTED,NARROW_INT,0.5542,243.5066,22.4798,0.0000,0.4552,1.0343,"999",35,28,28,10,3,01,3,73*ee0be356
$GNGGA,062426.30,3039.10725192,N,12047.28354512,E,4,29,0.7,4.2439,M,9.8162,M,10,0*7D
$GNRMC,062426.30,A,3039.10725192,N,12047.28354512,E,0.070,232.7,170120,5.8,W,D*3C
#HEADINGA,COM2,0,59.0,FINE,2088,455084.300,1146686,19,18;SOL_COMPUTED,NARROW_INT,0.5499,243.4124,21.7301,0.0000,0.4625,1.1253,"999",36,26,26,9,3,01,3,73*d8ed0d6f
$GNGGA,062426.40,3039.10725344,N,12047.28354648,E,4,29,0.7,4.2472,M,9.8162,M,10,0*70
$GNRMC,062426.40,A,3039.10725344,N,12047.28354648,E,0.069,37.6,170120,5.8,W,D*00
#HEADINGA,COM2,0,59.0,FINE,2088,455084.400,1146785,19,18;SOL_COMPUTED,NARROW_INT,0.5499,243.3132,22.0313,0.0000,0.4613,1.1309,"999",36,26,26,9,3,01,3,73*811037bf
$GNGGA,062426.50,3039.10725345,N,12047.28354598,E,4,29,0.7,4.2516,M,9.8162,M,10,0*7D
$GNRMC,062426.50,A,3039.10725345,N,12047.28354598,E,0.015,270.2,170120,5.8,W,D*30
#HEADINGA,COM2,0,59.0,FINE,2088,455084.500,1146885,21,18;SOL_COMPUTED,NARROW_INT,0.5483,243.6176,22.6727,0.0000,0.4612,1.0435,"999",36,28,28,10,3,01,3,73*cf346b4c
$GNGGA,062426.60,3039.10725146,N,12047.28354718,E,4,29,0.7,4.2498,M,9.8162,M,10,0*72
$GNRMC,062426.60,A,3039.10725146,N,12047.28354718,E,0.081,152.6,170120,5.8,W,D*32
#HEADINGA,COM2,0,59.0,FINE,2088,455084.600,1146985,18,18;SOL_COMPUTED,NARROW_INT,0.5424,243.5190,21.1006,0.0000,0.4504,1.0952,"999",36,27,27,9,3,01,3,73*f3683685
$GNGGA,062426.70,3039.10725152,N,12047.28354451,E,4,29,0.7,4.2441,M,9.8162,M,10,0*7C
$GNRMC,062426.70,A,3039.10725152,N,12047.28354451,E,0.083,271.6,170120,5.8,W,D*38
#HEADINGA,COM2,0,59.0,FINE,2088,455084.700,1147085,17,18;SOL_COMPUTED,NARROW_INT,0.5591,243.7078,22.2932,0.0000,0.4514,1.0356,"999",36,27,27,10,3,01,3,73*1a38f7d3
$GNGGA,062426.80,3039.10725497,N,12047.28354991,E,4,29,0.7,4.2510,M,9.8162,M,10,0*7B
$GNRMC,062426.80,A,3039.10725497,N,12047.28354991,E,0.208,53.6,170120,5.8,W,D*09
#HEADINGA,COM2,0,59.0,FINE,2088,455084.800,1147185,17,18;SOL_COMPUTED,NARROW_INT,0.5587,243.6729,22.7978,0.0000,0.4532,1.0224,"999",36,28,28,10,3,01,3,73*5f24fc47
$GNGGA,062426.90,3039.10725438,N,12047.28354598,E,4,29,0.7,4.2497,M,9.8162,M,10,0*74
$GNRMC,062426.90,A,3039.10725438,N,12047.28354598,E,0.124,260.3,170120,5.8,W,D*32
#HEADINGA,COM2,0,59.0,FINE,2088,455084.900,1147285,17,18;SOL_COMPUTED,NARROW_INT,0.5568,243.4700,22.8439,0.0000,0.4541,1.0251,"999",36,28,28,10,3,01,3,73*928a4294
#REFSTATIONA,COM2,0,59.0,FINE,2088,455070.000,1146586,804,18;00000000,-2811044.342,4717820.352,3232735.546,0,RTCMV3,"0000"*c715ed4c
$GNGGA,062427.00,3039.10725406,N,12047.28354740,E,4,29,0.7,4.2488,M,9.8162,M,11,0*79
$GNRMC,062427.00,A,3039.10725406,N,12047.28354740,E,0.046,104.7,170120,5.8,W,D*30
#HEADINGA,COM2,0,59.0,FINE,2088,455085.000,1147385,23,18;SOL_COMPUTED,NARROW_INT,0.5587,243.7408,22.7072,0.0000,0.4528,1.0241,"999",36,28,28,10,3,01,3,73*ca7177d1
$GNGGA,062427.10,3039.10725269,N,12047.28354677,E,4,29,0.7,4.2501,M,9.8162,M,11,0*72
$GNRMC,062427.10,A,3039.10725269,N,12047.28354677,E,0.053,201.9,170120,5.8,W,D*37
#HEADINGA,COM2,0,59.0,FINE,2088,455085.100,1147485,18,18;SOL_COMPUTED,NARROW_INT,0.5514,243.5674,22.3422,0.0000,0.4571,1.0425,"999",36,28,28,10,3,01,3,73*2ff56fd4
$GNGGA,062427.20,3039.10725290,N,12047.28354590,E,4,29,0.7,4.2396,M,9.8162,M,11,0*75
$GNRMC,062427.20,A,3039.10725290,N,12047.28354590,E,0.028,285.7,170120,5.8,W,D*36
#HEADINGA,COM2,0,59.0,FINE,2088,455085.200,1147586,18,18;SOL_COMPUTED,NARROW_INT,0.5491,243.1985,22.2742,0.0000,0.4589,1.1045,"999",36,27,27,9,3,01,3,73*e53f35b5
$GNGGA,062427.30,3039.10725312,N,12047.28354894,E,4,29,0.7,4.2451,M,9.8162,M,11,0*7A
$GNRMC,062427.30,A,3039.10725312,N,12047.28354894,E,0.095,85.3,170120,5.8,W,D*05
#HEADINGA,COM2,0,59.0,FINE,2088,455085.300,1147685,19,18;SOL_COMPUTED,NARROW_INT,0.5620,243.7919,22.9474,0.0000,0.4533,1.0263,"999",36,26,26,10,3,01,3,73*d40d8b86
$GNGGA,062427.40,3039.10725408,N,12047.28354882,E,4,29,0.7,4.2448,M,9.8162,M,10,0*7F
$GNRMC,062427.40,A,3039.10725408,N,12047.28354882,E,0.035,354.0,170120,5.8,W,D*3F
#HEADINGA,COM2,0,59.0,FINE,2088,455085.400,1147785,18,18;SOL_COMPUTED,NARROW_INT,0.5575,243.7596,23.1522,0.0000,0.4542,1.0153,"999",36,28,28,10,3,01,3,73*c870e9a9
$GNGGA,062427.50,3039.10725356,N,12047.28354525,E,4,29,0.7,4.2467,M,9.8162,M,10,0*7F
$GNRMC,062427.50,A,3039.10725356,N,12047.28354525,E,0.112,260.4,170120,5.8,W,D*34
#HEADINGA,COM2,0,59.0,FINE,2088,455085.500,1147885,26,18;SOL_COMPUTED,NARROW_INT,0.5400,242.6627,20.8197,0.0000,0.4839,1.2605,"999",36,22,22,7,3,01,3,43*008b5ee9
$GNGGA,062427.60,3039.10725332,N,12047.28354696,E,4,29,0.7,4.2519,M,9.8162,M,10,0*7D
$GNRMC,062427.60,A,3039.10725332,N,12047.28354696,E,0.054,99.4,170120,5.8,W,D*09
#HEADINGA,COM2,0,59.0,FINE,2088,455085.600,1147985,17,18;SOL_COMPUTED,NARROW_INT,0.5564,243.7770,22.8746,0.0000,0.4543,1.0211,"999",36,28,28,10,3,01,3,73*0df878e3
$GNGGA,062427.70,3039.10725470,N,12047.28354903,E,4,29,0.7,4.2446,M,9.8162,M,10,0*75
$GNRMC,062427.70,A,3039.10725470,N,12047.28354903,E,0.081,52.4,170120,5.8,W,D*05
#HEADINGA,COM2,0,59.0,FINE,2088,455085.700,1148085,17,18;SOL_COMPUTED,NARROW_INT,0.5632,243.5620,23.0364,0.0000,0.4487,1.0134,"999",36,27,27,10,3,01,3,73*1f4ac1f9
$GNGGA,062427.80,3039.10725417,N,12047.28355009,E,4,29,0.7,4.2460,M,9.8162,M,10,0*7D
$GNRMC,062427.80,A,3039.10725417,N,12047.28355009,E,0.038,119.8,170120,5.8,W,D*39
#HEADINGA,COM2,0,59.0,FINE,2088,455085.800,1148185,18,18;SOL_COMPUTED,NARROW_INT,0.5574,244.0634,23.1935,0.0000,0.4586,1.0228,"999",36,27,27,10,3,01,3,73*a220f29b
$GNGGA,062427.90,3039.10725222,N,12047.28354619,E,4,29,0.7,4.2544,M,9.8162,M,10,0*7D
$GNRMC,062427.90,A,3039.10725222,N,12047.28354619,E,0.140,239.9,170120,5.8,W,D*30
#HEADINGA,COM2,0,59.0,FINE,2088,455085.900,1148285,17,18;SOL_COMPUTED,NARROW_INT,0.5551,244.0013,22.7707,0.0000,0.4555,1.0234,"999",36,28,28,10,3,01,3,73*3283113a
#REFSTATIONA,COM2,0,59.0,FINE,2088,455070.000,1147685,704,18;00000000,-2811044.342,4717820.352,3232735.546,0,RTCMV3,"0000"*8dd0083f
$GNGGA,062428.00,3039.10725432,N,12047.28354702,E,4,29,0.7,4.2464,M,9.8162,M,11,0*75
$GNRMC,062428.00,A,3039.10725432,N,12047.28354702,E,0.080,18.9,170120,5.8,W,D*06
#HEADINGA,COM2,0,59.0,FINE,2088,455086.000,1148385,22,18;SOL_COMPUTED,NARROW_INT,0.5604,243.1658,23.2680,0.0000,0.4503,1.0063,"999",36,28,28,10,3,01,3,73*7a08ee5e
$GNGGA,062428.10,3039.10725375,N,12047.28354523,E,4,29,0.7,4.2551,M,9.8162,M,11,0*76
$GNRMC,062428.10,A,3039.10725375,N,12047.28354523,E,0.059,250.0,170120,5.8,W,D*31
#HEADINGA,COM2,0,59.0,FINE,2088,455086.100,1148485,20,18;SOL_COMPUTED,NARROW_INT,0.5536,243.0794,22.6370,0.0000,0.4636,1.0458,"999",36,26,26,10,3,01,3,73*d14eaf75
$GNGGA,062428.20,3039.10725298,N,12047.28354858,E,4,29,0.7,4.2489,M,9.8162,M,11,0*72
$GNRMC,062428.20,A,3039.10725298,N,12047.28354858,E,0.108,104.9,170120,5.8,W,D*3F
#HEADINGA,COM2,0,60.0,FINE,2088,455086.200,1148586,19,18;SOL_COMPUTED,NARROW_INT,0.5566,244.0181,22.5782,0.0000,0.4524,1.0192,"999",36,28,28,10,3,01,3,73*dce5eb07
$GNGGA,062428.30,3039.10725397,N,12047.28354595,E,4,29,0.7,4.2509,M,9.8162,M,11,0*78
$GNRMC,062428.30,A,3039.10725397,N,12047.28354595,E,0.089,293.4,170120,5.8,W,D*34
#HEADINGA,COM2,0,60.0,FINE,2088,455086.300,1148685,23,18;SOL_COMPUTED,NARROW_INT,0.5907,243.3141,24.0769,0.0000,0.4399,1.1752,"999",36,23,23,7,3,01,0,73*7466d429
$GNGGA,062428.40,3039.10725225,N,12047.28354536,E,4,29,0.7,4.2512,M,9.8162,M,11,0*74
$GNRMC,062428.40,A,3039.10725225,N,12047.28354536,E,0.064,196.5,170120,5.8,W,D*36
#HEADINGA,COM2,0,60.0,FINE,2088,455086.400,1148785,19,18;SOL_COMPUTED,NARROW_INT,0.5562,243.7061,22.9899,0.0000,0.4569,1.0240,"999",36,27,27,10,3,01,3,73*cd284f9d
$GNGGA,062428.50,3039.10725475,N,12047.28354672,E,4,29,0.7,4.2498,M,9.8162,M,11,0*76
$GNRMC,062428.50,A,3039.10725475,N,12047.28354672,E,0.099,25.1,170120,5.8,W,D*08
#HEADINGA,COM2,0,60.0,FINE,2088,455086.500,1148885,21,18;SOL_COMPUTED,NARROW_INT,0.5575,243.4597,23.0105,0.0000,0.4569,1.0244,"999",36,26,26,10,3,01,3,73*33174e9b
$GNGGA,062428.60,3039.10725434,N,12047.28354739,E,4,29,0.7,4.2548,M,9.8162,M,11,0*72
$GNRMC,062428.60,A,3039.10725434,N,12047.28354739,E,0.025,125.5,170120,5.8,W,D*32
#HEADINGA,COM2,0,60.0,FINE,2088,455086.600,1148985,17,18;SOL_COMPUTED,NARROW_INT,0.5541,243.5946,22.1222,0.0000,0.4518,1.0312,"999",36,28,28,10,3,01,3,73*fd068bc6
$GNGGA,062428.70,3039.10725448,N,12047.28355104,E,4,29,0.7,4.2424,M,9.8162,M,11,0*7A
$GNRMC,062428.70,A,3039.10725448,N,12047.28355104,E,0.113,87.5,170120,5.8,W,D*0C
#HEADINGA,COM2,0,60.0,FINE,2088,455086.700,1149085,17,18;SOL_COMPUTED,NARROW_INT,0.5568,243.6314,21.6120,0.0000,0.4379,1.0261,"999",36,27,27,8,3,01,3,53*07d9f077
$GNGGA,062428.80,3039.10725276,N,12047.28354704,E,4,29,0.7,4.2483,M,9.8162,M,11,0*74
$GNRMC,062428.80,A,3039.10725276,N,12047.28354704,E,0.139,243.6,170120,5.8,W,D*3E
#HEADINGA,COM2,0,60.0,FINE,2088,455086.800,1149185,17,18;SOL_COMPUTED,NARROW_INT,0.5595,243.4230,23.1638,0.0000,0.4507,1.0080,"999",36,28,28,10,3,01,3,73*8543b371
$GNGGA,062428.90,3039.10725514,N,12047.28354760,E,4,29,0.7,4.2558,M,9.8162,M,11,0*73
$GNRMC,062428.90,A,3039.10725514,N,12047.28354760,E,0.087,11.6,170120,5.8,W,D*0F
#HEADINGA,COM2,0,60.0,FINE,2088,455086.900,1149285,17,18;SOL_COMPUTED,NARROW_INT,0.5518,243.6094,22.1886,0.0000,0.4543,1.0343,"999",36,28,28,10,3,01,3,73*9040c403
#REFSTATIONA,COM2,0,60.0,FINE,2088,455070.000,1148586,803,18;00000000,-2811044.342,4717820.352,3232735.546,0,RTCMV3,"0000"*4c9a5b14
$GNGGA,062429.00,3039.10725290,N,12047.28355319,E,4,29,0.7,4.2479,M,9.8162,M,12,0*7A
$GNRMC,062429.00,A,3039.10725290,N,12047.28355319,E,0.191,114.8,170120,5.8,W,D*3B
#HEADINGA,COM2,0,60.0,FINE,2088,455087.000,1149385,24,18;SOL_COMPUTED,NARROW_INT,0.5497,243.3764,21.9287,0.0000,0.4652,1.1183,"999",36,26,26,9,3,01,3,73*7db1be58
$GNGGA,062429.10,3039.10725534,N,12047.28354985,E,4,29,0.7,4.2536,M,9.8162,M,12,0*76
$GNRMC,062429.10,A,3039.10725534,N,12047.28354985,E,0.136,310.1,170120,5.8,W,D*3F
#HEADINGA,COM2,0,60.0,FINE,2088,455087.100,1149485,18,18;SOL_COMPUTED,NARROW_INT,0.5560,243.3567,22.0716,0.0000,0.4498,1.0289,"999",36,28,28,10,3,01,3,73*445ea8c9
$GNGGA,062429.20,3039.10725406,N,12047.28354960,E,4,29,0.7,4.2529,M,9.8162,M,12,0*70
$GNRMC,062429.20,A,3039.10725406,N,12047.28354960,E,0.046,189.7,170120,5.8,W,D*35
#HEADINGA,COM2,0,60.0,FINE,2088,455087.200,1149585,19,18;SOL_COMPUTED,NARROW_INT,0.5570,243.7756,22.6327,0.0000,0.4520,1.0201,"999",36,28,28,10,3,01,3,73*83320967
$GNGGA,062429.30,3039.10725415,N,12047.28354702,E,4,29,0.7,4.2592,M,9.8162,M,12,0*79
$GNRMC,062429.30,A,3039.10725415,N,12047.28354702,E,0.080,272.1,170120,5.8,W,D*37
#HEADINGA,COM2,0,60.0,FINE,2088,455087.300,1149685,25,18;SOL_COMPUTED,NARROW_INT,0.5493,242.9203,23.2130,0.0000,0.5090,1.1932,"999",36,16,16,10,3,01,3,33*7fe329e6
$GNGGA,062429.40,3039.10725100,N,12047.28354745,E,4,29,0.7,4.2496,M,9.8162,M,12,0*79
$GNRMC,062429.40,A,3039.10725100,N,12047.28354745,E,0.114,173.3,170120,5.8,W,D*3E
#HEADINGA,COM2,0,60.0,FINE,2088,455087.400,1149785,16,18;SOL_COMPUTED,NARROW_INT,0.5485,243.6554,22.2748,0.0000,0.4418,0.9970,"999",36,29,29,10,3,01,3,73*b35d4dc1
$GNGGA,062429.50,3039.10724830,N,12047.28354321,E,4,29,0.7,4.2374,M,9.8162,M,12,0*7E
$GNRMC,062429.50,A,3039.10724830,N,12047.28354321,E,0.163,233.5,170120,5.8,W,D*33
#HEADINGA,COM2,0,60.0,FINE,2088,455087.500,1149885,21,18;SOL_COMPUTED,NARROW_INT,0.5487,243.7004,21.5650,0.0000,0.4576,1.1073,"999",36,27,27,9,3,01,3,73*7fb76f8a
$GNGGA,062429.60,3039.10725136,N,12047.28354613,E,4,29,0.7,4.2525,M,9.8162,M,12,0*75
$GNRMC,062429.60,A,3039.10725136,N,12047.28354613,E,0.143,39.4,170120,5.8,W,D*01
#HEADINGA,COM2,0,60.0,FINE,2088,455087.600,1149985,17,18;SOL_COMPUTED,NARROW_INT,0.5451,243.5152,21.0525,0.0000,0.4584,1.1213,"999",36,27,27,9,3,01,3,73*2f3d385a
$GNGGA,062429.70,3039.10725165,N,12047.28354563,E,4,29,0.7,4.2482,M,9.8162,M,12,0*7A
$GNRMC,062429.70,A,3039.10725165,N,12047.28354563,E,0.018,303.1,170120,5.8,W,D*32
#HEADINGA,COM2,0,60.0,FINE,2088,455087.700,1150085,17,18;SOL_COMPUTED,NARROW_INT,0.5556,243.6723,22.3199,0.0000,0.4550,1.0318,"999",36,27,27,10,3,01,3,73*e63f8e4c
$GNGGA,062429.80,3039.10725229,N,12047.28354374,E,4,29,0.7,4.2505,M,9.8162,M,12,0*70
$GNRMC,062429.80,A,3039.10725229,N,12047.28354374,E,0.063,291.4,170120,5.8,W,D*35
#HEADINGA,COM2,0,60.0,FINE,2088,455087.800,1150185,18,18;SOL_COMPUTED,NARROW_INT,0.5465,243.6249,21.0684,0.0000,0.4607,1.1285,"999",36,26,26,9,3,01,3,73*4112882a
$GNGGA,062429.90,3039.10725138,N,12047.28354478,E,4,29,0.7,4.2504,M,9.8162,M,12,0*78
$GNRMC,062429.90,A,3039.10725138,N,12047.28354478,E,0.046,135.3,170120,5.8,W,D*31
#HEADINGA,COM2,0,60.0,FINE,2088,455087.900,1150285,17,18;SOL_COMPUTED,NARROW_INT,0.5554,243.7299,22.7549,0.0000,0.4536,1.0184,"999",36,28,28,10,3,01,3,73*7e97da0d
#REFSTATIONA,COM2,0,60.0,FINE,2088,455070.000,1148586,1803,18;00000000,-2811044.342,4717820.352,3232735.546,0,RTCMV3,"0000"*95352f50
$GNGGA,062430.00,3039.10725135,N,12047.28354613,E,4,29,0.7,4.2459,M,9.8162,M,13,0*73
$GNRMC,062430.00,A,3039.10725135,N,12047.28354613,E,0.042,91.5,170120,5.8,W,D*0F
#HEADINGA,COM2,0,60.0,FINE,2088,455088.000,1150385,23,18;SOL_COMPUTED,NARROW_INT,0.5563,243.9424,22.5592,0.0000,0.4528,1.0187,"999",36,28,28,10,3,01,3,73*36d98f6e
$GNGGA,062430.10,3039.10725092,N,12047.28354419,E,4,29,0.7,4.2458,M,9.8162,M,13,0*77
$GNRMC,062430.10,A,3039.10725092,N,12047.28354419,E,0.062,255.7,170120,5.8,W,D*30
#HEADINGA,COM2,0,60.0,FINE,2088,455088.100,1150485,19,18;SOL_COMPUTED,NARROW_INT,0.5517,243.1081,22.0207,0.0000,0.4491,1.0170,"999",36,27,27,10,3,01,3,73*0fcc9d5d
$GNGGA,062430.20,3039.10725115,N,12047.28354470,E,4,29,0.7,4.2516,M,9.8162,M,13,0*7E
$GNRMC,062430.20,A,3039.10725115,N,12047.28354470,E,0.018,63.2,170120,5.8,W,D*0D
#HEADINGA,COM2,0,60.0,FINE,2088,455088.200,1150586,20,18;SOL_COMPUTED,NARROW_INT,0.5599,243.4211,23.3940,0.0000,0.4630,1.0225,"999",36,26,26,10,3,01,3,73*0266a435
$GNGGA,062430.30,3039.10725046,N,12047.28354467,E,4,29,0.7,4.2500,M,9.8162,M,12,0*78
$GNRMC,062430.30,A,3039.10725046,N,12047.28354467,E,0.025,182.7,170120,5.8,W,D*38
#HEADINGA,COM2,0,60.0,FINE,2088,455088.300,1150685,18,18;SOL_COMPUTED,NARROW_INT,0.5557,243.9916,22.6472,0.0000,0.4529,1.0151,"999",36,28,28,10,3,01,3,73*7b759f0f
$GNGGA,062430.40,3039.10725072,N,12047.28354457,E,4,29,0.7,4.2381,M,9.8162,M,12,0*74
$GNRMC,062430.40,A,3039.10725072,N,12047.28354457,E,0.010,341.4,170120,5.8,W,D*33
#HEADINGA,COM2,0,60.0,FINE,2088,455088.400,1150785,19,18;SOL_COMPUTED,NARROW_INT,0.5603,243.5858,22.4402,0.0000,0.4485,1.0224,"999",36,26,26,10,3,01,3,73*5121a3bc
$GNGGA,062430.50,3039.10724984,N,12047.28354801,E,4,29,0.7,4.2322,M,9.8162,M,12,0*72
$GNRMC,062430.50,A,3039.10724984,N,12047.28354801,E,0.112,106.5,170120,5.8,W,D*3F
#HEADINGA,COM2,0,60.0,FINE,2088,455088.500,1150885,27,18;SOL_COMPUTED,NARROW_INT,0.5535,243.8146,24.4936,0.0000,0.5091,1.1544,"999",36,17,17,10,3,01,3,33*8e38121c
$GNGGA,062430.60,3039.10724886,N,12047.28354447,E,4,29,0.7,4.2406,M,9.8162,M,12,0*7D
$GNRMC,062430.60,A,3039.10724886,N,12047.28354447,E,0.116,252.4,170120,5.8,W,D*36
#HEADINGA,COM2,0,60.0,FINE,2088,455088.600,1150985,18,18;SOL_COMPUTED,NARROW_INT,0.5574,243.4295,22.8223,0.0000,0.4527,1.0186,"999",36,27,27,10,3,01,3,73*99c0b9dc
$GNGGA,062430.70,3039.10725088,N,12047.28354650,E,4,29,0.7,4.2449,M,9.8162,M,12,0*74
$GNRMC,062430.70,A,3039.10725088,N,12047.28354650,E,0.096,41.0,170120,5.8,W,D*09
#HEADINGA,COM2,0,60.0,FINE,2088,455088.700,1151085,17,18;SOL_COMPUTED,NARROW_INT,0.5509,243.6278,22.8013,0.0000,0.4586,1.0309,"999",36,27,27,10,3,01,3,73*43d7de98
$GNGGA,062430.80,3039.10725300,N,12047.28354778,E,4,29,0.7,4.2393,M,9.8162,M,12,0*73
$GNRMC,062430.80,A,3039.10725300,N,12047.28354778,E,0.086,27.5,170120,5.8,W,D*0A
#HEADINGA,COM2,0,60.0,FINE,2088,455088.800,1151185,18,18;SOL_COMPUTED,NARROW_INT,0.5619,243.3135,22.6566,0.0000,0.4482,1.0200,"999",36,26,26,10,3,01,3,73*8ab788f6
$GNGGA,062430.90,3039.10724982,N,12047.28354256,E,4,29,0.7,4.2397,M,9.8162,M,12,0*7E
$GNRMC,062430.90,A,3039.10724982,N,12047.28354256,E,0.198,234.8,170120,5.8,W,D*30
#HEADINGA,COM2,0,60.0,FINE,2088,455088.900,1151285,18,18;SOL_COMPUTED,NARROW_INT,0.5556,243.5847,21.9094,0.0000,0.4487,1.0326,"999",36,27,27,10,3,01,3,73*69c73081
#REFSTATIONA,COM2,0,60.0,FINE,2088,455070.000,1150586,803,18;00000000,-2811044.342,4717820.352,3232735.546,0,RTCMV3,"0000"*7873433b
$GNGGA,062431.00,3039.10725123,N,12047.28354759,E,4,29,0.7,4.2467,M,9.8162,M,13,0*77
$GNRMC,062431.00,A,3039.10725123,N,12047.28354759,E,0.164,72.0,170120,5.8,W,D*0B
#HEADINGA,COM2,0,60.0,FINE,2088,455089.000,1151385,24,18;SOL_COMPUTED,NARROW_INT,0.5595,243.2268,23.3385,0.0000,0.4607,1.0213,"999",36,26,26,10,3,01,3,73*f0f63079
$GNGGA,062431.10,3039.10725229,N,12047.28354748,E,4,29,0.7,4.2342,M,9.8162,M,13,0*7F
$GNRMC,062431.10,A,3039.10725229,N,12047.28354748,E,0.038,354.9,170120,5.8,W,D*35
#HEADINGA,COM2,0,60.0,FINE,2088,455089.100,1151485,18,18;SOL_COMPUTED,NARROW_INT,0.5548,243.3883,22.5869,0.0000,0.4359,0.9781,"999",36,29,29,10,3,01,3,73*97dab363
$GNGGA,062431.20,3039.10725182,N,12047.28354768,E,4,29,0.7,4.2436,M,9.8162,M,13,0*78
$GNRMC,062431.20,A,3039.10725182,N,12047.28354768,E,0.018,160.3,170120,5.8,W,D*3B
#HEADINGA,COM2,0,60.0,FINE,2088,455089.200,1151586,20,18;SOL_COMPUTED,NARROW_INT,0.5562,243.7985,21.7879,0.0000,0.4485,1.0331,"999",36,27,27,10,3,01,3,73*22d8cda8
$GNGGA,062431.30,3039.10725176,N,12047.28354642,E,4,29,0.7,4.2413,M,9.8162,M,13,0*7C
$GNRMC,062431.30,A,3039.10725176,N,12047.28354642,E,0.039,266.8,170120,5.8,W,D*35
#HEADINGA,COM2,0,61.0,FINE,2088,455089.300,1151686,19,18;SOL_COMPUTED,NARROW_INT,0.5539,243.4249,23.6666,0.0000,0.4558,0.9938,"999",36,27,27,10,3,01,3,73*e2836069
$GNGGA,062431.40,3039.10725050,N,12047.28354617,E,4,29,0.7,4.2363,M,9.8162,M,13,0*7E
$GNRMC,062431.40,A,3039.10725050,N,12047.28354617,E,0.046,189.9,170120,5.8,W,D*3C
#HEADINGA,COM2,0,61.0,FINE,2088,455089.400,1151785,19,18;SOL_COMPUTED,NARROW_INT,0.5482,243.5946,23.0593,0.0000,0.4447,0.9754,"999",36,28,28,10,3,01,3,73*c130ff8b
$GNGGA,062431.50,3039.10724975,N,12047.28354743,E,4,29,0.7,4.2367,M,9.8162,M,13,0*74
$GNRMC,062431.50,A,3039.10724975,N,12047.28354743,E,0.048,124.5,170120,5.8,W,D*37
#HEADINGA,COM2,0,61.0,FINE,2088,455089.500,1151886,21,18;SOL_COMPUTED,NARROW_INT,0.5491,243.6776,23.1186,0.0000,0.4606,1.0652,"999",36,26,26,9,3,01,3,73*f9277ba5
$GNGGA,062431.60,3039.10725153,N,12047.28354813,E,4,29,0.7,4.2370,M,9.8162,M,13,0*76
$GNRMC,062431.60,A,3039.10725153,N,12047.28354813,E,0.068,18.6,170120,5.8,W,D*0C
#HEADINGA,COM2,0,61.0,FINE,2088,455089.600,1151986,17,18;SOL_COMPUTED,NARROW_INT,0.5479,243.3112,22.9454,0.0000,0.4433,0.9766,"999",36,28,28,10,3,01,3,73*2441e896
$GNGGA,062431.70,3039.10725264,N,12047.28354747,E,4,29,0.7,4.2367,M,9.8162,M,13,0*78
$GNRMC,062431.70,A,3039.10725264,N,12047.28354747,E,0.045,333.1,170120,5.8,W,D*36
#HEADINGA,COM2,0,61.0,FINE,2088,455089.700,1152085,17,18;SOL_COMPUTED,NARROW_INT,0.5471,243.7712,22.2790,0.0000,0.4438,0.9872,"999",36,28,28,10,3,01,3,73*d59c0734
$GNGGA,062431.80,3039.10725081,N,12047.28354661,E,4,29,0.7,4.2408,M,9.8162,M,13,0*75
$GNRMC,062431.80,A,3039.10725081,N,12047.28354661,E,0.071,202.1,170120,5.8,W,D*31
#HEADINGA,COM2,0,61.0,FINE,2088,455089.800,1152185,18,18;SOL_COMPUTED,NARROW_INT,0.5543,243.6222,23.3616,0.0000,0.4517,0.9884,"999",36,28,28,10,3,01,3,73*c082e8e8
$GNGGA,062431.90,3039.10725186,N,12047.28354893,E,4,29,0.7,4.2291,M,9.8162,M,13,0*77
$GNRMC,062431.90,A,3039.10725186,N,12047.28354893,E,0.081,62.3,170120,5.8,W,D*0C
#HEADINGA,COM2,0,61.0,FINE,2088,455089.900,1152285,18,18;SOL_COMPUTED,NARROW_INT,0.5364,243.3321,21.3073,0.0000,0.4454,1.0571,"999",36,28,28,9,3,01,3,73*214b5eb5
#REFSTATIONA,COM2,0,60.0,FINE,2088,455070.000,1150586,1804,18;00000000,-2811044.342,4717820.352,3232735.546,0,RTCMV3,"0000"*183dbe0d
$GNGGA,062432.00,3039.10725055,N,12047.28354780,E,4,29,0.7,4.2303,M,9.8162,M,14,0*72
$GNRMC,062432.00,A,3039.10725055,N,12047.28354780,E,0.059,216.5,170120,5.8,W,D*36
#HEADINGA,COM2,0,61.0,FINE,2088,455090.000,1152385,24,18;SOL_COMPUTED,NARROW_INT,0.5533,243.6640,23.5257,0.0000,0.4533,0.9882,"999",36,28,28,10,3,01,3,73*b3633e8b
$GNGGA,062432.10,3039.10725015,N,12047.28354569,E,4,29,0.7,4.2372,M,9.8162,M,14,0*74
$GNRMC,062432.10,A,3039.10725015,N,12047.28354569,E,0.067,257.7,170120,5.8,W,D*3C
#HEADINGA,COM2,0,61.0,FINE,2088,455090.100,1152486,18,18;SOL_COMPUTED,NARROW_INT,0.5461,243.5713,22.5389,0.0000,0.4556,1.0139,"999",36,28,28,10,3,01,3,73*9ce82dd5
$GNGGA,062432.20,3039.10724964,N,12047.28355019,E,4,29,0.7,4.2294,M,9.8162,M,14,0*73
$GNRMC,062432.20,A,3039.10724964,N,12047.28355019,E,0.141,97.4,170120,5.8,W,D*0A
#HEADINGA,COM2,0,61.0,FINE,2088,455090.200,1152587,18,18;SOL_COMPUTED,NARROW_INT,0.5418,243.6129,21.5457,0.0000,0.4423,1.0427,"999",36,28,28,9,3,01,3,73*4a99f5dc
$GNGGA,062432.30,3039.10725184,N,12047.28354912,E,4,29,0.7,4.2354,M,9.8162,M,14,0*7B
$GNRMC,062432.30,A,3039.10725184,N,12047.28354912,E,0.086,337.1,170120,5.8,W,D*39
#HEADINGA,COM2,0,61.0,FINE,2088,455090.300,1152686,25,18;SOL_COMPUTED,NARROW_INT,0.5552,243.7764,23.8214,0.0000,0.5022,1.1513,"999",36,17,17,10,3,01,3,33*e9871d15
$GNGGA,062432.40,3039.10725196,N,12047.28355077,E,4,29,0.7,4.2472,M,9.8162,M,13,0*70
$GNRMC,062432.40,A,3039.10725196,N,12047.28355077,E,0.051,85.1,170120,5.8,W,D*06
#HEADINGA,COM2,0,61.0,FINE,2088,455090.400,1152785,26,18;SOL_COMPUTED,NARROW_INT,0.5499,243.7976,23.1874,0.0000,0.5049,1.1709,"999",36,17,17,10,3,01,3,33*7f3731d5
$GNGGA,062432.50,3039.10725389,N,12047.28355420,E,4,29,0.7,4.2325,M,9.8162,M,13,0*7E
$GNRMC,062432.50,A,3039.10725389,N,12047.28355420,E,0.127,56.9,170120,5.8,W,D*0B
#HEADINGA,COM2,0,61.0,FINE,2088,455090.500,1152886,24,18;SOL_COMPUTED,NARROW_INT,0.5218,244.1380,18.0726,0.0000,0.3987,1.3602,"999",36,23,23,5,3,01,0,53*3fece9e3
$GNGGA,062432.60,3039.10725267,N,12047.28355284,E,4,29,0.7,4.2387,M,9.8162,M,13,0*7C
$GNRMC,062432.60,A,3039.10725267,N,12047.28355284,E,0.061,224.0,170120,5.8,W,D*3C
#HEADINGA,COM2,0,61.0,FINE,2088,455090.600,1152986,21,18;SOL_COMPUTED,NARROW_INT,0.5377,244.5789,20.0238,0.0000,0.3974,1.2219,"999",36,23,23,5,3,01,0,53*e5012bae
$GNGGA,062432.70,3039.10725140,N,12047.28354987,E,4,29,0.7,4.2435,M,9.8162,M,13,0*7C
$GNRMC,062432.70,A,3039.10725140,N,12047.28354987,E,0.103,243.6,170120,5.8,W,D*30
#HEADINGA,COM2,0,61.0,FINE,2088,455090.700,1153085,25,18;SOL_COMPUTED,NARROW_INT,0.5416,243.0017,22.1568,0.0000,0.5156,1.3148,"999",36,15,15,7,3,01,3,13*ac3b6be0
$GNGGA,062432.80,3039.10725375,N,12047.28355349,E,4,29,0.7,4.2359,M,9.8162,M,13,0*73
$GNRMC,062432.80,A,3039.10725375,N,12047.28355349,E,0.141,53.0,170120,5.8,W,D*01
#HEADINGA,COM2,0,61.0,FINE,2088,455090.800,1153186,24,18;SOL_COMPUTED,NARROW_INT,0.5480,243.1568,22.5307,0.0000,0.5084,1.2839,"999",36,16,16,7,3,01,3,13*fac45152
$GNGGA,062432.90,3039.10725167,N,12047.28355235,E,4,29,0.7,4.2341,M,9.8162,M,13,0*70
$GNRMC,062432.90,A,3039.10725167,N,12047.28355235,E,0.083,205.4,170120,5.8,W,D*31
#HEADINGA,COM2,0,61.0,FINE,2088,455090.900,1153285,22,18;SOL_COMPUTED,NARROW_INT,0.5360,244.8001,20.8985,0.0000,0.4080,1.2074,"999",36,23,23,5,3,01,0,53*8d3f3ece
#REFSTATIONA,COM2,0,61.0,FINE,2088,455070.000,1152686,704,18;00000000,-2811044.342,4717820.352,3232735.546,0,RTCMV3,"0000"*b21f3985
$GNGGA,062433.00,3039.10725023,N,12047.28355094,E,4,29,0.7,4.2335,M,9.8162,M,14,0*74
$GNRMC,062433.00,A,3039.10725023,N,12047.28355094,E,0.068,220.1,170120,5.8,W,D*36
#HEADINGA,COM2,0,61.0,FINE,2088,455091.000,1153386,30,18;SOL_COMPUTED,NARROW_INT,0.5564,243.7452,24.3447,0.0000,0.5061,1.1484,"999",36,16,16,8,3,01,3,13*b41b3d3e
$GNGGA,062433.10,3039.10725204,N,12047.28355112,E,4,29,0.7,4.2360,M,9.8162,M,14,0*7D
$GNRMC,062433.10,A,3039.10725204,N,12047.28355112,E,0.065,4.9,170120,5.8,W,D*3E
#HEADINGA,COM2,0,61.0,FINE,2088,455091.100,1153486,19,18;SOL_COMPUTED,NARROW_INT,0.5511,244.6179,21.5361,0.0000,0.3822,1.0215,"999",36,26,26,8,3,01,3,53*6fb440e7
$GNGGA,062433.20,3039.10725248,N,12047.28355391,E,4,29,0.7,4.2385,M,9.8162,M,14,0*74
$GNRMC,062433.20,A,3039.10725248,N,12047.28355391,E,0.088,79.6,170120,5.8,W,D*0A
#HEADINGA,COM2,0,61.0,FINE,2088,455091.200,1153586,22,18;SOL_COMPUTED,NARROW_INT,0.5269,244.6938,20.0524,0.0000,0.4003,1.2400,"999",36,24,24,5,3,01,0,53*e3608d97
$GNGGA,062433.30,3039.10725063,N,12047.28355189,E,4,29,0.7,4.2383,M,9.8162,M,13,0*74
$GNRMC,062433.30,A,3039.10725063,N,12047.28355189,E,0.092,223.2,170120,5.8,W,D*39
#HEADINGA,COM2,0,61.0,FINE,2088,455091.300,1153686,17,18;SOL_COMPUTED,NARROW_INT,0.5427,243.4638,22.1958,0.0000,0.4401,0.9790,"999",36,29,29,8,3,01,3,53*208ba2fb
$GNGGA,062433.40,3039.10725261,N,12047.28355039,E,4,29,0.7,4.2360,M,9.8162,M,13,0*74
$GNRMC,062433.40,A,3039.10725261,N,12047.28355039,E,0.085,326.8,170120,5.8,W,D*3C
#HEADINGA,COM2,0,61.0,FINE,2088,455091.400,1153786,18,18;SOL_COMPUTED,NARROW_INT,0.5542,243.2488,23.8654,0.0000,0.4533,0.9827,"999",36,27,27,8,3,01,3,53*0b8f3cb0
$GNGGA,062433.50,3039.10725136,N,12047.28355205,E,4,29,0.7,4.2253,M,9.8162,M,13,0*78
$GNRMC,062433.50,A,3039.10725136,N,12047.28355205,E,0.068,130.8,170120,5.8,W,D*37
#HEADINGA,COM2,0,61.0,FINE,2088,455091.500,1153886,21,18;SOL_COMPUTED,NARROW_INT,0.5529,243.3926,23.0511,0.0000,0.4511,1.0408,"999",36,27,27,7,3,01,3,53*65a667c2
$GNGGA,062433.60,3039.10725260,N,12047.28355234,E,4,29,0.7,4.2301,M,9.8162,M,13,0*7F
$GNRMC,062433.60,A,3039.10725260,N,12047.28355234,E,0.045,11.5,170120,5.8,W,D*06
#HEADINGA,COM2,0,61.0,FINE,2088,455091.600,1153986,18,18;SOL_COMPUTED,NARROW_INT,0.5381,242.8067,21.1908,0.0000,0.4428,1.0553,"999",36,27,27,7,3,01,3,53*ba1191f8
$GNGGA,062433.70,3039.10725141,N,12047.28355004,E,4,29,0.7,4.2288,M,9.8162,M,13,0*7F
$GNRMC,062433.70,A,3039.10725141,N,12047.28355004,E,0.083,239.1,170120,5.8,W,D*30
#HEADINGA,COM2,0,61.0,FINE,2088,455091.700,1154086,17,18;SOL_COMPUTED,NARROW_INT,0.5337,243.7236,20.4859,0.0000,0.4444,1.0727,"999",36,27,27,7,3,01,3,53*92eade84
$GNGGA,062433.80,3039.10724978,N,12047.28355103,E,4,29,0.7,4.2359,M,9.8162,M,13,0*78
$GNRMC,062433.80,A,3039.10724978,N,12047.28355103,E,0.066,152.2,170120,5.8,W,D*3C
#HEADINGA,COM2,0,61.0,FINE,2088,455091.800,1154186,17,18;SOL_COMPUTED,NARROW_INT,0.5493,244.1458,23.4897,0.0000,0.4554,0.9867,"999",36,28,28,8,3,01,3,53*14458489
$GNGGA,062433.90,3039.10725248,N,12047.28355201,E,4,29,0.7,4.2302,M,9.8162,M,13,0*7F
$GNRMC,062433.90,A,3039.10725248,N,12047.28355201,E,0.102,17.4,170120,5.8,W,D*00
#HEADINGA,COM2,0,61.0,FINE,2088,455091.900,1154286,17,18;SOL_COMPUTED,NARROW_INT,0.5504,244.1181,22.7433,0.0000,0.4519,0.9940,"999",36,28,28,8,3,01,3,53*de608764
#REFSTATIONA,COM2,0,61.0,FINE,2088,455070.000,1153586,804,18;00000000,-2811044.342,4717820.352,3232735.546,0,RTCMV3,"0000"*1370944b
$GNGGA,062434.00,3039.10725263,N,12047.28355120,E,4,29,0.7,4.2193,M,9.8162,M,14,0*75
$GNRMC,062434.00,A,3039.10725263,N,12047.28355120,E,0.026,281.6,170120,5.8,W,D*3F
#HEADINGA,COM2,0,61.0,FINE,2088,455092.000,1154386,23,18;SOL_COMPUTED,NARROW_INT,0.5415,243.1320,21.8112,0.0000,0.4398,1.0307,"999",36,28,28,7,3,01,3,53*05be291f
$GNGGA,062434.10,3039.10725241,N,12047.28355086,E,4,29,0.7,4.2237,M,9.8162,M,14,0*74
$GNRMC,062434.10,A,3039.10725241,N,12047.28355086,E,0.013,232.5,170120,5.8,W,D*3E
#HEADINGA,COM2,0,61.0,FINE,2088,455092.100,1154486,18,18;SOL_COMPUTED,NARROW_INT,0.5356,243.2062,21.1591,0.0000,0.4430,1.0520,"999",36,28,28,7,3,01,3,53*1c0df4cb
$GNGGA,062434.20,3039.10725201,N,12047.28354963,E,4,29,0.7,4.2293,M,9.8162,M,14,0*7E
$GNRMC,062434.20,A,3039.10725201,N,12047.28354963,E,0.041,249.5,170120,5.8,W,D*31
#HEADINGA,COM2,0,61.0,FINE,2088,455092.200,1154587,18,18;SOL_COMPUTED,NARROW_INT,0.5485,243.7601,22.5158,0.0000,0.4518,1.0019,"999",36,28,28,8,3,01,3,53*278a3dd2
$GNGGA,062434.30,3039.10725466,N,12047.28355012,E,4,29,0.7,4.2243,M,9.8162,M,14,0*7B
$GNRMC,062434.30,A,3039.10725466,N,12047.28355012,E,0.096,9.1,170120,5.8,W,D*31
#HEADINGA,COM2,0,55.0,FINE,2088,455092.300,1154686,19,18;SOL_COMPUTED,NARROW_INT,0.5590,242.8136,21.9210,0.0000,0.4468,1.0427,"999",36,27,27,10,3,01,3,73*559d06cb
$GNGGA,062434.40,3039.10725254,N,12047.28354839,E,4,28,0.7,4.2203,M,9.8162,M,14,0*7E
$GNRMC,062434.40,A,3039.10725254,N,12047.28354839,E,0.093,215.3,170120,5.8,W,D*39
#HEADINGA,COM2,0,55.0,FINE,2088,455092.400,1154786,18,18;SOL_COMPUTED,NARROW_INT,0.5399,242.6538,19.9810,0.0000,0.4410,1.1614,"999",36,27,27,9,3,01,3,73*24e45bc6
$GNGGA,062434.50,3039.10725163,N,12047.28354725,E,4,28,0.7,4.2408,M,9.8162,M,14,0*77
$GNRMC,062434.50,A,3039.10725163,N,12047.28354725,E,0.048,227.2,170120,5.8,W,D*3B
#HEADINGA,COM2,0,55.0,FINE,2088,455092.500,1154886,20,18;SOL_COMPUTED,NARROW_INT,0.5453,243.1137,20.5094,0.0000,0.4603,1.2239,"999",36,26,26,9,3,01,3,73*2a68d954
$GNGGA,062434.60,3039.10724966,N,12047.28354608,E,4,28,0.7,4.2264,M,9.8162,M,14,0*7A
$GNRMC,062434.60,A,3039.10724966,N,12047.28354608,E,0.080,207.3,170120,5.8,W,D*3D
#HEADINGA,COM2,0,55.0,FINE,2088,455092.600,1154986,17,18;SOL_COMPUTED,NARROW_INT,0.5393,242.8349,20.0373,0.0000,0.4423,1.1646,"999",36,27,27,9,3,01,3,73*4ff548b7
$GNGGA,062434.70,3039.10725358,N,12047.28354524,E,4,28,0.7,4.2347,M,9.8162,M,14,0*70
$GNRMC,062434.70,A,3039.10725358,N,12047.28354524,E,0.143,349.6,170120,5.8,W,D*37
#HEADINGA,COM2,0,55.0,FINE,2088,455092.700,1155086,16,18;SOL_COMPUTED,NARROW_INT,0.5483,242.6341,21.4478,0.0000,0.4366,1.0743,"999",36,27,27,10,3,01,3,73*54c46be7
$GNGGA,062434.80,3039.10725054,N,12047.28354558,E,4,28,0.7,4.2424,M,9.8162,M,14,0*79
$GNRMC,062434.80,A,3039.10725054,N,12047.28354558,E,0.110,174.6,170120,5.8,W,D*36
#HEADINGA,COM2,0,55.0,FINE,2088,455092.800,1155186,18,18;SOL_COMPUTED,NARROW_INT,0.5452,242.7546,18.8777,0.0000,0.4370,1.1888,"999",36,25,25,9,3,01,3,73*3724ddd0
$GNGGA,062434.90,3039.10725075,N,12047.28354631,E,4,28,0.7,4.2412,M,9.8162,M,14,0*72
$GNRMC,062434.90,A,3039.10725075,N,12047.28354631,E,0.024,71.5,170120,5.8,W,D*09
#HEADINGA,COM2,0,55.0,FINE,2088,455092.900,1155286,18,18;SOL_COMPUTED,NARROW_INT,0.5417,243.1501,20.2397,0.0000,0.4651,1.2475,"999",36,25,25,9,3,01,3,73*dce89369
#REFSTATIONA,COM2,0,61.0,FINE,2088,455070.000,1153586,1804,18;00000000,-2811044.342,4717820.352,3232735.546,0,RTCMV3,"0000"*5c747dec
$GNGGA,062435.00,3039.10725140,N,12047.28354810,E,4,28,0.7,4.2404,M,9.8162,M,15,0*76
$GNRMC,062435.00,A,3039.10725140,N,12047.28354810,E,0.060,67.4,170120,5.8,W,D*0D
#HEADINGA,COM2,0,55.0,FINE,2088,455093.000,1155386,23,18;SOL_COMPUTED,NARROW_INT,0.5556,243.2593,22.2514,0.0000,0.4599,1.1104,"999",36,26,26,10,3,01,3,73*cc257081
$GNGGA,062435.10,3039.10725177,N,12047.28354736,E,4,28,0.7,4.2315,M,9.8162,M,15,0*7F
$GNRMC,062435.10,A,3039.10725177,N,12047.28354736,E,0.027,300.0,170120,5.8,W,D*36
#HEADINGA,COM2,0,55.0,FINE,2088,455093.100,1155486,19,18;SOL_COMPUTED,NARROW_INT,0.5506,242.9431,21.3324,0.0000,0.4595,1.2121,"999",36,25,25,9,3,01,3,73*5920f4ea
$GNGGA,062435.20,3039.10725294,N,12047.28354691,E,4,28,0.7,4.2429,M,9.8162,M,15,0*76
$GNRMC,062435.20,A,3039.10725294,N,12047.28354691,E,0.044,341.9,170120,5.8,W,D*3E
#HEADINGA,COM2,0,55.0,FINE,2088,455093.200,1155587,18,18;SOL_COMPUTED,NARROW_INT,0.5564,243.1472,22.0084,0.0000,0.4508,1.1093,"999",36,26,26,10,3,01,3,73*ed1a2675
$GNGGA,062435.30,3039.10724901,N,12047.28354595,E,4,28,0.7,4.2365,M,9.8162,M,15,0*79
$GNRMC,062435.30,A,3039.10724901,N,12047.28354595,E,0.144,192.0,170120,5.8,W,D*3A
#HEADINGA,COM2,0,55.0,FINE,2088,455093.300,1155686,18,18;SOL_COMPUTED,NARROW_INT,0.5503,243.5641,22.8449,0.0000,0.4585,1.0794,"999",36,26,26,10,3,01,3,73*f57048a4
$GNGGA,062435.40,3039.10725313,N,12047.28355074,E,4,28,0.7,4.2317,M,9.8162,M,15,0*78
$GNRMC,062435.40,A,3039.10725313,N,12047.28355074,E,0.210,45.2,170120,5.8,W,D*05
#HEADINGA,COM2,0,55.0,FINE,2088,455093.400,1155786,19,18;SOL_COMPUTED,NARROW_INT,0.5591,243.7312,23.7537,0.0000,0.4521,1.0423,"999",36,27,27,10,3,01,3,73*ab0f6857
$GNGGA,062435.50,3039.10725051,N,12047.28354852,E,4,28,0.7,4.2273,M,9.8162,M,15,0*72
$GNRMC,062435.50,A,3039.10725051,N,12047.28354852,E,0.117,216.1,170120,5.8,W,D*3F
#HEADINGA,COM2,0,55.0,FINE,2088,455093.500,1155886,21,18;SOL_COMPUTED,NARROW_INT,0.5456,243.5821,21.8736,0.0000,0.4610,1.1674,"999",36,26,26,9,3,01,3,73*7263abd0
$GNGGA,062435.60,3039.10725021,N,12047.28354662,E,4,28,0.7,4.2223,M,9.8162,M,15,0*7E
$GNRMC,062435.60,A,3039.10725021,N,12047.28354662,E,0.060,259.9,170120,5.8,W,D*34
#HEADINGA,COM2,0,55.0,FINE,2088,455093.600,1155986,17,18;SOL_COMPUTED,NARROW_INT,0.5550,243.9416,23.4107,0.0000,0.4557,1.0540,"999",36,27,27,10,3,01,3,73*3fb16295
$GNGGA,062435.70,3039.10725148,N,12047.28354782,E,4,28,0.7,4.2329,M,9.8162,M,15,0*75
$GNRMC,062435.70,A,3039.10725148,N,12047.28354782,E,0.059,39.4,170120,5.8,W,D*07
#HEADINGA,COM2,0,55.0,FINE,2088,455093.700,1156086,15,18;SOL_COMPUTED,NARROW_INT,0.5425,243.1671,21.2543,0.0000,0.4397,1.0543,"999",36,28,28,10,3,01,3,73*61aeed10
$GNGGA,062435.80,3039.10725148,N,12047.28354729,E,4,28,0.7,4.2244,M,9.8162,M,15,0*71
$GNRMC,062435.80,A,3039.10725148,N,12047.28354729,E,0.016,270.0,170120,5.8,W,D*39
#HEADINGA,COM2,0,55.0,FINE,2088,455093.800,1156186,16,18;SOL_COMPUTED,NARROW_INT,0.5561,243.7563,23.6499,0.0000,0.4556,1.0504,"999",36,27,27,10,3,01,3,73*6b203297
$GNGGA,062435.90,3039.10725016,N,12047.28354885,E,4,28,0.7,4.2267,M,9.8162,M,15,0*72
$GNRMC,062435.90,A,3039.10725016,N,12047.28354885,E,0.068,134.4,170120,5.8,W,D*35
#HEADINGA,COM2,0,55.0,FINE,2088,455093.900,1156285,18,18;SOL_COMPUTED,NARROW_INT,0.5576,243.7307,23.3293,0.0000,0.4560,1.0592,"999",36,26,26,10,3,01,3,73*961a5b1b
#REFSTATIONA,COM2,0,61.0,FINE,2088,455070.000,1153586,2804,18;00000000,-2811044.342,4717820.352,3232735.546,0,RTCMV3,"0000"*f80aff29
$GNGGA,062436.00,3039.10725055,N,12047.28354694,E,4,28,0.7,4.2267,M,9.8162,M,16,0*72
$GNRMC,062436.00,A,3039.10725055,N,12047.28354694,E,0.061,283.3,170120,5.8,W,D*37
#HEADINGA,COM2,0,55.0,FINE,2088,455094.000,1156386,22,18;SOL_COMPUTED,NARROW_INT,0.5513,243.9011,23.6085,0.0000,0.4596,1.0570,"999",36,27,27,10,3,01,3,73*5691c39b
$GNGGA,062436.10,3039.10725187,N,12047.28354754,E,4,28,0.7,4.2256,M,9.8162,M,16,0*72
$GNRMC,062436.10,A,3039.10725187,N,12047.28354754,E,0.051,21.5,170120,5.8,W,D*0A
#HEADINGA,COM2,0,55.0,FINE,2088,455094.100,1156487,17,18;SOL_COMPUTED,NARROW_INT,0.5558,243.4904,23.8346,0.0000,0.4493,1.0148,"999",36,27,27,8,3,01,3,53*0b505429
$GNGGA,062436.20,3039.10725049,N,12047.28354818,E,4,28,0.7,4.2391,M,9.8162,M,16,0*7F
$GNRMC,062436.20,A,3039.10725049,N,12047.28354818,E,0.053,158.2,170120,5.8,W,D*37
#HEADINGA,COM2,0,55.0,FINE,2088,455094.200,1156587,17,18;SOL_COMPUTED,NARROW_INT,0.5413,243.5786,21.4966,0.0000,0.4420,1.0371,"999",36,27,27,8,3,01,3,53*33c4ac3a
$GNGGA,062436.30,3039.10724930,N,12047.28354607,E,4,28,0.7,4.2371,M,9.8162,M,16,0*76
$GNRMC,062436.30,A,3039.10724930,N,12047.28354607,E,0.078,236.7,170120,5.8,W,D*37
#HEADINGA,COM2,0,55.0,FINE,2088,455094.300,1156686,25,18;SOL_COMPUTED,NARROW_INT,0.5465,243.6270,22.7939,0.0000,0.5075,1.2650,"999",36,16,16,8,3,01,3,13*e5f9fde5
$GNGGA,062436.40,3039.10725073,N,12047.28354712,E,4,29,0.6,4.2212,M,9.8162,M,16,0*7F
$GNRMC,062436.40,A,3039.10725073,N,12047.28354712,E,0.061,32.3,170120,5.8,W,D*00
#HEADINGA,COM2,0,55.0,FINE,2088,455094.400,1156786,20,18;SOL_COMPUTED,NARROW_INT,0.5316,243.4222,17.5967,0.0000,0.4028,1.2323,"999",36,25,25,9,3,01,3,d3*4f7bd0af
$GNGGA,062436.50,3039.10724826,N,12047.28354670,E,4,28,0.7,4.2330,M,9.8162,M,16,0*73
$GNRMC,062436.50,A,3039.10724826,N,12047.28354670,E,0.090,188.5,170120,5.8,W,D*35
#HEADINGA,COM2,0,55.0,FINE,2088,455094.500,1156886,24,18;SOL_COMPUTED,NARROW_INT,0.5182,243.8856,16.3605,0.0000,0.4203,1.3950,"999",36,22,22,7,3,01,0,d3*fac8016c
$GNGGA,062436.60,3039.10724908,N,12047.28354854,E,4,29,0.6,4.2390,M,9.8162,M,16,0*7F
$GNRMC,062436.60,A,3039.10724908,N,12047.28354854,E,0.064,62.8,170120,5.8,W,D*00
#HEADINGA,COM2,0,55.0,FINE,2088,455094.600,1156986,24,18;SOL_COMPUTED,NARROW_INT,0.5405,242.8224,20.9630,0.0000,0.5142,1.4436,"999",36,15,15,7,3,01,3,13*cd642f45
$GNGGA,062436.70,3039.10724771,N,12047.28354684,E,4,29,0.6,4.2276,M,9.8162,M,16,0*74
$GNRMC,062436.70,A,3039.10724771,N,12047.28354684,E,0.072,226.9,170120,5.8,W,D*36
#HEADINGA,COM2,0,55.0,FINE,2088,455094.700,1157086,23,18;SOL_COMPUTED,NARROW_INT,0.5429,241.9963,21.1657,0.0000,0.5106,1.4507,"999",36,15,15,7,3,01,3,13*4891efd3
$GNGGA,062436.80,3039.10724936,N,12047.28355044,E,4,29,0.6,4.2218,M,9.8162,M,16,0*75
$GNRMC,062436.80,A,3039.10724936,N,12047.28355044,E,0.127,62.0,170120,5.8,W,D*05
#HEADINGA,COM2,0,55.0,FINE,2088,455094.800,1157186,18,18;SOL_COMPUTED,NARROW_INT,0.5464,244.3497,21.3475,0.0000,0.4031,1.1491,"999",36,25,25,9,3,01,3,d3*3975a5af
$GNGGA,062436.90,3039.10724689,N,12047.28354885,E,4,29,0.6,4.2334,M,9.8162,M,16,0*74
$GNRMC,062436.90,A,3039.10724689,N,12047.28354885,E,0.102,209.1,170120,5.8,W,D*32
#HEADINGA,COM2,0,55.0,FINE,2088,455094.900,1157286,18,18;SOL_COMPUTED,NARROW_INT,0.5452,244.4911,20.1000,0.0000,0.4050,1.1769,"999",36,25,25,9,3,01,3,d3*245f7125
#REFSTATIONA,COM2,0,61.0,FINE,2088,455070.000,1153586,3804,18;00000000,-2811044.342,4717820.352,3232735.546,0,RTCMV3,"0000"*2d0f8355
$GNGGA,062437.00,3039.10724802,N,12047.28354589,E,4,29,0.6,4.2355,M,9.8162,M,17,0*76
$GNRMC,062437.00,A,3039.10724802,N,12047.28354589,E,0.101,293.8,170120,5.8,W,D*3F
#HEADINGA,COM2,0,55.0,FINE,2088,455095.000,1157386,27,18;SOL_COMPUTED,NARROW_INT,0.5237,244.4219,19.1979,0.0000,0.4386,1.4926,"999",36,22,22,7,3,01,0,d3*45baaceb
$GNGGA,062437.10,3039.10724789,N,12047.28354657,E,4,29,0.6,4.2259,M,9.8162,M,17,0*76
$GNRMC,062437.10,A,3039.10724789,N,12047.28354657,E,0.022,102.2,170120,5.8,W,D*33
#HEADINGA,COM2,0,55.0,FINE,2088,455095.100,1157486,21,18;SOL_COMPUTED,NARROW_INT,0.5191,244.2958,17.6678,0.0000,0.4168,1.3645,"999",36,23,23,7,3,01,0,d3*302f609f
$GNGGA,062437.20,3039.10724941,N,12047.28354987,E,4,29,0.6,4.2343,M,9.8162,M,17,0*77
$GNRMC,062437.20,A,3039.10724941,N,12047.28354987,E,0.116,62.0,170120,5.8,W,D*0B
#HEADINGA,COM2,0,55.0,FINE,2088,455095.200,1157586,22,18;SOL_COMPUTED,NARROW_INT,0.5214,243.6930,17.6376,0.0000,0.4127,1.3574,"999",36,23,23,7,3,01,0,d3*22ea48e5
$GNGGA,062437.30,3039.10724765,N,12047.28354683,E,4,29,0.6,4.2319,M,9.8162,M,17,0*7A
$GNRMC,062437.30,A,3039.10724765,N,12047.28354683,E,0.114,236.2,170120,5.8,W,D*3A
#HEADINGA,COM2,0,55.0,FINE,2088,455095.300,1157686,19,18;SOL_COMPUTED,NARROW_INT,0.5521,243.9643,23.3797,0.0000,0.4387,1.1014,"999",36,28,28,12,3,01,3,f3*5eac4354
$GNGGA,062437.40,3039.10724875,N,12047.28354810,E,4,29,0.6,4.2270,M,9.8162,M,17,0*79
$GNRMC,062437.40,A,3039.10724875,N,12047.28354810,E,0.056,45.0,170120,5.8,W,D*04
#HEADINGA,COM2,0,55.0,FINE,2088,455095.400,1157786,18,18;SOL_COMPUTED,NARROW_INT,0.5533,243.7406,23.2366,0.0000,0.4370,1.1009,"999",36,28,28,12,3,01,3,f3*c8207606
$GNGGA,062437.50,3039.10724689,N,12047.28354770,E,4,29,0.6,4.2210,M,9.8162,M,17,0*7A
$GNRMC,062437.50,A,3039.10724689,N,12047.28354770,E,0.068,190.4,170120,5.8,W,D*31
#HEADINGA,COM2,0,55.0,FINE,2088,455095.500,1157886,20,18;SOL_COMPUTED,NARROW_INT,0.5510,243.5147,23.5434,0.0000,0.4395,1.1013,"999",36,28,28,12,3,01,3,f3*cd2b3480
$GNGGA,062437.60,3039.10724990,N,12047.28354788,E,4,29,0.6,4.2152,M,9.8162,M,17,0*7C
$GNRMC,062437.60,A,3039.10724990,N,12047.28354788,E,0.108,2.8,170120,5.8,W,D*33
#HEADINGA,COM2,0,55.0,FINE,2088,455095.600,1157986,17,18;SOL_COMPUTED,NARROW_INT,0.5578,243.3567,23.9713,0.0000,0.4354,1.0823,"999",36,28,28,12,3,01,3,f3*d7aa2aee
$GNGGA,062437.70,3039.10724848,N,12047.28354912,E,4,28,0.6,4.2141,M,9.8162,M,17,0*77
$GNRMC,062437.70,A,3039.10724848,N,12047.28354912,E,0.064,142.9,170120,5.8,W,D*34
#HEADINGA,COM2,0,55.0,FINE,2088,455095.700,1158086,15,18;SOL_COMPUTED,NARROW_INT,0.5500,243.6158,22.8325,0.0000,0.4210,1.0691,"999",36,28,28,12,3,01,3,f3*719ecfbc
$GNGGA,062437.80,3039.10724691,N,12047.28354705,E,4,28,0.6,4.2197,M,9.8162,M,17,0*71
$GNRMC,062437.80,A,3039.10724691,N,12047.28354705,E,0.085,229.0,170120,5.8,W,D*31
#HEADINGA,COM2,0,55.0,FINE,2088,455095.800,1158186,16,18;SOL_COMPUTED,NARROW_INT,0.5516,243.5515,23.4451,0.0000,0.4392,1.1147,"999",36,27,27,12,3,01,3,f3*d934143e
$GNGGA,062437.90,3039.10724725,N,12047.28354587,E,4,28,0.6,4.2172,M,9.8162,M,17,0*7D
$GNRMC,062437.90,A,3039.10724725,N,12047.28354587,E,0.038,288.5,170120,5.8,W,D*3E
#HEADINGA,COM2,0,55.0,FINE,2088,455095.900,1158286,16,18;SOL_COMPUTED,NARROW_INT,0.5441,243.0511,22.2612,0.0000,0.4235,1.0875,"999",36,28,28,12,3,01,3,f3*d4256dee
#REFSTATIONA,COM2,0,61.0,FINE,2088,455070.000,1153586,4804,18;00000000,-2811044.342,4717820.352,3232735.546,0,RTCMV3,"0000"*6b86fce2
$GNGGA,062438.00,3039.10724779,N,12047.28354612,E,4,28,0.6,4.2140,M,9.8162,M,18,0*73
$GNRMC,062438.00,A,3039.10724779,N,12047.28354612,E,0.021,22.2,170120,5.8,W,D*03
#HEADINGA,COM2,0,55.0,FINE,2088,455096.000,1158386,22,18;SOL_COMPUTED,NARROW_INT,0.5479,243.2140,22.5827,0.0000,0.4244,1.0869,"999",36,27,27,12,3,01,3,f3*9176da6e
$GNGGA,062438.10,3039.10724853,N,12047.28354531,E,4,27,0.7,4.2075,M,9.8162,M,18,0*7E
$GNRMC,062438.10,A,3039.10724853,N,12047.28354531,E,0.037,316.5,170120,5.8,W,D*33
#HEADINGA,COM2,0,55.0,FINE,2088,455096.100,1158487,17,18;SOL_COMPUTED,NARROW_INT,0.5577,243.7326,24.6183,0.0000,0.4223,1.0945,"999",36,26,26,10,3,01,3,73*1512628b
$GNGGA,062438.20,3039.10725051,N,12047.28354766,E,4,27,0.7,4.2204,M,9.8162,M,18,0*72
$GNRMC,062438.20,A,3039.10725051,N,12047.28354766,E,0.102,45.8,170120,5.8,W,D*04
