Ý9
$GNRMC,024401.20,V,,,,,,,150120,0.0,E,N*0E
#HEADINGA,COM2,0,77.0,FINE,2088,269059.200,661602,14,18;INSUFFICIENT_OBS,NONE,0.0000,0.0000,0.0000,0.0000,0.0000,0.0000,"",0,0,0,0,0,00,0,0*30eb8cb2
$GNGGA,024401.30,,,,,0,00,0.0,,,,,,*78
$GNRMC,024401.30,V,,,,,,,150120,0.0,E,N*0F
#HEADINGA,COM2,0,77.0,FINE,2088,269059.300,661702,13,18;INSUFFICIENT_OBS,NONE,0.0000,0.0000,0.0000,0.0000,0.0000,0.0000,"",0,0,0,0,0,00,0,0*6891ae38
$GNGGA,024401.40,,,,,0,00,0.0,,,,,,*7F
$GNRMC,024401.40,V,,,,,,,150120,0.0,E,N*08
#HEADINGA,COM2,0,77.0,FINE,2088,269059.400,661802,12,18;INSUFFICIENT_OBS,NONE,0.0000,0.0000,0.0000,0.0000,0.0000,0.0000,"",0,0,0,0,0,00,0,0*21022bb6
$GNGGA,024401.50,,,,,0,00,0.0,,,,,,*7E
$GNRMC,024401.50,V,,,,,,,150120,0.0,E,N*09
#HEADINGA,COM2,0,77.0,FINE,2088,269059.500,661902,12,18;INSUFFICIENT_OBS,NONE,0.0000,0.0000,0.0000,0.0000,0.0000,0.0000,"",0,0,0,0,0,00,0,0*0553f732
$GNGGA,024401.60,,,,,0,00,0.0,,,,,,*7D
$GNRMC,024401.60,V,,,,,,,150120,0.0,E,N*0A
#HEADINGA,COM2,0,77.0,FINE,2088,269059.600,662002,12,18;INSUFFICIENT_OBS,NONE,0.0000,0.0000,0.0000,0.0000,0.0000,0.0000,"",0,0,0,0,0,00,0,0*8590d7e9
$GNGGA,024401.70,,,,,0,00,0.0,,,,,,*7C
$GNRMC,024401.70,V,,,,,,,150120,0.0,E,N*0B
#HEADINGA,COM2,0,77.0,FINE,2088,269059.700,662102,12,18;INSUFFICIENT_OBS,NONE,0.0000,0.0000,0.0000,0.0000,0.0000,0.0000,"",0,0,0,0,0,00,0,0*a1c10b6d
$GNGGA,024401.80,,,,,0,00,0.0,,,,,,*73
$GNRMC,024401.80,V,,,,,,,150120,0.0,E,N*04
#HEADINGA,COM2,0,77.0,FINE,2088,269059.800,662202,12,18;INSUFFICIENT_OBS,NONE,0.0000,0.0000,0.0000,0.0000,0.0000,0.0000,"",0,0,0,0,0,00,0,0*da214abe
$GNGGA,024401.90,,,,,0,00,0.0,,,,,,*72
$GNRMC,024401.90,V,,,,,,,150120,0.0,E,N*05
#HEADINGA,COM2,0,77.0,FINE,2088,269059.900,662302,12,18;INSUFFICIENT_OBS,NONE,0.0000,0.0000,0.0000,0.0000,0.0000,0.0000,"",0,0,0,0,0,00,0,0*fe70963a
#REFSTATIONA,COM2,0,90.0,UNKNOWN,0,0.000,0,662406,0;00000001,0.000,0.000,0.000,0,NONE,""*81a1b30f
$GNGGA,024402.00,,,,,0,00,0.0,,,,,,*78
$GNRMC,024402.00,V,,,,,,,150120,0.0,E,N*0F
#HEADINGA,COM2,0,77.0,FINE,2088,269060.000,662402,16,18;INSUFFICIENT_OBS,NONE,0.0000,0.0000,0.0000,0.0000,0.0000,0.0000,"",0,0,0,0,0,00,0,0*6318b759
$GNGGA,024402.10,,,,,0,00,0.0,,,,,,*79
$GNRMC,024402.10,V,,,,,,,150120,0.0,E,N*0E
#HEADINGA,COM2,0,77.0,FINE,2088,269060.100,662503,12,18;INSUFFICIENT_OBS,NONE,0.0000,0.0000,0.0000,0.0000,0.0000,0.0000,"",0,0,0,0,0,00,0,0*03742662
$GNGGA,024402.20,,,,,0,00,0.0,,,,,,*7A
$GNRMC,024402.20,V,,,,,,,150120,0.0,E,N*0D
#HEADINGA,COM2,0,77.0,FINE,2088,269060.200,662602,13,18;INSUFFICIENT_OBS,NONE,0.0000,0.0000,0.0000,0.0000,0.0000,0.0000,"",0,0,0,0,0,00,0,0*f81a606d
$GNGGA,024402.30,,,,,0,00,0.0,,,,,,*7B
$GNRMC,024402.30,V,,,,,,,150120,0.0,E,N*0C
#HEADINGA,COM2,0,77.0,FINE,2088,269060.300,662702,13,18;INSUFFICIENT_OBS,NONE,0.0000,0.0000,0.0000,0.0000,0.0000,0.0000,"",0,0,0,0,0,00,0,0*dc4bbce9
$GNGGA,024402.40,3039.11526603,N,12047.31755299,E,1,08,4.2,24.9007,M,9.8180,M,,*72
$GNRMC,024402.40,A,3039.11526603,N,12047.31755299,E,0.245,93.7,150120,5.8,W,A*03
#HEADINGA,COM2,0,77.0,FINE,2088,269060.400,662802,17,18;INSUFFICIENT_OBS,NONE,0.0000,0.0000,0.0000,0.0000,0.0000,0.0000,"",0,0,0,0,0,00,0,0*4679575b
$GNGGA,024402.50,3039.11527715,N,12047.31755434,E,1,08,4.2,24.9677,M,9.8180,M,,*74
$GNRMC,024402.50,A,3039.11527715,N,12047.31755434,E,0.212,85.3,150120,5.8,W,A*05
#HEADINGA,COM2,0,77.0,FINE,2088,269060.500,662902,17,18;INSUFFICIENT_OBS,NONE,0.0000,0.0000,0.0000,0.0000,0.0000,0.0000,"",0,0,0,0,0,00,0,0*62288bdf
$GNGGA,024402.60,3039.11527179,N,12047.31752947,E,1,08,4.2,24.9983,M,9.8180,M,,*71
$GNRMC,024402.60,A,3039.11527179,N,12047.31752947,E,0.069,62.5,150120,5.8,W,A*05
#HEADINGA,COM2,0,77.0,FINE,2088,269060.600,663002,17,18;INSUFFICIENT_OBS,NONE,0.0000,0.0000,0.0000,0.0000,0.0000,0.0000,"",0,0,0,0,0,00,0,0*2a9f66b0
$GNGGA,024402.70,3039.11527001,N,12047.31753978,E,1,08,4.2,25.0188,M,9.8180,M,,*78
$GNRMC,024402.70,A,3039.11527001,N,12047.31753978,E,0.091,96.4,150120,5.8,W,A*0A
#HEADINGA,COM2,0,77.0,FINE,2088,269060.700,663102,17,18;INSUFFICIENT_OBS,NONE,0.0000,0.0000,0.0000,0.0000,0.0000,0.0000,"",0,0,0,0,0,00,0,0*0eceba34
$GNGGA,024402.80,3039.11528498,N,12047.31757544,E,1,08,4.2,25.0333,M,9.8180,M,,*79
$GNRMC,024402.80,A,3039.11528498,N,12047.31757544,E,0.290,75.6,150120,5.8,W,A*05
#HEADINGA,COM2,0,77.0,FINE,2088,269060.800,663202,17,18;INSUFFICIENT_OBS,NONE,0.0000,0.0000,0.0000,0.0000,0.0000,0.0000,"",0,0,0,0,0,00,0,0*752efbe7
$GNGGA,024402.90,3039.11527722,N,12047.31755219,E,1,08,4.2,24.9892,M,9.8180,M,,*70
$GNRMC,024402.90,A,3039.11527722,N,12047.31755219,E,0.198,110.3,150120,5.8,W,A*38
#HEADINGA,COM2,0,77.0,FINE,2088,269060.900,663302,17,18;INSUFFICIENT_OBS,NONE,0.0000,0.0000,0.0000,0.0000,0.0000,0.0000,"",0,0,0,0,0,00,0,0*517f2763
#REFSTATIONA,COM2,0,90.0,UNKNOWN,0,0.000,0,663407,0;00000001,0.000,0.000,0.000,0,NONE,""*69f6d7b3
$GNGGA,024403.00,3039.11528462,N,12047.31757362,E,1,08,4.2,25.0114,M,9.8180,M,,*70
$GNRMC,024403.00,A,3039.11528462,N,12047.31757362,E,0.278,79.1,150120,5.8,W,A*06
#HEADINGA,COM2,0,77.0,FINE,2088,269061.000,663402,22,18;INSUFFICIENT_OBS,NONE,0.0000,0.0000,0.0000,0.0000,0.0000,0.0000,"",0,0,0,0,0,00,0,0*99eaa773
$GNGGA,024403.10,3039.11529345,N,12047.31758822,E,1,08,4.2,25.0223,M,9.8180,M,,*75
$GNRMC,024403.10,A,3039.11529345,N,12047.31758822,E,0.326,63.1,150120,5.8,W,A*05
#HEADINGA,COM2,0,77.0,FINE,2088,269061.100,663502,18,18;INSUFFICIENT_OBS,NONE,0.0000,0.0000,0.0000,0.0000,0.0000,0.0000,"",0,0,0,0,0,00,0,0*6dcc1756
$GNGGA,024403.20,3039.11530049,N,12047.31759130,E,1,08,4.2,25.0315,M,9.8180,M,,*7E
$GNRMC,024403.20,A,3039.11530049,N,12047.31759130,E,0.295,46.0,150120,5.8,W,A*05
#HEADINGA,COM2,0,77.0,FINE,2088,269061.200,663602,18,18;INSUFFICIENT_OBS,NONE,0.0000,0.0000,0.0000,0.0000,0.0000,0.0000,"",0,0,0,0,0,00,0,0*013e72da
$GNGGA,024403.30,3039.11530852,N,12047.31761763,E,1,08,4.2,25.0759,M,9.8180,M,,*7A
$GNRMC,024403.30,A,3039.11530852,N,12047.31761763,E,0.322,62.5,150120,5.8,W,A*03
#HEADINGA,COM2,0,77.0,FINE,2088,269061.300,663702,17,18;INSUFFICIENT_OBS,NONE,0.0000,0.0000,0.0000,0.0000,0.0000,0.0000,"",0,0,0,0,0,00,0,0*8afd1a5b
$GNGGA,024403.40,,,,,0,00,0.0,,,,,,*7D
$GNRMC,024403.40,V,,,,,,,150120,0.0,E,N*0A
#HEADINGA,COM2,0,79.0,FINE,2088,269061.400,663802,13,18;INSUFFICIENT_OBS,NONE,0.0000,0.0000,0.0000,0.0000,0.0000,0.0000,"",0,0,0,0,0,00,0,0*1d210ede
$GNGGA,024403.50,,,,,0,00,0.0,,,,,,*7C
$GNRMC,024403.50,V,,,,,,,150120,0.0,E,N*0B
#HEADINGA,COM2,0,79.0,FINE,2088,269061.500,663902,12,18;INSUFFICIENT_OBS,NONE,0.0000,0.0000,0.0000,0.0000,0.0000,0.0000,"",0,0,0,0,0,00,0,0*6eb59a43
$GNGGA,024403.60,,,,,0,00,0.0,,,,,,*7F
$GNRMC,024403.60,V,,,,,,,150120,0.0,E,N*08
#HEADINGA,COM2,0,79.0,FINE,2088,269061.600,664002,12,18;INSUFFICIENT_OBS,NONE,0.0000,0.0000,0.0000,0.0000,0.0000,0.0000,"",0,0,0,0,0,00,0,0*a5ee27b1
$GNGGA,024403.70,,,,,0,00,0.0,,,,,,*7E
$GNRMC,024403.70,V,,,,,,,150120,0.0,E,N*09
#HEADINGA,COM2,0,79.0,FINE,2088,269061.700,664102,12,18;INSUFFICIENT_OBS,NONE,0.0000,0.0000,0.0000,0.0000,0.0000,0.0000,"",0,0,0,0,0,00,0,0*81bffb35
$GNGGA,024403.80,,,,,0,00,0.0,,,,,,*71
$GNRMC,024403.80,V,,,,,,,150120,0.0,E,N*06
#HEADINGA,COM2,0,79.0,FINE,2088,269061.800,664202,12,18;INSUFFICIENT_OBS,NONE,0.0000,0.0000,0.0000,0.0000,0.0000,0.0000,"",0,0,0,0,0,00,0,0*fa5fbae6
$GNGGA,024403.90,,,,,0,00,0.0,,,,,,*70
$GNRMC,024403.90,V,,,,,,,150120,0.0,E,N*07
#HEADINGA,COM2,0,79.0,FINE,2088,269061.900,664302,12,18;INSUFFICIENT_OBS,NONE,0.0000,0.0000,0.0000,0.0000,0.0000,0.0000,"",0,0,0,0,0,00,0,0*de0e6662
#REFSTATIONA,COM2,0,90.0,UNKNOWN,0,0.000,0,664406,0;00000001,0.000,0.000,0.000,0,NONE,""*c8b88354
$GNGGA,024404.00,,,,,0,00,0.0,,,,,,*7E
$GNRMC,024404.00,V,,,,,,,150120,0.0,E,N*09
#HEADINGA,COM2,0,79.0,FINE,2088,269062.000,664402,16,18;INSUFFICIENT_OBS,NONE,0.0000,0.0000,0.0000,0.0000,0.0000,0.0000,"",0,0,0,0,0,00,0,0*5bbad228
$GNGGA,024404.10,,,,,0,00,0.0,,,,,,*7F
$GNRMC,024404.10,V,,,,,,,150120,0.0,E,N*08
#HEADINGA,COM2,0,79.0,FINE,2088,269062.100,664502,13,18;INSUFFICIENT_OBS,NONE,0.0000,0.0000,0.0000,0.0000,0.0000,0.0000,"",0,0,0,0,0,00,0,0*ac4a6090
$GNGGA,024404.20,3039.11533571,N,12047.31764838,E,1,08,4.2,25.0889,M,9.8180,M,,*75
$GNRMC,024404.20,A,3039.11533571,N,12047.31764838,E,0.238,55.9,150120,5.8,W,A*0C
#HEADINGA,COM2,0,79.0,FINE,2088,269062.200,664603,17,18;INSUFFICIENT_OBS,NONE,0.0000,0.0000,0.0000,0.0000,0.0000,0.0000,"",0,0,0,0,0,00,0,0*848548a3
$GNGGA,024404.30,3039.11533658,N,12047.31767430,E,1,08,4.2,25.1539,M,9.8180,M,,*7C
$GNRMC,024404.30,A,3039.11533658,N,12047.31767430,E,0.233,68.2,150120,5.8,W,A*0C
#HEADINGA,COM2,0,79.0,FINE,2088,269062.300,664702,17,18;INSUFFICIENT_OBS,NONE,0.0000,0.0000,0.0000,0.0000,0.0000,0.0000,"",0,0,0,0,0,00,0,0*608dffbd
$GNGGA,024404.40,3039.11532062,N,12047.31758364,E,1,08,4.2,24.9758,M,9.8180,M,,*73
$GNRMC,024404.40,A,3039.11532062,N,12047.31758364,E,0.208,312.9,150120,5.8,W,A*32
#HEADINGA,COM2,0,79.0,FINE,2088,269062.400,664802,17,18;INSUFFICIENT_OBS,NONE,0.0000,0.0000,0.0000,0.0000,0.0000,0.0000,"",0,0,0,0,0,00,0,0*7edb322a
$GNGGA,024404.50,3039.11533374,N,12047.31763090,E,1,08,4.2,25.0599,M,9.8180,M,,*70
$GNRMC,024404.50,A,3039.11533374,N,12047.31763090,E,0.151,73.5,150120,5.8,W,A*01
#HEADINGA,COM2,0,79.0,FINE,2088,269062.500,664902,17,18;INSUFFICIENT_OBS,NONE,0.0000,0.0000,0.0000,0.0000,0.0000,0.0000,"",0,0,0,0,0,00,0,0*5a8aeeae
$GNGGA,024404.60,3039.11533540,N,12047.31763638,E,1,08,4.2,25.0770,M,9.8180,M,,*73
$GNRMC,024404.60,A,3039.11533540,N,12047.31763638,E,0.088,67.1,150120,5.8,W,A*03
#HEADINGA,COM2,0,79.0,FINE,2088,269062.600,665002,17,18;INSUFFICIENT_OBS,NONE,0.0000,0.0000,0.0000,0.0000,0.0000,0.0000,"",0,0,0,0,0,00,0,0*123d03c1
$GNGGA,024404.70,3039.11532754,N,12047.31760442,E,1,08,4.2,25.0194,M,9.8180,M,,*74
$GNRMC,024404.70,A,3039.11532754,N,12047.31760442,E,0.135,253.6,150120,5.8,W,A*3D
#HEADINGA,COM2,0,79.0,FINE,2088,269062.700,665102,17,18;INSUFFICIENT_OBS,NONE,0.0000,0.0000,0.0000,0.0000,0.0000,0.0000,"",0,0,0,0,0,00,0,0*366cdf45
$GNGGA,024404.80,3039.11532815,N,12047.31760798,E,1,08,4.2,25.0255,M,9.8180,M,,*7B
$GNRMC,024404.80,A,3039.11532815,N,12047.31760798,E,0.099,242.2,150120,5.8,W,A*3F
#HEADINGA,COM2,0,79.0,FINE,2088,269062.800,665202,17,18;INSUFFICIENT_OBS,NONE,0.0000,0.0000,0.0000,0.0000,0.0000,0.0000,"",0,0,0,0,0,00,0,0*4d8c9e96
$GNGGA,024404.90,,,,,0,00,0.0,,,,,,*77
$GNRMC,024404.90,V,,,,,,,150120,0.0,E,N*00
#HEADINGA,COM2,0,79.0,FINE,2088,269062.900,665302,13,18;INSUFFICIENT_OBS,NONE,0.0000,0.0000,0.0000,0.0000,0.0000,0.0000,"",0,0,0,0,0,00,0,0*edb96437
#REFSTATIONA,COM2,0,90.0,UNKNOWN,0,0.000,0,665406,0;00000001,0.000,0.000,0.000,0,NONE,""*8fab75af
$GNGGA,024405.00,,,,,0,00,0.0,,,,,,*7F
$GNRMC,024405.00,V,,,,,,,150120,0.0,E,N*08
#HEADINGA,COM2,0,79.0,FINE,2088,269063.000,665402,16,18;INSUFFICIENT_OBS,NONE,0.0000,0.0000,0.0000,0.0000,0.0000,0.0000,"",0,0,0,0,0,00,0,0*896852bf
$GNGGA,024405.10,,,,,0,00,0.0,,,,,,*7E
$GNRMC,024405.10,V,,,,,,,150120,0.0,E,N*09
#HEADINGA,COM2,0,79.0,FINE,2088,269063.100,665502,13,18;INSUFFICIENT_OBS,NONE,0.0000,0.0000,0.0000,0.0000,0.0000,0.0000,"",0,0,0,0,0,00,0,0*7e98e007
$GNGGA,024405.20,,,,,0,00,0.0,,,,,,*7D
$GNRMC,024405.20,V,,,,,,,150120,0.0,E,N*0A
#HEADINGA,COM2,0,79.0,FINE,2088,269063.200,665602,13,18;INSUFFICIENT_OBS,NONE,0.0000,0.0000,0.0000,0.0000,0.0000,0.0000,"",0,0,0,0,0,00,0,0*126a858b
$GNGGA,024405.30,,,,,0,00,0.0,,,,,,*7C
$GNRMC,024405.30,V,,,,,,,150120,0.0,E,N*0B
#HEADINGA,COM2,0,79.0,FINE,2088,269063.300,665702,12,18;INSUFFICIENT_OBS,NONE,0.0000,0.0000,0.0000,0.0000,0.0000,0.0000,"",0,0,0,0,0,00,0,0*61fe1116
$GNGGA,024405.40,,,,,0,00,0.0,,,,,,*7B
$GNRMC,024405.40,V,,,,,,,150120,0.0,E,N*0C
#HEADINGA,COM2,0,79.0,FINE,2088,269063.400,665802,12,18;INSUFFICIENT_OBS,NONE,0.0000,0.0000,0.0000,0.0000,0.0000,0.0000,"",0,0,0,0,0,00,0,0*7fa8dc81
$GNGGA,024405.50,,,,,0,00,0.0,,,,,,*7A
$GNRMC,024405.50,V,,,,,,,150120,0.0,E,N*0D
#HEADINGA,COM2,0,79.0,FINE,2088,269063.500,665902,12,18;INSUFFICIENT_OBS,NONE,0.0000,0.0000,0.0000,0.0000,0.0000,0.0000,"",0,0,0,0,0,00,0,0*5bf90005
$GNGGA,024405.60,3039.11532046,N,12047.31759343,E,1,08,4.2,25.0024,M,9.8180,M,,*76
$GNRMC,024405.60,A,3039.11532046,N,12047.31759343,E,0.060,218.9,150120,5.8,W,A*34
#HEADINGA,COM2,0,79.0,FINE,2088,269063.600,666002,17,18;INSUFFICIENT_OBS,NONE,0.0000,0.0000,0.0000,0.0000,0.0000,0.0000,"",0,0,0,0,0,00,0,0*089b4ee2
$GNGGA,024405.70,,,,,0,00,0.0,,,,,,*78
$GNRMC,024405.70,V,,,,,,,150120,0.0,E,N*0F
#HEADINGA,COM2,0,79.0,FINE,2088,269063.700,666102,12,18;INSUFFICIENT_OBS,NONE,0.0000,0.0000,0.0000,0.0000,0.0000,0.0000,"",0,0,0,0,0,00,0,0*ff6bfc5a
$GNGGA,024405.80,3039.11531261,N,12047.31757720,E,1,08,4.2,25.0100,M,9.8180,M,,*74
$GNRMC,024405.80,A,3039.11531261,N,12047.31757720,E,0.095,224.5,150120,5.8,W,A*38
#HEADINGA,COM2,0,79.0,FINE,2088,269063.800,666202,17,18;INSUFFICIENT_OBS,NONE,0.0000,0.0000,0.0000,0.0000,0.0000,0.0000,"",0,0,0,0,0,00,0,0*572ad3b5
$GNGGA,024405.90,3039.11532098,N,12047.31759493,E,1,08,4.2,25.0247,M,9.8180,M,,*77
$GNRMC,024405.90,A,3039.11532098,N,12047.31759493,E,0.052,134.8,150120,5.8,W,A*3F
#HEADINGA,COM2,0,79.0,FINE,2088,269063.900,666302,17,18;INSUFFICIENT_OBS,NONE,0.0000,0.0000,0.0000,0.0000,0.0000,0.0000,"",0,0,0,0,0,00,0,0*737b0f31
#REFSTATIONA,COM2,0,90.0,UNKNOWN,0,0.000,0,666406,0;00000001,0.000,0.000,0.000,0,NONE,""*469f6ea2
$GNGGA,024406.00,,,,,0,00,0.0,,,,,,*7C
$GNRMC,024406.00,V,,,,,,,150120,0.0,E,N*0B
#HEADINGA,COM2,0,79.0,FINE,2088,269064.000,666402,16,18;INSUFFICIENT_OBS,NONE,0.0000,0.0000,0.0000,0.0000,0.0000,0.0000,"",0,0,0,0,0,00,0,0*935e46b0
$GNGGA,024406.10,,,,,0,00,0.0,,,,,,*7D
$GNRMC,024406.10,V,,,,,,,150120,0.0,E,N*0A
#HEADINGA,COM2,0,79.0,FINE,2088,269064.100,666502,13,18;INSUFFICIENT_OBS,NONE,0.0000,0.0000,0.0000,0.0000,0.0000,0.0000,"",0,0,0,0,0,00,0,0*64aef408
$GNGGA,024406.20,,,,,0,00,0.0,,,,,,*7E
$GNRMC,024406.20,V,,,,,,,150120,0.0,E,N*09
#HEADINGA,COM2,0,79.0,FINE,2088,269064.200,666602,12,18;INSUFFICIENT_OBS,NONE,0.0000,0.0000,0.0000,0.0000,0.0000,0.0000,"",0,0,0,0,0,00,0,0*5f99d99d
$GNGGA,024406.30,,,,,0,00,0.0,,,,,,*7F
$GNRMC,024406.30,V,,,,,,,150120,0.0,E,N*08
#HEADINGA,COM2,0,79.0,FINE,2088,269064.300,666702,12,18;INSUFFICIENT_OBS,NONE,0.0000,0.0000,0.0000,0.0000,0.0000,0.0000,"",0,0,0,0,0,00,0,0*7bc80519
$GNGGA,024406.40,,,,,0,00,0.0,,,,,,*78
$GNRMC,024406.40,V,,,,,,,150120,0.0,E,N*0F
#HEADINGA,COM2,0,83.0,FINE,2088,269064.400,666802,12,18;INSUFFICIENT_OBS,NONE,0.0000,0.0000,0.0000,0.0000,0.0000,0.0000,"",0,0,0,0,0,00,0,0*40ba3b95
$GNGGA,024406.50,,,,,0,00,0.0,,,,,,*79
$GNRMC,024406.50,V,,,,,,,150120,0.0,E,N*0E
#HEADINGA,COM2,0,83.0,FINE,2088,269064.500,666902,12,18;INSUFFICIENT_OBS,NONE,0.0000,0.0000,0.0000,0.0000,0.0000,0.0000,"",0,0,0,0,0,00,0,0*64ebe711
$GNGGA,024406.60,,,,,0,00,0.0,,,,,,*7A
$GNRMC,024406.60,V,,,,,,,150120,0.0,E,N*0D
#HEADINGA,COM2,0,83.0,FINE,2088,269064.600,667002,12,18;INSUFFICIENT_OBS,NONE,0.0000,0.0000,0.0000,0.0000,0.0000,0.0000,"",0,0,0,0,0,00,0,0*2c5c0a7e
$GNGGA,024406.70,,,,,0,00,0.0,,,,,,*7B
$GNRMC,024406.70,V,,,,,,,150120,0.0,E,N*0C
#HEADINGA,COM2,0,83.0,FINE,2088,269064.700,667102,12,18;INSUFFICIENT_OBS,NONE,0.0000,0.0000,0.0000,0.0000,0.0000,0.0000,"",0,0,0,0,0,00,0,0*080dd6fa
$GNGGA,024406.80,,,,,0,00,0.0,,,,,,*74
$GNRMC,024406.80,V,,,,,,,150120,0.0,E,N*03
#HEADINGA,COM2,0,83.0,FINE,2088,269064.800,667202,12,18;INSUFFICIENT_OBS,NONE,0.0000,0.0000,0.0000,0.0000,0.0000,0.0000,"",0,0,0,0,0,00,0,0*73ed9729
$GNGGA,024406.90,,,,,0,00,0.0,,,,,,*75
$GNRMC,024406.90,V,,,,,,,150120,0.0,E,N*02
#HEADINGA,COM2,0,83.0,FINE,2088,269064.900,667302,12,18;INSUFFICIENT_OBS,NONE,0.0000,0.0000,0.0000,0.0000,0.0000,0.0000,"",0,0,0,0,0,00,0,0*57bc4bad
#REFSTATIONA,COM2,0,90.0,UNKNOWN,0,0.000,0,667406,0;00000001,0.000,0.000,0.000,0,NONE,""*018c9859
$GNGGA,024407.00,,,,,0,00,0.0,,,,,,*7D
$GNRMC,024407.00,V,,,,,,,150120,0.0,E,N*0A
#HEADINGA,COM2,0,83.0,FINE,2088,269065.000,667402,16,18;INSUFFICIENT_OBS,NONE,0.0000,0.0000,0.0000,0.0000,0.0000,0.0000,"",0,0,0,0,0,00,0,0*64a8353c
$GNGGA,024407.10,,,,,0,00,0.0,,,,,,*7C
$GNRMC,024407.10,V,,,,,,,150120,0.0,E,N*0B
#HEADINGA,COM2,0,83.0,FINE,2088,269065.100,667502,12,18;INSUFFICIENT_OBS,NONE,0.0000,0.0000,0.0000,0.0000,0.0000,0.0000,"",0,0,0,0,0,00,0,0*c49dcf9d
$GNGGA,024407.20,,,,,0,00,0.0,,,,,,*7F
$GNRMC,024407.20,V,,,,,,,150120,0.0,E,N*08
#HEADINGA,COM2,0,83.0,FINE,2088,269065.200,667602,12,18;INSUFFICIENT_OBS,NONE,0.0000,0.0000,0.0000,0.0000,0.0000,0.0000,"",0,0,0,0,0,00,0,0*a86faa11
$GNGGA,024407.30,,,,,0,00,0.0,,,,,,*7E
$GNRMC,024407.30,V,,,,,,,150120,0.0,E,N*09
#HEADINGA,COM2,0,83.0,FINE,2088,269065.300,667702,12,18;INSUFFICIENT_OBS,NONE,0.0000,0.0000,0.0000,0.0000,0.0000,0.0000,"",0,0,0,0,0,00,0,0*8c3e7695
$GNGGA,024407.40,,,,,0,00,0.0,,,,,,*79
$GNRMC,024407.40,V,,,,,,,150120,0.0,E,N*0E
#HEADINGA,COM2,0,83.0,FINE,2088,269065.400,667802,12,18;INSUFFICIENT_OBS,NONE,0.0000,0.0000,0.0000,0.0000,0.0000,0.0000,"",0,0,0,0,0,00,0,0*9268bb02
$GNGGA,024407.50,,,,,0,00,0.0,,,,,,*78
$GNRMC,024407.50,V,,,,,,,150120,0.0,E,N*0F
#HEADINGA,COM2,0,83.0,FINE,2088,269065.500,667902,12,18;INSUFFICIENT_OBS,NONE,0.0000,0.0000,0.0000,0.0000,0.0000,0.0000,"",0,0,0,0,0,00,0,0*b6396786
$GNGGA,024407.60,,,,,0,00,0.0,,,,,,*7B
$GNRMC,024407.60,V,,,,,,,150120,0.0,E,N*0C
#HEADINGA,COM2,0,83.0,FINE,2088,269065.600,668002,12,18;INSUFFICIENT_OBS,NONE,0.0000,0.0000,0.0000,0.0000,0.0000,0.0000,"",0,0,0,0,0,00,0,0*ea53e026
$GNGGA,024407.70,,,,,0,00,0.0,,,,,,*7A
$GNRMC,024407.70,V,,,,,,,150120,0.0,E,N*0D
#HEADINGA,COM2,0,83.0,FINE,2088,269065.700,668102,12,18;INSUFFICIENT_OBS,NONE,0.0000,0.0000,0.0000,0.0000,0.0000,0.0000,"",0,0,0,0,0,00,0,0*ce023ca2
$GNGGA,024407.80,,,,,0,00,0.0,,,,,,*75
$GNRMC,024407.80,V,,,,,,,150120,0.0,E,N*02
#HEADINGA,COM2,0,83.0,FINE,2088,269065.800,668202,12,18;INSUFFICIENT_OBS,NONE,0.0000,0.0000,0.0000,0.0000,0.0000,0.0000,"",0,0,0,0,0,00,0,0*b5e27d71
$GNGGA,024407.90,,,,,0,00,0.0,,,,,,*74
$GNRMC,024407.90,V,,,,,,,150120,0.0,E,N*03
#HEADINGA,COM2,0,83.0,FINE,2088,269065.900,668302,12,18;INSUFFICIENT_OBS,NONE,0.0000,0.0000,0.0000,0.0000,0.0000,0.0000,"",0,0,0,0,0,00,0,0*91b3a1f5
#REFSTATIONA,COM2,0,90.0,UNKNOWN,0,0.000,0,668406,0;00000001,0.000,0.000,0.000,0,NONE,""*5a8ae3e2
$GNGGA,024408.00,,,,,0,00,0.0,,,,,,*72
$GNRMC,024408.00,V,,,,,,,150120,0.0,E,N*05
#HEADINGA,COM2,0,83.0,FINE,2088,269066.000,668402,16,18;INSUFFICIENT_OBS,NONE,0.0000,0.0000,0.0000,0.0000,0.0000,0.0000,"",0,0,0,0,0,00,0,0*140715bf
$GNGGA,024408.10,,,,,0,00,0.0,,,,,,*73
$GNRMC,024408.10,V,,,,,,,150120,0.0,E,N*04
#HEADINGA,COM2,0,83.0,FINE,2088,269066.100,668503,13,18;INSUFFICIENT_OBS,NONE,0.0000,0.0000,0.0000,0.0000,0.0000,0.0000,"",0,0,0,0,0,00,0,0*23aecc9d
$GNGGA,024408.20,,,,,0,00,0.0,,,,,,*70
$GNRMC,024408.20,V,,,,,,,150120,0.0,E,N*07
#HEADINGA,COM2,0,83.0,FINE,2088,269066.200,668602,13,18;INSUFFICIENT_OBS,NONE,0.0000,0.0000,0.0000,0.0000,0.0000,0.0000,"",0,0,0,0,0,00,0,0*8f05c28b
$GNGGA,024408.30,,,,,0,00,0.0,,,,,,*71
$GNRMC,024408.30,V,,,,,,,150120,0.0,E,N*06
#HEADINGA,COM2,0,83.0,FINE,2088,269066.300,668702,13,18;INSUFFICIENT_OBS,NONE,0.0000,0.0000,0.0000,0.0000,0.0000,0.0000,"",0,0,0,0,0,00,0,0*ab541e0f
$GNGGA,024408.40,3039.11532135,N,12047.31758062,E,1,09,4.2,25.0685,M,9.8180,M,,*71
$GNRMC,024408.40,A,3039.11532135,N,12047.31758062,E,0.019,326.7,150120,5.8,W,A*33
#HEADINGA,COM2,0,83.0,FINE,2088,269066.400,668802,18,18;INSUFFICIENT_OBS,NONE,0.0000,0.0000,0.0000,0.0000,0.0000,0.0000,"",0,0,0,0,0,00,0,0*9ef441b8
$GNGGA,024408.50,,,,,0,00,0.0,,,,,,*77
$GNRMC,024408.50,V,,,,,,,150120,0.0,E,N*00
#HEADINGA,COM2,0,83.0,FINE,2088,269066.500,668902,13,18;INSUFFICIENT_OBS,NONE,0.0000,0.0000,0.0000,0.0000,0.0000,0.0000,"",0,0,0,0,0,00,0,0*91530f1c
$GNGGA,024408.60,,,,,0,00,0.0,,,,,,*74
$GNRMC,024408.60,V,,,,,,,150120,0.0,E,N*03
#HEADINGA,COM2,0,83.0,FINE,2088,269066.600,669002,13,18;INSUFFICIENT_OBS,NONE,0.0000,0.0000,0.0000,0.0000,0.0000,0.0000,"",0,0,0,0,0,00,0,0*d9e4e273
$GNGGA,024408.70,,,,,0,00,0.0,,,,,,*75
$GNRMC,024408.70,V,,,,,,,150120,0.0,E,N*02
#HEADINGA,COM2,0,83.0,FINE,2088,269066.700,669102,13,18;INSUFFICIENT_OBS,NONE,0.0000,0.0000,0.0000,0.0000,0.0000,0.0000,"",0,0,0,0,0,00,0,0*fdb53ef7
$GNGGA,024408.80,3039.11534597,N,12047.31752942,E,1,09,4.2,24.9636,M,9.8180,M,,*76
$GNRMC,024408.80,A,3039.11534597,N,12047.31752942,E,0.089,328.2,150120,5.8,W,A*36
#HEADINGA,COM2,0,83.0,FINE,2088,269066.800,669202,18,18;INSUFFICIENT_OBS,NONE,0.0000,0.0000,0.0000,0.0000,0.0000,0.0000,"",0,0,0,0,0,00,0,0*ada3ed04
$GNGGA,024408.90,3039.11533514,N,12047.31744700,E,1,09,4.2,24.7607,M,9.8180,M,,*78
$GNRMC,024408.90,A,3039.11533514,N,12047.31744700,E,0.114,309.5,150120,5.8,W,A*35
#HEADINGA,COM2,0,83.0,FINE,2088,269066.900,669302,18,18;INSUFFICIENT_OBS,NONE,0.0000,0.0000,0.0000,0.0000,0.0000,0.0000,"",0,0,0,0,0,00,0,0*89f23180
#REFSTATIONA,COM2,0,90.0,UNKNOWN,0,0.000,0,669406,0;00000001,0.000,0.000,0.000,0,NONE,""*1d991519
$GNGGA,024409.00,3039.11533897,N,12047.31744203,E,1,09,4.2,24.7532,M,9.8180,M,,*75
$GNRMC,024409.00,A,3039.11533897,N,12047.31744203,E,0.105,313.3,150120,5.8,W,A*30
#HEADINGA,COM2,0,83.0,FINE,2088,269067.000,669402,23,18;INSUFFICIENT_OBS,NONE,0.0000,0.0000,0.0000,0.0000,0.0000,0.0000,"",0,0,0,0,0,00,0,0*b9304d8c
$GNGGA,024409.10,3039.11532916,N,12047.31740050,E,1,09,4.2,24.7081,M,9.8180,M,,*70
$GNRMC,024409.10,A,3039.11532916,N,12047.31740050,E,0.175,289.9,150120,5.8,W,A*37
#HEADINGA,COM2,0,83.0,FINE,2088,269067.100,669502,18,18;INSUFFICIENT_OBS,NONE,0.0000,0.0000,0.0000,0.0000,0.0000,0.0000,"",0,0,0,0,0,00,0,0*1ad3b5b0
$GNGGA,024409.20,3039.11533072,N,12047.31739276,E,1,09,4.2,24.6990,M,9.8180,M,,*79
$GNRMC,024409.20,A,3039.11533072,N,12047.31739276,E,0.165,288.2,150120,5.8,W,A*3D
#HEADINGA,COM2,0,83.0,FINE,2088,269067.200,669602,20,18;SOL_COMPUTED,L1_FLOAT,12.7201,256.4156,-1.2515,0.0000,15.7648,162.0391,"999",9,5,5,0,3,00,0,41*0818c008
$GNGGA,024409.30,3039.11533800,N,12047.31742049,E,1,09,4.2,24.7588,M,9.8180,M,,*73
$GNRMC,024409.30,A,3039.11533800,N,12047.31742049,E,0.064,200.5,150120,5.8,W,A*34
#HEADINGA,COM2,0,83.0,FINE,2088,269067.300,669702,19,18;SOL_COMPUTED,L1_FLOAT,12.4983,256.5880,0.7285,0.0000,15.6478,170.4278,"999",9,5,5,0,3,00,0,41*dff100a8
$GNGGA,024409.40,3039.11534500,N,12047.31744562,E,1,09,4.2,24.8114,M,9.8180,M,,*7A
$GNRMC,024409.40,A,3039.11534500,N,12047.31744562,E,0.067,130.8,150120,5.8,W,A*3D
#HEADINGA,COM2,0,83.0,FINE,2088,269067.400,669802,18,18;INSUFFICIENT_OBS,NONE,0.0000,0.0000,0.0000,0.0000,0.0000,0.0000,"",0,0,0,0,0,00,0,0*4c26c12f
$GNGGA,024409.50,3039.11532543,N,12047.31737124,E,1,09,4.2,24.6705,M,9.8180,M,,*70
$GNRMC,024409.50,A,3039.11532543,N,12047.31737124,E,0.369,266.8,150120,5.8,W,A*32
#HEADINGA,COM2,0,82.0,FINE,2088,269067.500,669902,18,18;INSUFFICIENT_OBS,NONE,0.0000,0.0000,0.0000,0.0000,0.0000,0.0000,"",0,0,0,0,0,00,0,0*8485e163
$GNGGA,024409.60,3039.11532920,N,12047.31738396,E,1,09,4.2,24.6995,M,9.8180,M,,*79
$GNRMC,024409.60,A,3039.11532920,N,12047.31738396,E,0.134,205.6,150120,5.8,W,A*3D
#HEADINGA,COM2,0,82.0,FINE,2088,269067.600,670002,17,18;INSUFFICIENT_OBS,NONE,0.0000,0.0000,0.0000,0.0000,0.0000,0.0000,"",0,0,0,0,0,00,0,0*92f383f7
$GNGGA,024409.70,3039.11533551,N,12047.31740714,E,1,09,4.2,24.7473,M,9.8180,M,,*76
$GNRMC,024409.70,A,3039.11533551,N,12047.31740714,E,0.125,92.1,150120,5.8,W,A*0D
#HEADINGA,COM2,0,82.0,FINE,2088,269067.700,670102,18,18;INSUFFICIENT_OBS,NONE,0.0000,0.0000,0.0000,0.0000,0.0000,0.0000,"",0,0,0,0,0,00,0,0*1930eb76
$GNGGA,024409.80,3039.11534710,N,12047.31744964,E,1,09,4.2,24.8312,M,9.8180,M,,*7B
$GNRMC,024409.80,A,3039.11534710,N,12047.31744964,E,0.645,80.4,150120,5.8,W,A*08
#HEADINGA,COM2,0,82.0,FINE,2088,269067.800,670202,17,18;INSUFFICIENT_OBS,NONE,0.0000,0.0000,0.0000,0.0000,0.0000,0.0000,"",0,0,0,0,0,00,0,0*cd421ea0
$GNGGA,024409.90,3039.11533883,N,12047.31742100,E,1,09,4.2,24.7675,M,9.8180,M,,*7F
$GNRMC,024409.90,A,3039.11533883,N,12047.31742100,E,0.200,72.7,150120,5.8,W,A*0C
#HEADINGA,COM2,0,82.0,FINE,2088,269067.900,670302,17,18;INSUFFICIENT_OBS,NONE,0.0000,0.0000,0.0000,0.0000,0.0000,0.0000,"",0,0,0,0,0,00,0,0*e913c224
#REFSTATIONA,COM2,0,90.0,UNKNOWN,0,0.000,0,670406,0;00000001,0.000,0.000,0.000,0,NONE,""*25ae669b
$GNGGA,024410.00,3039.11533687,N,12047.31741501,E,1,09,4.2,24.7558,M,9.8180,M,,*7E
$GNRMC,024410.00,A,3039.11533687,N,12047.31741501,E,0.165,83.0,150120,5.8,W,A*08
#HEADINGA,COM2,0,82.0,FINE,2088,269068.000,670402,23,18;INSUFFICIENT_OBS,NONE,0.0000,0.0000,0.0000,0.0000,0.0000,0.0000,"",0,0,0,0,0,00,0,0*c1c372ae
$GNGGA,024410.10,3039.11533970,N,12047.31740966,E,1,09,4.2,24.7425,M,9.8180,M,,*7F
$GNRMC,024410.10,A,3039.11533970,N,12047.31740966,E,0.161,61.1,150120,5.8,W,A*0B
#HEADINGA,COM2,0,82.0,FINE,2088,269068.100,670502,19,18;INSUFFICIENT_OBS,NONE,0.0000,0.0000,0.0000,0.0000,0.0000,0.0000,"",0,0,0,0,0,00,0,0*35e5c28b
$GNGGA,024410.20,,,,,0,00,0.0,,,,,,*79
$GNRMC,024410.20,V,,,,,,,150120,0.0,E,N*0E
#HEADINGA,COM2,0,82.0,FINE,2088,269068.200,670602,13,18;INSUFFICIENT_OBS,NONE,0.0000,0.0000,0.0000,0.0000,0.0000,0.0000,"",0,0,0,0,0,00,0,0*25247d3e
$GNGGA,024410.30,3039.11534079,N,12047.31739643,E,1,09,4.2,24.7180,M,9.8180,M,,*76
$GNRMC,024410.30,A,3039.11534079,N,12047.31739643,E,0.122,342.9,150120,5.8,W,A*35
#HEADINGA,COM2,0,82.0,FINE,2088,269068.300,670702,17,18;INSUFFICIENT_OBS,NONE,0.0000,0.0000,0.0000,0.0000,0.0000,0.0000,"",0,0,0,0,0,00,0,0*8511879f
$GNGGA,024410.40,,,,,0,00,0.0,,,,,,*7F
$GNRMC,024410.40,V,,,,,,,150120,0.0,E,N*08
#HEADINGA,COM2,0,82.0,FINE,2088,269068.400,670802,13,18;INSUFFICIENT_OBS,NONE,0.0000,0.0000,0.0000,0.0000,0.0000,0.0000,"",0,0,0,0,0,00,0,0*1f236c2d
$GNGGA,024410.50,,,,,0,00,0.0,,,,,,*7E
$GNRMC,024410.50,V,,,,,,,150120,0.0,E,N*09
#HEADINGA,COM2,0,82.0,FINE,2088,269068.500,670902,12,18;INSUFFICIENT_OBS,NONE,0.0000,0.0000,0.0000,0.0000,0.0000,0.0000,"",0,0,0,0,0,00,0,0*6cb7f8b0
$GNGGA,024410.60,,,,,0,00,0.0,,,,,,*7D
$GNRMC,024410.60,V,,,,,,,150120,0.0,E,N*0A
#HEADINGA,COM2,0,82.0,FINE,2088,269068.600,671002,12,18;INSUFFICIENT_OBS,NONE,0.0000,0.0000,0.0000,0.0000,0.0000,0.0000,"",0,0,0,0,0,00,0,0*240015df
$GNGGA,024410.70,,,,,0,00,0.0,,,,,,*7C
$GNRMC,024410.70,V,,,,,,,150120,0.0,E,N*0B
#HEADINGA,COM2,0,82.0,FINE,2088,269068.700,671102,12,18;INSUFFICIENT_OBS,NONE,0.0000,0.0000,0.0000,0.0000,0.0000,0.0000,"",0,0,0,0,0,00,0,0*0051c95b
$GNGGA,024410.80,,,,,0,00,0.0,,,,,,*73
$GNRMC,024410.80,V,,,,,,,150120,0.0,E,N*04
#HEADINGA,COM2,0,82.0,FINE,2088,269068.800,671202,12,18;INSUFFICIENT_OBS,NONE,0.0000,0.0000,0.0000,0.0000,0.0000,0.0000,"",0,0,0,0,0,00,0,0*7bb18888
$GNGGA,024410.90,,,,,0,00,0.0,,,,,,*72
$GNRMC,024410.90,V,,,,,,,150120,0.0,E,N*05
#HEADINGA,COM2,0,82.0,FINE,2088,269068.900,671302,12,18;INSUFFICIENT_OBS,NONE,0.0000,0.0000,0.0000,0.0000,0.0000,0.0000,"",0,0,0,0,0,00,0,0*5fe0540c
#REFSTATIONA,COM2,0,90.0,UNKNOWN,0,0.000,0,671406,0;00000001,0.000,0.000,0.000,0,NONE,""*62bd9060
$GNGGA,024411.00,,,,,0,00,0.0,,,,,,*7A
$GNRMC,024411.00,V,,,,,,,150120,0.0,E,N*0D
#HEADINGA,COM2,0,82.0,FINE,2088,269069.000,671402,16,18;INSUFFICIENT_OBS,NONE,0.0000,0.0000,0.0000,0.0000,0.0000,0.0000,"",0,0,0,0,0,00,0,0*6cf42a9d
$GNGGA,024411.10,,,,,0,00,0.0,,,,,,*7B
$GNRMC,024411.10,V,,,,,,,150120,0.0,E,N*0C
#HEADINGA,COM2,0,82.0,FINE,2088,269069.100,671502,13,18;INSUFFICIENT_OBS,NONE,0.0000,0.0000,0.0000,0.0000,0.0000,0.0000,"",0,0,0,0,0,00,0,0*9b049825
$GNGGA,024411.20,3039.11537347,N,12047.31742950,E,1,09,4.2,24.7175,M,9.8180,M,,*70
$GNRMC,024411.20,A,3039.11537347,N,12047.31742950,E,0.178,55.8,150120,5.8,W,A*02
#HEADINGA,COM2,0,82.0,FINE,2088,269069.200,671602,18,18;INSUFFICIENT_OBS,NONE,0.0000,0.0000,0.0000,0.0000,0.0000,0.0000,"",0,0,0,0,0,00,0,0*dc006f89
$GNGGA,024411.30,3039.11537233,N,12047.31743272,E,1,09,4.2,24.7140,M,9.8180,M,,*7F
$GNRMC,024411.30,A,3039.11537233,N,12047.31743272,E,0.165,58.5,150120,5.8,W,A*07
#HEADINGA,COM2,0,82.0,FINE,2088,269069.300,671702,17,18;INSUFFICIENT_OBS,NONE,0.0000,0.0000,0.0000,0.0000,0.0000,0.0000,"",0,0,0,0,0,00,0,0*57c30708
$GNGGA,024411.40,3039.11535483,N,12047.31737845,E,1,09,4.2,24.6210,M,9.8180,M,,*7D
$GNRMC,024411.40,A,3039.11535483,N,12047.31737845,E,0.340,261.4,150120,5.8,W,A*3E
#HEADINGA,COM2,0,82.0,FINE,2088,269069.400,671802,17,18;INSUFFICIENT_OBS,NONE,0.0000,0.0000,0.0000,0.0000,0.0000,0.0000,"",0,0,0,0,0,00,0,0*4995ca9f
$GNGGA,024411.50,3039.11535210,N,12047.31736873,E,1,09,4.2,24.5960,M,9.8180,M,,*7B
$GNRMC,024411.50,A,3039.11535210,N,12047.31736873,E,0.246,253.8,150120,5.8,W,A*3D
#HEADINGA,COM2,0,82.0,FINE,2088,269069.500,671902,17,18;INSUFFICIENT_OBS,NONE,0.0000,0.0000,0.0000,0.0000,0.0000,0.0000,"",0,0,0,0,0,00,0,0*6dc4161b
$GNGGA,024411.60,3039.11534358,N,12047.31734601,E,1,09,4.2,24.5719,M,9.8180,M,,*7D
$GNRMC,024411.60,A,3039.11534358,N,12047.31734601,E,0.351,249.3,150120,5.8,W,A*3C
#HEADINGA,COM2,0,82.0,FINE,2088,269069.600,672002,17,18;INSUFFICIENT_OBS,NONE,0.0000,0.0000,0.0000,0.0000,0.0000,0.0000,"",0,0,0,0,0,00,0,0*ed0736c0
$GNGGA,024411.70,3039.11535242,N,12047.31737632,E,1,09,4.2,24.6300,M,9.8180,M,,*7B
$GNRMC,024411.70,A,3039.11535242,N,12047.31737632,E,0.196,81.9,150120,5.8,W,A*00
#HEADINGA,COM2,0,82.0,FINE,2088,269069.700,672102,17,18;INSUFFICIENT_OBS,NONE,0.0000,0.0000,0.0000,0.0000,0.0000,0.0000,"",0,0,0,0,0,00,0,0*c956ea44
$GNGGA,024411.80,3039.11535538,N,12047.31738679,E,1,09,4.2,24.6463,M,9.8180,M,,*7C
$GNRMC,024411.80,A,3039.11535538,N,12047.31738679,E,0.209,73.7,150120,5.8,W,A*03
#HEADINGA,COM2,0,82.0,FINE,2088,269069.800,672202,17,18;INSUFFICIENT_OBS,NONE,0.0000,0.0000,0.0000,0.0000,0.0000,0.0000,"",0,0,0,0,0,00,0,0*b2b6ab97
$GNGGA,024411.90,3039.11535425,N,12047.31738288,E,1,09,4.2,24.6298,M,9.8180,M,,*78
$GNRMC,024411.90,A,3039.11535425,N,12047.31738288,E,0.186,75.2,150120,5.8,W,A*02
#HEADINGA,COM2,0,82.0,FINE,2088,269069.900,672302,17,18;INSUFFICIENT_OBS,NONE,0.0000,0.0000,0.0000,0.0000,0.0000,0.0000,"",0,0,0,0,0,00,0,0*96e77713
#REFSTATIONA,COM2,0,90.0,UNKNOWN,0,0.000,0,672406,0;00000001,0.000,0.000,0.000,0,NONE,""*ab898b6d
$GNGGA,024412.00,3039.11535233,N,12047.31737871,E,1,09,4.2,24.6264,M,9.8180,M,,*73
$GNRMC,024412.00,A,3039.11535233,N,12047.31737871,E,0.140,78.4,150120,5.8,W,A*0B
#HEADINGA,COM2,0,82.0,FINE,2088,269070.000,672402,22,18;INSUFFICIENT_OBS,NONE,0.0000,0.0000,0.0000,0.0000,0.0000,0.0000,"",0,0,0,0,0,00,0,0*e1b90367
$GNGGA,024412.10,3039.11535120,N,12047.31737902,E,1,09,4.2,24.6302,M,9.8180,M,,*77
$GNRMC,024412.10,A,3039.11535120,N,12047.31737902,E,0.136,82.4,150120,5.8,W,A*0A
#HEADINGA,COM2,0,82.0,FINE,2088,269070.100,672502,18,18;INSUFFICIENT_OBS,NONE,0.0000,0.0000,0.0000,0.0000,0.0000,0.0000,"",0,0,0,0,0,00,0,0*159fb342
$GNGGA,024412.20,,,,,0,00,0.0,,,,,,*7B
$GNRMC,024412.20,V,,,,,,,150120,0.0,E,N*0C
#HEADINGA,COM2,0,82.0,FINE,2088,269070.200,672602,13,18;INSUFFICIENT_OBS,NONE,0.0000,0.0000,0.0000,0.0000,0.0000,0.0000,"",0,0,0,0,0,00,0,0*529b44ee
$GNGGA,024412.30,,,,,0,00,0.0,,,,,,*7A
$GNRMC,024412.30,V,,,,,,,150120,0.0,E,N*0D
#HEADINGA,COM2,0,82.0,FINE,2088,269070.300,672702,13,18;INSUFFICIENT_OBS,NONE,0.0000,0.0000,0.0000,0.0000,0.0000,0.0000,"",0,0,0,0,0,00,0,0*76ca986a
$GNGGA,024412.40,,,,,0,00,0.0,,,,,,*7D
$GNRMC,024412.40,V,,,,,,,150120,0.0,E,N*0A
#HEADINGA,COM2,0,82.0,FINE,2088,269070.400,672802,12,18;INSUFFICIENT_OBS,NONE,0.0000,0.0000,0.0000,0.0000,0.0000,0.0000,"",0,0,0,0,0,00,0,0*3f591de4
$GNGGA,024412.50,,,,,0,00,0.0,,,,,,*7C
$GNRMC,024412.50,V,,,,,,,150120,0.0,E,N*0B
#HEADINGA,COM2,0,80.0,FINE,2088,269070.500,672902,13,18;INSUFFICIENT_OBS,NONE,0.0000,0.0000,0.0000,0.0000,0.0000,0.0000,"",0,0,0,0,0,00,0,0*4e5976a8
$GNGGA,024412.60,,,,,0,00,0.0,,,,,,*7F
$GNRMC,024412.60,V,,,,,,,150120,0.0,E,N*08
#HEADINGA,COM2,0,80.0,FINE,2088,269070.600,673002,12,18;INSUFFICIENT_OBS,NONE,0.0000,0.0000,0.0000,0.0000,0.0000,0.0000,"",0,0,0,0,0,00,0,0*512bd3de
$GNGGA,024412.70,,,,,0,00,0.0,,,,,,*7E
$GNRMC,024412.70,V,,,,,,,150120,0.0,E,N*09
#HEADINGA,COM2,0,80.0,FINE,2088,269070.700,673102,12,18;INSUFFICIENT_OBS,NONE,0.0000,0.0000,0.0000,0.0000,0.0000,0.0000,"",0,0,0,0,0,00,0,0*757a0f5a
$GNGGA,024412.80,,,,,0,00,0.0,,,,,,*71
$GNRMC,024412.80,V,,,,,,,150120,0.0,E,N*06
#HEADINGA,COM2,0,80.0,FINE,2088,269070.800,673202,12,18;INSUFFICIENT_OBS,NONE,0.0000,0.0000,0.0000,0.0000,0.0000,0.0000,"",0,0,0,0,0,00,0,0*0e9a4e89
$GNGGA,024412.90,,,,,0,00,0.0,,,,,,*70
$GNRMC,024412.90,V,,,,,,,150120,0.0,E,N*07
#HEADINGA,COM2,0,80.0,FINE,2088,269070.900,673302,13,18;INSUFFICIENT_OBS,NONE,0.0000,0.0000,0.0000,0.0000,0.0000,0.0000,"",0,0,0,0,0,00,0,0*7d0eda14
#REFSTATIONA,COM2,0,90.0,UNKNOWN,0,0.000,0,673406,0;00000001,0.000,0.000,0.000,0,NONE,""*ec9a7d96
$GNGGA,024413.00,,,,,0,00,0.0,,,,,,*78
$GNRMC,024413.00,V,,,,,,,150120,0.0,E,N*0F
#HEADINGA,COM2,0,80.0,FINE,2088,269071.000,673402,16,18;INSUFFICIENT_OBS,NONE,0.0000,0.0000,0.0000,0.0000,0.0000,0.0000,"",0,0,0,0,0,00,0,0*19dfec9c
$GNGGA,024413.10,,,,,0,00,0.0,,,,,,*79
$GNRMC,024413.10,V,,,,,,,150120,0.0,E,N*0E
#HEADINGA,COM2,0,80.0,FINE,2088,269071.100,673502,13,18;INSUFFICIENT_OBS,NONE,0.0000,0.0000,0.0000,0.0000,0.0000,0.0000,"",0,0,0,0,0,00,0,0*ee2f5e24
$GNGGA,024413.20,,,,,0,00,0.0,,,,,,*7A
$GNRMC,024413.20,V,,,,,,,150120,0.0,E,N*0D
#HEADINGA,COM2,0,80.0,FINE,2088,269071.200,673602,13,18;INSUFFICIENT_OBS,NONE,0.0000,0.0000,0.0000,0.0000,0.0000,0.0000,"",0,0,0,0,0,00,0,0*82dd3ba8
$GNGGA,024413.30,,,,,0,00,0.0,,,,,,*7B
$GNRMC,024413.30,V,,,,,,,150120,0.0,E,N*0C
#HEADINGA,COM2,0,80.0,FINE,2088,269071.300,673702,13,18;INSUFFICIENT_OBS,NONE,0.0000,0.0000,0.0000,0.0000,0.0000,0.0000,"",0,0,0,0,0,00,0,0*a68ce72c
$GNGGA,024413.40,,,,,0,00,0.0,,,,,,*7C
$GNRMC,024413.40,V,,,,,,,150120,0.0,E,N*0B
#HEADINGA,COM2,0,80.0,FINE,2088,269071.400,673802,13,18;INSUFFICIENT_OBS,NONE,0.0000,0.0000,0.0000,0.0000,0.0000,0.0000,"",0,0,0,0,0,00,0,0*b8da2abb
$GNGGA,024413.50,,,,,0,00,0.0,,,,,,*7D
$GNRMC,024413.50,V,,,,,,,150120,0.0,E,N*0A
#HEADINGA,COM2,0,80.0,FINE,2088,269071.500,673902,12,18;INSUFFICIENT_OBS,NONE,0.0000,0.0000,0.0000,0.0000,0.0000,0.0000,"",0,0,0,0,0,00,0,0*cb4ebe26
$GNGGA,024413.60,,,,,0,00,0.0,,,,,,*7E
$GNRMC,024413.60,V,,,,,,,150120,0.0,E,N*09
#HEADINGA,COM2,0,80.0,FINE,2088,269071.600,674002,13,18;INSUFFICIENT_OBS,NONE,0.0000,0.0000,0.0000,0.0000,0.0000,0.0000,"",0,0,0,0,0,00,0,0*57d04bcd
$GNGGA,024413.70,,,,,0,00,0.0,,,,,,*7F
$GNRMC,024413.70,V,,,,,,,150120,0.0,E,N*08
#HEADINGA,COM2,0,80.0,FINE,2088,269071.700,674102,12,18;INSUFFICIENT_OBS,NONE,0.0000,0.0000,0.0000,0.0000,0.0000,0.0000,"",0,0,0,0,0,00,0,0*2444df50
$GNGGA,024413.80,,,,,0,00,0.0,,,,,,*70
$GNRMC,024413.80,V,,,,,,,150120,0.0,E,N*07
#HEADINGA,COM2,0,80.0,FINE,2088,269071.800,674202,12,18;INSUFFICIENT_OBS,NONE,0.0000,0.0000,0.0000,0.0000,0.0000,0.0000,"",0,0,0,0,0,00,0,0*5fa49e83
$GNGGA,024413.90,,,,,0,00,0.0,,,,,,*71
$GNRMC,024413.90,V,,,,,,,150120,0.0,E,N*06
#HEADINGA,COM2,0,80.0,FINE,2088,269071.900,674302,13,18;INSUFFICIENT_OBS,NONE,0.0000,0.0000,0.0000,0.0000,0.0000,0.0000,"",0,0,0,0,0,00,0,0*2c300a1e
#REFSTATIONA,COM2,0,90.0,UNKNOWN,0,0.000,0,674406,0;00000001,0.000,0.000,0.000,0,NONE,""*e290bb36
$GNGGA,024414.00,,,,,0,00,0.0,,,,,,*7F
$GNRMC,024414.00,V,,,,,,,150120,0.0,E,N*08
#HEADINGA,COM2,0,80.0,FINE,2088,269072.000,674402,16,18;INSUFFICIENT_OBS,NONE,0.0000,0.0000,0.0000,0.0000,0.0000,0.0000,"",0,0,0,0,0,00,0,0*fe41f64d
$GNGGA,024414.10,,,,,0,00,0.0,,,,,,*7E
$GNRMC,024414.10,V,,,,,,,150120,0.0,E,N*09
#HEADINGA,COM2,0,80.0,FINE,2088,269072.100,674502,13,18;INSUFFICIENT_OBS,NONE,0.0000,0.0000,0.0000,0.0000,0.0000,0.0000,"",0,0,0,0,0,00,0,0*09b144f5
$GNGGA,024414.20,,,,,0,00,0.0,,,,,,*7D
$GNRMC,024414.20,V,,,,,,,150120,0.0,E,N*0A
#HEADINGA,COM2,0,80.0,FINE,2088,269072.200,674602,12,18;INSUFFICIENT_OBS,NONE,0.0000,0.0000,0.0000,0.0000,0.0000,0.0000,"",0,0,0,0,0,00,0,0*32866960
$GNGGA,024414.30,,,,,0,00,0.0,,,,,,*7C
$GNRMC,024414.30,V,,,,,,,150120,0.0,E,N*0B
#HEADINGA,COM2,0,80.0,FINE,2088,269072.300,674702,12,18;INSUFFICIENT_OBS,NONE,0.0000,0.0000,0.0000,0.0000,0.0000,0.0000,"",0,0,0,0,0,00,0,0*16d7b5e4
$GNGGA,024414.40,,,,,0,00,0.0,,,,,,*7B
$GNRMC,024414.40,V,,,,,,,150120,0.0,E,N*0C
#HEADINGA,COM2,0,80.0,FINE,2088,269072.400,674802,12,18;INSUFFICIENT_OBS,NONE,0.0000,0.0000,0.0000,0.0000,0.0000,0.0000,"",0,0,0,0,0,00,0,0*08817873
$GNGGA,024414.50,,,,,0,00,0.0,,,,,,*7A
$GNRMC,024414.50,V,,,,,,,150120,0.0,E,N*0D
#HEADINGA,COM2,0,80.0,FINE,2088,269072.500,674902,12,18;INSUFFICIENT_OBS,NONE,0.0000,0.0000,0.0000,0.0000,0.0000,0.0000,"",0,0,0,0,0,00,0,0*2cd0a4f7
$GNGGA,024414.60,,,,,0,00,0.0,,,,,,*79
$GNRMC,024414.60,V,,,,,,,150120,0.0,E,N*0E
#HEADINGA,COM2,0,80.0,FINE,2088,269072.600,675002,12,18;INSUFFICIENT_OBS,NONE,0.0000,0.0000,0.0000,0.0000,0.0000,0.0000,"",0,0,0,0,0,00,0,0*64674998
$GNGGA,024414.70,,,,,0,00,0.0,,,,,,*78
$GNRMC,024414.70,V,,,,,,,150120,0.0,E,N*0F
#HEADINGA,COM2,0,80.0,FINE,2088,269072.700,675102,12,18;INSUFFICIENT_OBS,NONE,0.0000,0.0000,0.0000,0.0000,0.0000,0.0000,"",0,0,0,0,0,00,0,0*4036951c
$GNGGA,024414.80,,,,,0,00,0.0,,,,,,*77
$GNRMC,024414.80,V,,,,,,,150120,0.0,E,N*00
#HEADINGA,COM2,0,80.0,FINE,2088,269072.800,675202,12,18;INSUFFICIENT_OBS,NONE,0.0000,0.0000,0.0000,0.0000,0.0000,0.0000,"",0,0,0,0,0,00,0,0*3bd6d4cf
$GNGGA,024414.90,,,,,0,00,0.0,,,,,,*76
$GNRMC,024414.90,V,,,,,,,150120,0.0,E,N*01
#HEADINGA,COM2,0,80.0,FINE,2088,269072.900,675302,12,18;INSUFFICIENT_OBS,NONE,0.0000,0.0000,0.0000,0.0000,0.0000,0.0000,"",0,0,0,0,0,00,0,0*1f87084b
#REFSTATIONA,COM2,0,90.0,UNKNOWN,0,0.000,0,675406,0;00000001,0.000,0.000,0.000,0,NONE,""*a5834dcd
$GNGGA,024415.00,,,,,0,00,0.0,,,,,,*7E
$GNRMC,024415.00,V,,,,,,,150120,0.0,E,N*09
#HEADINGA,COM2,0,80.0,FINE,2088,269073.000,675402,16,18;INSUFFICIENT_OBS,NONE,0.0000,0.0000,0.0000,0.0000,0.0000,0.0000,"",0,0,0,0,0,00,0,0*2c9376da
$GNGGA,024415.10,,,,,0,00,0.0,,,,,,*7F
$GNRMC,024415.10,V,,,,,,,150120,0.0,E,N*08
#HEADINGA,COM2,0,80.0,FINE,2088,269073.100,675502,13,18;INSUFFICIENT_OBS,NONE,0.0000,0.0000,0.0000,0.0000,0.0000,0.0000,"",0,0,0,0,0,00,0,0*db63c462
$GNGGA,024415.20,,,,,0,00,0.0,,,,,,*7C
$GNRMC,024415.20,V,,,,,,,150120,0.0,E,N*0B
#HEADINGA,COM2,0,80.0,FINE,2088,269073.200,675602,13,18;INSUFFICIENT_OBS,NONE,0.0000,0.0000,0.0000,0.0000,0.0000,0.0000,"",0,0,0,0,0,00,0,0*b791a1ee
$GNGGA,024415.30,,,,,0,00,0.0,,,,,,*7D
$GNRMC,024415.30,V,,,,,,,150120,0.0,E,N*0A
#HEADINGA,COM2,0,80.0,FINE,2088,269073.300,675702,12,18;INSUFFICIENT_OBS,NONE,0.0000,0.0000,0.0000,0.0000,0.0000,0.0000,"",0,0,0,0,0,00,0,0*c4053573
$GNGGA,024415.40,,,,,0,00,0.0,,,,,,*7A
$GNRMC,024415.40,V,,,,,,,150120,0.0,E,N*0D
#HEADINGA,COM2,0,80.0,FINE,2088,269073.400,675802,12,18;INSUFFICIENT_OBS,NONE,0.0000,0.0000,0.0000,0.0000,0.0000,0.0000,"",0,0,0,0,0,00,0,0*da53f8e4
$GNGGA,024415.50,,,,,0,00,0.0,,,,,,*7B
$GNRMC,024415.50,V,,,,,,,150120,0.0,E,N*0C
#HEADINGA,COM2,0,84.0,FINE,2088,269073.500,675902,12,18;INSUFFICIENT_OBS,NONE,0.0000,0.0000,0.0000,0.0000,0.0000,0.0000,"",0,0,0,0,0,00,0,0*fb2bdbc2
$GNGGA,024415.60,,,,,0,00,0.0,,,,,,*78
$GNRMC,024415.60,V,,,,,,,150120,0.0,E,N*0F
#HEADINGA,COM2,0,84.0,FINE,2088,269073.600,676002,12,18;INSUFFICIENT_OBS,NONE,0.0000,0.0000,0.0000,0.0000,0.0000,0.0000,"",0,0,0,0,0,00,0,0*7be8fb19
$GNGGA,024415.70,,,,,0,00,0.0,,,,,,*79
$GNRMC,024415.70,V,,,,,,,150120,0.0,E,N*0E
#HEADINGA,COM2,0,84.0,FINE,2088,269073.700,676102,12,18;INSUFFICIENT_OBS,NONE,0.0000,0.0000,0.0000,0.0000,0.0000,0.0000,"",0,0,0,0,0,00,0,0*5fb9279d
$GNGGA,024415.80,,,,,0,00,0.0,,,,,,*76
$GNRMC,024415.80,V,,,,,,,150120,0.0,E,N*01
#HEADINGA,COM2,0,84.0,FINE,2088,269073.800,676202,12,18;INSUFFICIENT_OBS,NONE,0.0000,0.0000,0.0000,0.0000,0.0000,0.0000,"",0,0,0,0,0,00,0,0*2459664e
$GNGGA,024415.90,,,,,0,00,0.0,,,,,,*77
$GNRMC,024415.90,V,,,,,,,150120,0.0,E,N*00
#HEADINGA,COM2,0,84.0,FINE,2088,269073.900,676302,12,18;INSUFFICIENT_OBS,NONE,0.0000,0.0000,0.0000,0.0000,0.0000,0.0000,"",0,0,0,0,0,00,0,0*0008baca
#REFSTATIONA,COM2,0,90.0,UNKNOWN,0,0.000,0,676406,0;00000001,0.000,0.000,0.000,0,NONE,""*6cb756c0
$GNGGA,024416.00,,,,,0,00,0.0,,,,,,*7D
$GNRMC,024416.00,V,,,,,,,150120,0.0,E,N*0A
#HEADINGA,COM2,0,84.0,FINE,2088,269074.000,676402,16,18;INSUFFICIENT_OBS,NONE,0.0000,0.0000,0.0000,0.0000,0.0000,0.0000,"",0,0,0,0,0,00,0,0*338c9d77
$GNGGA,024416.10,,,,,0,00,0.0,,,,,,*7C
$GNRMC,024416.10,V,,,,,,,150120,0.0,E,N*0B
#HEADINGA,COM2,0,84.0,FINE,2088,269074.100,676502,13,18;INSUFFICIENT_OBS,NONE,0.0000,0.0000,0.0000,0.0000,0.0000,0.0000,"",0,0,0,0,0,00,0,0*c47c2fcf
$GNGGA,024416.20,,,,,0,00,0.0,,,,,,*7F
$GNRMC,024416.20,V,,,,,,,150120,0.0,E,N*08
#HEADINGA,COM2,0,84.0,FINE,2088,269074.200,676602,13,18;INSUFFICIENT_OBS,NONE,0.0000,0.0000,0.0000,0.0000,0.0000,0.0000,"",0,0,0,0,0,00,0,0*a88e4a43
$GNGGA,024416.30,,,,,0,00,0.0,,,,,,*7E
$GNRMC,024416.30,V,,,,,,,150120,0.0,E,N*09
#HEADINGA,COM2,0,84.0,FINE,2088,269074.300,676702,13,18;INSUFFICIENT_OBS,NONE,0.0000,0.0000,0.0000,0.0000,0.0000,0.0000,"",0,0,0,0,0,00,0,0*8cdf96c7
$GNGGA,024416.40,,,,,0,00,0.0,,,,,,*79
$GNRMC,024416.40,V,,,,,,,150120,0.0,E,N*0E
#HEADINGA,COM2,0,84.0,FINE,2088,269074.400,676802,13,18;INSUFFICIENT_OBS,NONE,0.0000,0.0000,0.0000,0.0000,0.0000,0.0000,"",0,0,0,0,0,00,0,0*92895b50
$GNGGA,024416.50,,,,,0,00,0.0,,,,,,*78
$GNRMC,024416.50,V,,,,,,,150120,0.0,E,N*0F
#HEADINGA,COM2,0,84.0,FINE,2088,269074.500,676902,12,18;INSUFFICIENT_OBS,NONE,0.0000,0.0000,0.0000,0.0000,0.0000,0.0000,"",0,0,0,0,0,00,0,0*e11dcfcd
$GNGGA,024416.60,,,,,0,00,0.0,,,,,,*7B
$GNRMC,024416.60,V,,,,,,,150120,0.0,E,N*0C
#HEADINGA,COM2,0,84.0,FINE,2088,269074.600,677002,12,18;INSUFFICIENT_OBS,NONE,0.0000,0.0000,0.0000,0.0000,0.0000,0.0000,"",0,0,0,0,0,00,0,0*a9aa22a2
$GNGGA,024416.70,,,,,0,00,0.0,,,,,,*7A
$GNRMC,024416.70,V,,,,,,,150120,0.0,E,N*0D
#HEADINGA,COM2,0,84.0,FINE,2088,269074.700,677102,13,18;INSUFFICIENT_OBS,NONE,0.0000,0.0000,0.0000,0.0000,0.0000,0.0000,"",0,0,0,0,0,00,0,0*da3eb63f
$GNGGA,024416.80,,,,,0,00,0.0,,,,,,*75
$GNRMC,024416.80,V,,,,,,,150120,0.0,E,N*02
#HEADINGA,COM2,0,84.0,FINE,2088,269074.800,677202,13,18;INSUFFICIENT_OBS,NONE,0.0000,0.0000,0.0000,0.0000,0.0000,0.0000,"",0,0,0,0,0,00,0,0*a1def7ec
$GNGGA,024416.90,,,,,0,00,0.0,,,,,,*74
$GNRMC,024416.90,V,,,,,,,150120,0.0,E,N*03
#HEADINGA,COM2,0,84.0,FINE,2088,269074.900,677302,13,18;INSUFFICIENT_OBS,NONE,0.0000,0.0000,0.0000,0.0000,0.0000,0.0000,"",0,0,0,0,0,00,0,0*858f2b68
#REFSTATIONA,COM2,0,90.0,UNKNOWN,0,0.000,0,677406,0;00000001,0.000,0.000,0.000,0,NONE,""*2ba4a03b
$GNGGA,024417.00,,,,,0,00,0.0,,,,,,*7C
$GNRMC,024417.00,V,,,,,,,150120,0.0,E,N*0B
#HEADINGA,COM2,0,84.0,FINE,2088,269075.000,677402,16,18;INSUFFICIENT_OBS,NONE,0.0000,0.0000,0.0000,0.0000,0.0000,0.0000,"",0,0,0,0,0,00,0,0*e15e1de0
$GNGGA,024417.10,,,,,0,00,0.0,,,,,,*7D
$GNRMC,024417.10,V,,,,,,,150120,0.0,E,N*0A
#HEADINGA,COM2,0,84.0,FINE,2088,269075.100,677502,13,18;INSUFFICIENT_OBS,NONE,0.0000,0.0000,0.0000,0.0000,0.0000,0.0000,"",0,0,0,0,0,00,0,0*16aeaf58
$GNGGA,024417.20,,,,,0,00,0.0,,,,,,*7E
$GNRMC,024417.20,V,,,,,,,150120,0.0,E,N*09
#HEADINGA,COM2,0,84.0,FINE,2088,269075.200,677602,13,18;INSUFFICIENT_OBS,NONE,0.0000,0.0000,0.0000,0.0000,0.0000,0.0000,"",0,0,0,0,0,00,0,0*7a5ccad4
$GNGGA,024417.30,,,,,0,00,0.0,,,,,,*7F
$GNRMC,024417.30,V,,,,,,,150120,0.0,E,N*08
#HEADINGA,COM2,0,84.0,FINE,2088,269075.300,677702,13,18;INSUFFICIENT_OBS,NONE,0.0000,0.0000,0.0000,0.0000,0.0000,0.0000,"",0,0,0,0,0,00,0,0*5e0d1650
$GNGGA,024417.40,,,,,0,00,0.0,,,,,,*78
$GNRMC,024417.40,V,,,,,,,150120,0.0,E,N*0F
#HEADINGA,COM2,0,84.0,FINE,2088,269075.400,677802,13,18;INSUFFICIENT_OBS,NONE,0.0000,0.0000,0.0000,0.0000,0.0000,0.0000,"",0,0,0,0,0,00,0,0*405bdbc7
$GNGGA,024417.50,,,,,0,00,0.0,,,,,,*79
$GNRMC,024417.50,V,,,,,,,150120,0.0,E,N*0E
#HEADINGA,COM2,0,84.0,FINE,2088,269075.500,677902,13,18;INSUFFICIENT_OBS,NONE,0.0000,0.0000,0.0000,0.0000,0.0000,0.0000,"",0,0,0,0,0,00,0,0*640a0743
$GNGGA,024417.60,,,,,0,00,0.0,,,,,,*7A
$GNRMC,024417.60,V,,,,,,,150120,0.0,E,N*0D
#HEADINGA,COM2,0,84.0,FINE,2088,269075.600,678002,12,18;INSUFFICIENT_OBS,NONE,0.0000,0.0000,0.0000,0.0000,0.0000,0.0000,"",0,0,0,0,0,00,0,0*6fa5c8fa
$GNGGA,024417.70,,,,,0,00,0.0,,,,,,*7B
$GNRMC,024417.70,V,,,,,,,150120,0.0,E,N*0C
#HEADINGA,COM2,0,84.0,FINE,2088,269075.700,678102,12,18;INSUFFICIENT_OBS,NONE,0.0000,0.0000,0.0000,0.0000,0.0000,0.0000,"",0,0,0,0,0,00,0,0*4bf4147e
$GNGGA,024417.80,,,,,0,00,0.0,,,,,,*74
$GNRMC,024417.80,V,,,,,,,150120,0.0,E,N*03
#HEADINGA,COM2,0,84.0,FINE,2088,269075.800,678202,12,18;INSUFFICIENT_OBS,NONE,0.0000,0.0000,0.0000,0.0000,0.0000,0.0000,"",0,0,0,0,0,00,0,0*301455ad
$GNGGA,024417.90,,,,,0,00,0.0,,,,,,*75
$GNRMC,024417.90,V,,,,,,,150120,0.0,E,N*02
#HEADINGA,COM2,0,84.0,FINE,2088,269075.900,678302,12,18;INSUFFICIENT_OBS,NONE,0.0000,0.0000,0.0000,0.0000,0.0000,0.0000,"",0,0,0,0,0,00,0,0*14458929
#REFSTATIONA,COM2,0,90.0,UNKNOWN,0,0.000,0,678406,0;00000001,0.000,0.000,0.000,0,NONE,""*70a2db80
$GNGGA,024418.00,,,,,0,00,0.0,,,,,,*73
$GNRMC,024418.00,V,,,,,,,150120,0.0,E,N*04
#HEADINGA,COM2,0,84.0,FINE,2088,269076.000,678402,16,18;INSUFFICIENT_OBS,NONE,0.0000,0.0000,0.0000,0.0000,0.0000,0.0000,"",0,0,0,0,0,00,0,0*91f13d63
$GNGGA,024418.10,,,,,0,00,0.0,,,,,,*72
$GNRMC,024418.10,V,,,,,,,150120,0.0,E,N*05
#HEADINGA,COM2,0,84.0,FINE,2088,269076.100,678502,13,18;INSUFFICIENT_OBS,NONE,0.0000,0.0000,0.0000,0.0000,0.0000,0.0000,"",0,0,0,0,0,00,0,0*66018fdb
$GNGGA,024418.20,,,,,0,00,0.0,,,,,,*71
$GNRMC,024418.20,V,,,,,,,150120,0.0,E,N*06
#HEADINGA,COM2,0,84.0,FINE,2088,269076.200,678602,13,18;INSUFFICIENT_OBS,NONE,0.0000,0.0000,0.0000,0.0000,0.0000,0.0000,"",0,0,0,0,0,00,0,0*0af3ea57
$GNGGA,024418.30,,,,,0,00,0.0,,,,,,*70
$GNRMC,024418.30,V,,,,,,,150120,0.0,E,N*07
#HEADINGA,COM2,0,84.0,FINE,2088,269076.300,678702,12,18;INSUFFICIENT_OBS,NONE,0.0000,0.0000,0.0000,0.0000,0.0000,0.0000,"",0,0,0,0,0,00,0,0*79677eca
$GNGGA,024418.40,,,,,0,00,0.0,,,,,,*77
$GNRMC,024418.40,V,,,,,,,150120,0.0,E,N*00
#HEADINGA,COM2,0,84.0,FINE,2088,269076.400,678802,12,18;INSUFFICIENT_OBS,NONE,0.0000,0.0000,0.0000,0.0000,0.0000,0.0000,"",0,0,0,0,0,00,0,0*6731b35d
$GNGGA,024418.50,,,,,0,00,0.0,,,,,,*76
$GNRMC,024418.50,V,,,,,,,150120,0.0,E,N*01
#HEADINGA,COM2,0,84.0,FINE,2088,269076.500,678902,13,18;INSUFFICIENT_OBS,NONE,0.0000,0.0000,0.0000,0.0000,0.0000,0.0000,"",0,0,0,0,0,00,0,0*14a527c0
$GNGGA,024418.60,,,,,0,00,0.0,,,,,,*75
$GNRMC,024418.60,V,,,,,,,150120,0.0,E,N*02
#HEADINGA,COM2,0,85.0,FINE,2088,269076.600,679002,12,18;INSUFFICIENT_OBS,NONE,0.0000,0.0000,0.0000,0.0000,0.0000,0.0000,"",0,0,0,0,0,00,0,0*e7257e7e
$GNGGA,024418.70,,,,,0,00,0.0,,,,,,*74
$GNRMC,024418.70,V,,,,,,,150120,0.0,E,N*03
#HEADINGA,COM2,0,85.0,FINE,2088,269076.700,679102,12,18;INSUFFICIENT_OBS,NONE,0.0000,0.0000,0.0000,0.0000,0.0000,0.0000,"",0,0,0,0,0,00,0,0*c374a2fa
$GNGGA,024418.80,3039.11526217,N,12047.31741048,E,1,09,4.2,24.5374,M,9.8180,M,,*75
$GNRMC,024418.80,A,3039.11526217,N,12047.31741048,E,0.113,236.7,150120,5.8,W,A*33
#HEADINGA,COM2,0,85.0,FINE,2088,269076.800,679202,17,18;INSUFFICIENT_OBS,NONE,0.0000,0.0000,0.0000,0.0000,0.0000,0.0000,"",0,0,0,0,0,00,0,0*6b358d15
$GNGGA,024418.90,3039.11524200,N,12047.31742173,E,1,09,4.2,24.2358,M,9.8180,M,,*73
$GNRMC,024418.90,A,3039.11524200,N,12047.31742173,E,0.074,207.7,150120,5.8,W,A*3E
#HEADINGA,COM2,0,85.0,FINE,2088,269076.900,679302,17,18;INSUFFICIENT_OBS,NONE,0.0000,0.0000,0.0000,0.0000,0.0000,0.0000,"",0,0,0,0,0,00,0,0*4f645191
#REFSTATIONA,COM2,0,90.0,UNKNOWN,0,0.000,0,679406,0;00000001,0.000,0.000,0.000,0,NONE,""*37b12d7b
$GNGGA,024419.00,3039.11521975,N,12047.31736204,E,1,09,4.2,24.0253,M,9.8180,M,,*7F
$GNRMC,024419.00,A,3039.11521975,N,12047.31736204,E,0.124,255.9,150120,5.8,W,A*37
#HEADINGA,COM2,0,85.0,FINE,2088,269077.000,679402,22,18;INSUFFICIENT_OBS,NONE,0.0000,0.0000,0.0000,0.0000,0.0000,0.0000,"",0,0,0,0,0,00,0,0*87f1d181
$GNGGA,024419.10,3039.11522950,N,12047.31741315,E,1,09,4.2,24.0470,M,9.8180,M,,*7C
$GNRMC,024419.10,A,3039.11522950,N,12047.31741315,E,0.079,287.3,150120,5.8,W,A*3F
#HEADINGA,COM2,0,85.0,FINE,2088,269077.100,679502,18,18;INSUFFICIENT_OBS,NONE,0.0000,0.0000,0.0000,0.0000,0.0000,0.0000,"",0,0,0,0,0,00,0,0*73d761a4
$GNGGA,024419.20,3039.11522927,N,12047.31743639,E,1,09,4.2,24.0484,M,9.8180,M,,*7D
$GNRMC,024419.20,A,3039.11522927,N,12047.31743639,E,0.064,284.9,150120,5.8,W,A*30
#HEADINGA,COM2,0,85.0,FINE,2088,269077.200,679602,18,18;INSUFFICIENT_OBS,NONE,0.0000,0.0000,0.0000,0.0000,0.0000,0.0000,"",0,0,0,0,0,00,0,0*1f250428
$GNGGA,024419.30,,,,,0,00,0.0,,,,,,*71
$GNRMC,024419.30,V,,,,,,,150120,0.0,E,N*06
#HEADINGA,COM2,0,85.0,FINE,2088,269077.300,679702,13,18;INSUFFICIENT_OBS,NONE,0.0000,0.0000,0.0000,0.0000,0.0000,0.0000,"",0,0,0,0,0,00,0,0*10824a8c
$GNGGA,024419.40,,,,,0,00,0.0,,,,,,*76
$GNRMC,024419.40,V,,,,,,,150120,0.0,E,N*01
#HEADINGA,COM2,0,85.0,FINE,2088,269077.400,679802,12,18;INSUFFICIENT_OBS,NONE,0.0000,0.0000,0.0000,0.0000,0.0000,0.0000,"",0,0,0,0,0,00,0,0*5911cf02
$GNGGA,024419.50,,,,,0,00,0.0,,,,,,*77
$GNRMC,024419.50,V,,,,,,,150120,0.0,E,N*00
#HEADINGA,COM2,0,85.0,FINE,2088,269077.500,679902,12,18;INSUFFICIENT_OBS,NONE,0.0000,0.0000,0.0000,0.0000,0.0000,0.0000,"",0,0,0,0,0,00,0,0*7d401386
$GNGGA,024419.60,,,,,0,00,0.0,,,,,,*74
$GNRMC,024419.60,V,,,,,,,150120,0.0,E,N*03
#HEADINGA,COM2,0,85.0,FINE,2088,269077.600,680002,12,18;INSUFFICIENT_OBS,NONE,0.0000,0.0000,0.0000,0.0000,0.0000,0.0000,"",0,0,0,0,0,00,0,0*cf6bc75c
$GNGGA,024419.70,,,,,0,00,0.0,,,,,,*75
$GNRMC,024419.70,V,,,,,,,150120,0.0,E,N*02
#HEADINGA,COM2,0,85.0,FINE,2088,269077.700,680102,12,18;INSUFFICIENT_OBS,NONE,0.0000,0.0000,0.0000,0.0000,0.0000,0.0000,"",0,0,0,0,0,00,0,0*eb3a1bd8
$GNGGA,024419.80,,,,,0,00,0.0,,,,,,*7A
$GNRMC,024419.80,V,,,,,,,150120,0.0,E,N*0D
#HEADINGA,COM2,0,85.0,FINE,2088,269077.800,680202,12,18;INSUFFICIENT_OBS,NONE,0.0000,0.0000,0.0000,0.0000,0.0000,0.0000,"",0,0,0,0,0,00,0,0*90da5a0b
$GNGGA,024419.90,,,,,0,00,0.0,,,,,,*7B
$GNRMC,024419.90,V,,,,,,,150120,0.0,E,N*0C
#HEADINGA,COM2,0,85.0,FINE,2088,269077.900,680302,12,18;INSUFFICIENT_OBS,NONE,0.0000,0.0000,0.0000,0.0000,0.0000,0.0000,"",0,0,0,0,0,00,0,0*b48b868f
#REFSTATIONA,COM2,0,90.0,UNKNOWN,0,0.000,0,680406,0;00000001,0.000,0.000,0.000,0,NONE,""*79460ae4
$GNGGA,024420.00,,,,,0,00,0.0,,,,,,*78
$GNRMC,024420.00,V,,,,,,,150120,0.0,E,N*0F
#HEADINGA,COM2,0,85.0,FINE,2088,269078.000,680402,16,18;INSUFFICIENT_OBS,NONE,0.0000,0.0000,0.0000,0.0000,0.0000,0.0000,"",0,0,0,0,0,00,0,0*301f809d
$GNGGA,024420.10,3039.11521211,N,12047.31738206,E,1,09,4.2,23.8729,M,9.8180,M,,*76
$GNRMC,024420.10,A,3039.11521211,N,12047.31738206,E,0.065,259.6,150120,5.8,W,A*3E
#HEADINGA,COM2,0,85.0,FINE,2088,269078.100,680502,17,18;INSUFFICIENT_OBS,NONE,0.0000,0.0000,0.0000,0.0000,0.0000,0.0000,"",0,0,0,0,0,00,0,0*438b1400
$GNGGA,024420.20,3039.11521106,N,12047.31735498,E,1,09,4.2,23.6878,M,9.8180,M,,*79
$GNRMC,024420.20,A,3039.11521106,N,12047.31735498,E,0.094,299.9,150120,5.8,W,A*39
#HEADINGA,COM2,0,85.0,FINE,2088,269078.200,680602,17,18;INSUFFICIENT_OBS,NONE,0.0000,0.0000,0.0000,0.0000,0.0000,0.0000,"",0,0,0,0,0,00,0,0*2f79718c
$GNGGA,024420.30,3039.11483004,N,12047.31631095,E,1,09,1.8,21.7880,M,9.8180,M,,*75
$GNRMC,024420.30,A,3039.11483004,N,12047.31631095,E,0.152,274.9,150120,5.8,W,A*36
#HEADINGA,COM2,0,85.0,FINE,2088,269078.300,680702,17,18;INSUFFICIENT_OBS,NONE,0.0000,0.0000,0.0000,0.0000,0.0000,0.0000,"",0,0,0,0,0,00,0,0*0b28ad08
$GNGGA,024420.40,3039.11471967,N,12047.31598941,E,1,09,1.8,21.1935,M,9.8179,M,,*7C
$GNRMC,024420.40,A,3039.11471967,N,12047.31598941,E,0.177,259.1,150120,5.8,W,A*30
#HEADINGA,COM2,0,85.0,FINE,2088,269078.400,680802,17,18;INSUFFICIENT_OBS,NONE,0.0000,0.0000,0.0000,0.0000,0.0000,0.0000,"",0,0,0,0,0,00,0,0*157e609f
$GNGGA,024420.50,3039.11466918,N,12047.31582748,E,1,09,1.8,20.8770,M,9.8179,M,,*78
$GNRMC,024420.50,A,3039.11466918,N,12047.31582748,E,0.214,244.7,150120,5.8,W,A*3F
#HEADINGA,COM2,0,85.0,FINE,2088,269078.500,680902,17,18;INSUFFICIENT_OBS,NONE,0.0000,0.0000,0.0000,0.0000,0.0000,0.0000,"",0,0,0,0,0,00,0,0*312fbc1b
$GNGGA,024420.60,3039.11465088,N,12047.31573326,E,1,09,1.8,20.6734,M,9.8179,M,,*74
$GNRMC,024420.60,A,3039.11465088,N,12047.31573326,E,0.187,255.5,150120,5.8,W,A*36
#HEADINGA,COM2,0,85.0,FINE,2088,269078.600,681002,17,18;INSUFFICIENT_OBS,NONE,0.0000,0.0000,0.0000,0.0000,0.0000,0.0000,"",0,0,0,0,0,00,0,0*79985174
$GNGGA,024420.70,,,,,0,00,0.0,,,,,,*7F
$GNRMC,024420.70,V,,,,,,,150120,0.0,E,N*08
#HEADINGA,COM2,0,85.0,FINE,2088,269078.700,681102,13,18;INSUFFICIENT_OBS,NONE,0.0000,0.0000,0.0000,0.0000,0.0000,0.0000,"",0,0,0,0,0,00,0,0*d9adabd5
$GNGGA,024420.80,,,,,0,00,0.0,,,,,,*70
$GNRMC,024420.80,V,,,,,,,150120,0.0,E,N*07
#HEADINGA,COM2,0,85.0,FINE,2088,269078.800,681202,12,18;INSUFFICIENT_OBS,NONE,0.0000,0.0000,0.0000,0.0000,0.0000,0.0000,"",0,0,0,0,0,00,0,0*f588a21f
$GNGGA,024420.90,3039.11463781,N,12047.31567100,E,1,09,1.8,20.5424,M,9.8179,M,,*71
$GNRMC,024420.90,A,3039.11463781,N,12047.31567100,E,0.193,246.9,150120,5.8,W,A*39
#HEADINGA,COM2,0,85.0,FINE,2088,269078.900,681302,17,18;INSUFFICIENT_OBS,NONE,0.0000,0.0000,0.0000,0.0000,0.0000,0.0000,"",0,0,0,0,0,00,0,0*027810a7
#REFSTATIONA,COM2,0,90.0,UNKNOWN,0,0.000,0,681406,0;00000001,0.000,0.000,0.000,0,NONE,""*3e55fc1f
$GNGGA,024421.00,3039.11464119,N,12047.31563200,E,1,09,1.8,20.4291,M,9.8179,M,,*77
$GNRMC,024421.00,A,3039.11464119,N,12047.31563200,E,0.143,270.2,150120,5.8,W,A*35
#HEADINGA,COM2,0,85.0,FINE,2088,269079.000,681402,22,18;INSUFFICIENT_OBS,NONE,0.0000,0.0000,0.0000,0.0000,0.0000,0.0000,"",0,0,0,0,0,00,0,0*caed90b7
$GNGGA,024421.10,3039.11464054,N,12047.31560797,E,1,09,1.8,20.3606,M,9.8179,M,,*7B
$GNRMC,024421.10,A,3039.11464054,N,12047.31560797,E,0.051,307.7,150120,5.8,W,A*32
#HEADINGA,COM2,0,85.0,FINE,2088,269079.100,681502,18,18;INSUFFICIENT_OBS,NONE,0.0000,0.0000,0.0000,0.0000,0.0000,0.0000,"",0,0,0,0,0,00,0,0*3ecb2092
$GNGGA,024421.20,,,,,0,00,0.0,,,,,,*7B
$GNRMC,024421.20,V,,,,,,,150120,0.0,E,N*0C
#HEADINGA,COM2,0,85.0,FINE,2088,269079.200,681602,13,18;INSUFFICIENT_OBS,NONE,0.0000,0.0000,0.0000,0.0000,0.0000,0.0000,"",0,0,0,0,0,00,0,0*79cfd73e
$GNGGA,024421.30,,,,,0,00,0.0,,,,,,*7A
$GNRMC,024421.30,V,,,,,,,150120,0.0,E,N*0D
#HEADINGA,COM2,0,85.0,FINE,2088,269079.300,681702,13,18;INSUFFICIENT_OBS,NONE,0.0000,0.0000,0.0000,0.0000,0.0000,0.0000,"",0,0,0,0,0,00,0,0*5d9e0bba
$GNGGA,024421.40,3039.11464883,N,12047.31557550,E,1,09,1.8,20.2716,M,9.8179,M,,*70
$GNRMC,024421.40,A,3039.11464883,N,12047.31557550,E,0.098,305.9,150120,5.8,W,A*31
#HEADINGA,COM2,0,85.0,FINE,2088,269079.400,681802,17,18;INSUFFICIENT_OBS,NONE,0.0000,0.0000,0.0000,0.0000,0.0000,0.0000,"",0,0,0,0,0,00,0,0*c7ace008
$GNGGA,024421.50,3039.11464488,N,12047.31556349,E,1,09,1.8,20.2370,M,9.8179,M,,*7D
$GNRMC,024421.50,A,3039.11464488,N,12047.31556349,E,0.057,241.3,150120,5.8,W,A*30
#HEADINGA,COM2,0,85.0,FINE,2088,269079.500,681902,17,18;INSUFFICIENT_OBS,NONE,0.0000,0.0000,0.0000,0.0000,0.0000,0.0000,"",0,0,0,0,0,00,0,0*e3fd3c8c
$GNGGA,024421.60,,,,,0,00,0.0,,,,,,*7F
$GNRMC,024421.60,V,,,,,,,150120,0.0,E,N*08
#HEADINGA,COM2,0,82.0,FINE,2088,269079.600,682002,13,18;INSUFFICIENT_OBS,NONE,0.0000,0.0000,0.0000,0.0000,0.0000,0.0000,"",0,0,0,0,0,00,0,0*0c15c6c9
$GNGGA,024421.70,,,,,0,00,0.0,,,,,,*7E
$GNRMC,024421.70,V,,,,,,,150120,0.0,E,N*09
#HEADINGA,COM2,0,82.0,FINE,2088,269079.700,682102,12,18;INSUFFICIENT_OBS,NONE,0.0000,0.0000,0.0000,0.0000,0.0000,0.0000,"",0,0,0,0,0,00,0,0*7f815254
$GNGGA,024421.80,3039.11464486,N,12047.31554103,E,1,09,1.8,20.1728,M,9.8179,M,,*7A
$GNRMC,024421.80,A,3039.11464486,N,12047.31554103,E,0.091,238.0,150120,5.8,W,A*3A
#HEADINGA,COM2,0,82.0,FINE,2088,269079.800,682202,17,18;INSUFFICIENT_OBS,NONE,0.0000,0.0000,0.0000,0.0000,0.0000,0.0000,"",0,0,0,0,0,00,0,0*d7c07dbb
$GNGGA,024421.90,,,,,0,00,0.0,,,,,,*70
$GNRMC,024421.90,V,,,,,,,150120,0.0,E,N*07
#HEADINGA,COM2,0,82.0,FINE,2088,269079.900,682302,13,18;INSUFFICIENT_OBS,NONE,0.0000,0.0000,0.0000,0.0000,0.0000,0.0000,"",0,0,0,0,0,00,0,0*77f5871a
#REFSTATIONA,COM2,0,90.0,UNKNOWN,0,0.000,0,682406,0;00000001,0.000,0.000,0.000,0,NONE,""*f761e712
$GNGGA,024422.00,,,,,0,00,0.0,,,,,,*7A
$GNRMC,024422.00,V,,,,,,,150120,0.0,E,N*0D
#HEADINGA,COM2,0,82.0,FINE,2088,269080.000,682402,16,18;INSUFFICIENT_OBS,NONE,0.0000,0.0000,0.0000,0.0000,0.0000,0.0000,"",0,0,0,0,0,00,0,0*d8e91714
$GNGGA,024422.10,,,,,0,00,0.0,,,,,,*7B
$GNRMC,024422.10,V,,,,,,,150120,0.0,E,N*0C
#HEADINGA,COM2,0,82.0,FINE,2088,269080.100,682502,13,18;INSUFFICIENT_OBS,NONE,0.0000,0.0000,0.0000,0.0000,0.0000,0.0000,"",0,0,0,0,0,00,0,0*2f19a5ac
$GNGGA,024422.20,,,,,0,00,0.0,,,,,,*78
$GNRMC,024422.20,V,,,,,,,150120,0.0,E,N*0F
#HEADINGA,COM2,0,82.0,FINE,2088,269080.200,682602,13,18;INSUFFICIENT_OBS,NONE,0.0000,0.0000,0.0000,0.0000,0.0000,0.0000,"",0,0,0,0,0,00,0,0*43ebc020
$GNGGA,024422.30,,,,,0,00,0.0,,,,,,*79
$GNRMC,024422.30,V,,,,,,,150120,0.0,E,N*0E
#HEADINGA,COM2,0,82.0,FINE,2088,269080.300,682702,12,18;INSUFFICIENT_OBS,NONE,0.0000,0.0000,0.0000,0.0000,0.0000,0.0000,"",0,0,0,0,0,00,0,0*307f54bd
$GNGGA,024422.40,,,,,0,00,0.0,,,,,,*7E
$GNRMC,024422.40,V,,,,,,,150120,0.0,E,N*09
#HEADINGA,COM2,0,82.0,FINE,2088,269080.400,682802,12,18;INSUFFICIENT_OBS,NONE,0.0000,0.0000,0.0000,0.0000,0.0000,0.0000,"",0,0,0,0,0,00,0,0*2e29992a
$GNGGA,024422.50,,,,,0,00,0.0,,,,,,*7F
$GNRMC,024422.50,V,,,,,,,150120,0.0,E,N*08
#HEADINGA,COM2,0,82.0,FINE,2088,269080.500,682902,12,18;INSUFFICIENT_OBS,NONE,0.0000,0.0000,0.0000,0.0000,0.0000,0.0000,"",0,0,0,0,0,00,0,0*0a7845ae
$GNGGA,024422.60,,,,,0,00,0.0,,,,,,*7C
$GNRMC,024422.60,V,,,,,,,150120,0.0,E,N*0B
#HEADINGA,COM2,0,82.0,FINE,2088,269080.600,683002,12,18;INSUFFICIENT_OBS,NONE,0.0000,0.0000,0.0000,0.0000,0.0000,0.0000,"",0,0,0,0,0,00,0,0*42cfa8c1
$GNGGA,024422.70,,,,,0,00,0.0,,,,,,*7D
$GNRMC,024422.70,V,,,,,,,150120,0.0,E,N*0A
#HEADINGA,COM2,0,82.0,FINE,2088,269080.700,683102,12,18;INSUFFICIENT_OBS,NONE,0.0000,0.0000,0.0000,0.0000,0.0000,0.0000,"",0,0,0,0,0,00,0,0*669e7445
$GNGGA,024422.80,,,,,0,00,0.0,,,,,,*72
$GNRMC,024422.80,V,,,,,,,150120,0.0,E,N*05
#HEADINGA,COM2,0,82.0,FINE,2088,269080.800,683202,12,18;INSUFFICIENT_OBS,NONE,0.0000,0.0000,0.0000,0.0000,0.0000,0.0000,"",0,0,0,0,0,00,0,0*1d7e3596
$GNGGA,024422.90,,,,,0,00,0.0,,,,,,*73
$GNRMC,024422.90,V,,,,,,,150120,0.0,E,N*04
#HEADINGA,COM2,0,82.0,FINE,2088,269080.900,683302,12,18;INSUFFICIENT_OBS,NONE,0.0000,0.0000,0.0000,0.0000,0.0000,0.0000,"",0,0,0,0,0,00,0,0*392fe912
#REFSTATIONA,COM2,0,90.0,UNKNOWN,0,0.000,0,683406,0;00000001,0.000,0.000,0.000,0,NONE,""*b07211e9
$GNGGA,024423.00,,,,,0,00,0.0,,,,,,*7B
$GNRMC,024423.00,V,,,,,,,150120,0.0,E,N*0C
#HEADINGA,COM2,0,82.0,FINE,2088,269081.000,683402,16,18;INSUFFICIENT_OBS,NONE,0.0000,0.0000,0.0000,0.0000,0.0000,0.0000,"",0,0,0,0,0,00,0,0*0a3b9783
$GNGGA,024423.10,,,,,0,00,0.0,,,,,,*7A
$GNRMC,024423.10,V,,,,,,,150120,0.0,E,N*0D
#HEADINGA,COM2,0,82.0,FINE,2088,269081.100,683502,13,18;INSUFFICIENT_OBS,NONE,0.0000,0.0000,0.0000,0.0000,0.0000,0.0000,"",0,0,0,0,0,00,0,0*fdcb253b
$GNGGA,024423.20,,,,,0,00,0.0,,,,,,*79
$GNRMC,024423.20,V,,,,,,,150120,0.0,E,N*0E
#HEADINGA,COM2,0,82.0,FINE,2088,269081.200,683602,13,18;INSUFFICIENT_OBS,NONE,0.0000,0.0000,0.0000,0.0000,0.0000,0.0000,"",0,0,0,0,0,00,0,0*913940b7
$GNGGA,024423.30,3039.11462346,N,12047.31551370,E,1,09,4.2,20.1493,M,9.8179,M,,*71
$GNRMC,024423.30,A,3039.11462346,N,12047.31551370,E,0.126,252.7,150120,5.8,W,A*3B
#HEADINGA,COM2,0,82.0,FINE,2088,269081.300,683702,17,18;INSUFFICIENT_OBS,NONE,0.0000,0.0000,0.0000,0.0000,0.0000,0.0000,"",0,0,0,0,0,00,0,0*310cba16
$GNGGA,024423.40,3039.11462177,N,12047.31556364,E,1,09,4.2,20.1632,M,9.8179,M,,*7D
$GNRMC,024423.40,A,3039.11462177,N,12047.31556364,E,0.142,128.9,150120,5.8,W,A*3C
#HEADINGA,COM2,0,82.0,FINE,2088,269081.400,683802,17,18;INSUFFICIENT_OBS,NONE,0.0000,0.0000,0.0000,0.0000,0.0000,0.0000,"",0,0,0,0,0,00,0,0*2f5a7781
$GNGGA,024423.50,3039.11462953,N,12047.31559783,E,1,09,4.2,20.1474,M,9.8179,M,,*70
$GNRMC,024423.50,A,3039.11462953,N,12047.31559783,E,0.177,89.2,150120,5.8,W,A*06
#HEADINGA,COM2,0,82.0,FINE,2088,269081.500,683902,17,18;INSUFFICIENT_OBS,NONE,0.0000,0.0000,0.0000,0.0000,0.0000,0.0000,"",0,0,0,0,0,00,0,0*0b0bab05
$GNGGA,024423.60,3039.11463064,N,12047.31561852,E,1,09,4.2,20.1613,M,9.8179,M,,*74
$GNRMC,024423.60,A,3039.11463064,N,12047.31561852,E,0.116,74.7,150120,5.8,W,A*01
#HEADINGA,COM2,0,82.0,FINE,2088,269081.600,684002,17,18;INSUFFICIENT_OBS,NONE,0.0000,0.0000,0.0000,0.0000,0.0000,0.0000,"",0,0,0,0,0,00,0,0*c05016f7
$GNGGA,024423.70,3039.11463162,N,12047.31563090,E,1,09,4.2,20.1566,M,9.8179,M,,*77
$GNRMC,024423.70,A,3039.11463162,N,12047.31563090,E,0.053,34.4,150120,5.8,W,A*04
#HEADINGA,COM2,0,82.0,FINE,2088,269081.700,684102,17,18;INSUFFICIENT_OBS,NONE,0.0000,0.0000,0.0000,0.0000,0.0000,0.0000,"",0,0,0,0,0,00,0,0*e401ca73
