
$GNGGA,063841.10,3039.10579764,N,12047.28095949,E,4,35,0.5,4.5201,M,9.8161,M,09,0*75
$GNRMC,063841.10,A,3039.10579764,N,12047.28095949,E,0.018,32.4,170120,5.8,W,D*05
#HEADINGA,COM2,0,46.0,FINE,2088,455939.100,2001486,18,18;SOL_COMPUTED,NARROW_INT,0.4309,162.2849,-16.3017,0.0000,0.5777,1.1143,"999",37,34,34,21,3,01,3,f3*d331a455
$GNGGA,063841.20,3039.10579779,N,12047.28095845,E,4,35,0.5,4.5211,M,9.8161,M,09,0*76
$GNRMC,063841.20,A,3039.10579779,N,12047.28095845,E,0.033,279.1,170120,5.8,W,D*36
#HEADINGA,COM2,0,46.0,FINE,2088,455939.200,2001587,19,18;SOL_COMPUTED,NARROW_INT,0.4315,161.6805,-15.6176,0.0000,0.5748,1.1148,"999",37,34,34,21,3,01,3,f3*a4fc1587
$GNGGA,063841.30,3039.10579731,N,12047.28095815,E,4,35,0.5,4.5239,M,9.8161,M,08,0*75
$GNRMC,063841.30,A,3039.10579731,N,12047.28095815,E,0.019,208.4,170120,5.8,W,D*35
#HEADINGA,COM2,0,46.0,FINE,2088,455939.300,2001686,18,18;SOL_COMPUTED,NARROW_INT,0.4351,161.4265,-15.4779,0.0000,0.5695,1.1059,"999",37,34,34,21,3,01,3,f3*9efda764
$GNGGA,063841.40,3039.10579689,N,12047.28095785,E,4,35,0.5,4.5215,M,9.8161,M,08,0*78
$GNRMC,063841.40,A,3039.10579689,N,12047.28095785,E,0.018,211.3,170120,5.8,W,D*38
#HEADINGA,COM2,0,46.0,FINE,2088,455939.400,2001786,18,18;SOL_COMPUTED,NARROW_INT,0.4337,161.8488,-16.6309,0.0000,0.5752,1.1068,"999",37,34,34,21,3,01,3,f3*6e437d30
$GNGGA,063841.50,3039.10579729,N,12047.28095691,E,4,35,0.5,4.5153,M,9.8161,M,08,0*77
$GNRMC,063841.50,A,3039.10579729,N,12047.28095691,E,0.032,296.3,170120,5.8,W,D*31
#HEADINGA,COM2,0,46.0,FINE,2088,455939.500,2001886,18,18;SOL_COMPUTED,NARROW_INT,0.4350,161.7174,-15.7867,0.0000,0.5717,1.1068,"999",37,34,34,21,3,01,3,f3*381ffb18
$GNGGA,063841.60,3039.10579890,N,12047.28095969,E,4,35,0.5,4.5161,M,9.8161,M,08,0*70
$GNRMC,063841.60,A,3039.10579890,N,12047.28095969,E,0.104,56.1,170120,5.8,W,D*0F
#HEADINGA,COM2,0,46.0,FINE,2088,455939.600,2001986,17,18;SOL_COMPUTED,NARROW_INT,0.4345,161.6493,-14.8181,0.0000,0.5696,1.1106,"999",37,34,34,21,3,01,3,f3*e0ffe8f8
$GNGGA,063841.70,3039.10579910,N,12047.28095630,E,4,35,0.5,4.5103,M,9.8161,M,08,0*7F
$GNRMC,063841.70,A,3039.10579910,N,12047.28095630,E,0.105,273.8,170120,5.8,W,D*39
#HEADINGA,COM2,0,46.0,FINE,2088,455939.700,2002085,21,18;SOL_COMPUTED,NARROW_INT,0.4341,161.3874,-14.3459,0.0000,0.5687,1.1127,"999",37,34,34,21,3,01,3,f3*d777b210
$GNGGA,063841.80,3039.10579868,N,12047.28095724,E,4,35,0.5,4.5142,M,9.8161,M,08,0*7F
$GNRMC,063841.80,A,3039.10579868,N,12047.28095724,E,0.033,117.0,170120,5.8,W,D*31
#HEADINGA,COM2,0,46.0,FINE,2088,455939.800,2002186,17,18;SOL_COMPUTED,NARROW_INT,0.4344,161.6193,-14.9257,0.0000,0.5699,1.1104,"999",37,34,34,21,3,01,3,f3*0f2076b3
$GNGGA,063841.90,3039.10579838,N,12047.28095677,E,4,35,0.5,4.5161,M,9.8161,M,08,0*7D
$GNRMC,063841.90,A,3039.10579838,N,12047.28095677,E,0.018,233.1,170120,5.8,W,D*3F
#HEADINGA,COM2,0,46.0,FINE,2088,455939.900,2002285,17,18;SOL_COMPUTED,NARROW_INT,0.4347,161.7620,-15.3535,0.0000,0.5708,1.1085,"999",37,34,34,21,3,01,3,f3*18beb874
#REFSTATIONA,COM2,0,46.0,FINE,2088,455929.000,2001587,803,18;00000000,-2811044.342,4717820.352,3232735.546,0,RTCMV3,"0000"*458c64f4
$GNGGA,063842.00,3039.10579865,N,12047.28095722,E,4,35,0.5,4.5161,M,9.8161,M,09,0*7F
$GNRMC,063842.00,A,3039.10579865,N,12047.28095722,E,0.017,55.4,170120,5.8,W,D*04
#HEADINGA,COM2,0,46.0,FINE,2088,455940.000,2002386,23,18;SOL_COMPUTED,NARROW_INT,0.4338,161.5737,-14.9673,0.0000,0.5706,1.1115,"999",37,34,34,21,3,01,3,f3*62ae1dbe
$GNGGA,063842.10,3039.10579898,N,12047.28095803,E,4,35,0.5,4.5142,M,9.8161,M,09,0*71
$GNRMC,063842.10,A,3039.10579898,N,12047.28095803,E,0.028,64.7,170120,5.8,W,D*06
#HEADINGA,COM2,0,46.0,FINE,2088,455940.100,2002486,18,18;SOL_COMPUTED,NARROW_INT,0.4339,161.8247,-15.4628,0.0000,0.5721,1.1095,"999",37,34,34,21,3,01,3,f3*6d35ffdf
$GNGGA,063842.20,3039.10579891,N,12047.28095791,E,4,35,0.5,4.5096,M,9.8161,M,09,0*77
$GNRMC,063842.20,A,3039.10579891,N,12047.28095791,E,0.005,238.0,170120,5.8,W,D*3B
#HEADINGA,COM2,0,46.0,FINE,2088,455940.200,2002587,19,18;SOL_COMPUTED,NARROW_INT,0.4321,162.0219,-14.6106,0.0000,0.5724,1.1168,"999",37,34,34,21,3,01,3,f3*87a7bee5
$GNGGA,063842.30,3039.10579887,N,12047.28095915,E,4,35,0.5,4.5174,M,9.8161,M,08,0*7F
$GNRMC,063842.30,A,3039.10579887,N,12047.28095915,E,0.039,92.0,170120,5.8,W,D*02
#HEADINGA,COM2,0,46.0,FINE,2088,455940.300,2002686,18,18;SOL_COMPUTED,NARROW_INT,0.4321,161.9302,-15.4533,0.0000,0.5745,1.1137,"999",37,34,34,21,3,01,3,f3*b57eac45
$GNGGA,063842.40,3039.10579783,N,12047.28095833,E,4,35,0.5,4.5166,M,9.8161,M,08,0*75
$GNRMC,063842.40,A,3039.10579783,N,12047.28095833,E,0.045,214.1,170120,5.8,W,D*3D
#HEADINGA,COM2,0,46.0,FINE,2088,455940.400,2002786,18,18;SOL_COMPUTED,NARROW_INT,0.4313,161.4442,-14.9927,0.0000,0.5739,1.1176,"999",37,34,34,21,3,01,3,f3*eaa32af9
$GNGGA,063842.50,3039.10579907,N,12047.28095792,E,4,35,0.5,4.5146,M,9.8161,M,08,0*70
$GNRMC,063842.50,A,3039.10579907,N,12047.28095792,E,0.046,344.3,170120,5.8,W,D*3F
#HEADINGA,COM2,0,46.0,FINE,2088,455940.500,2002886,17,18;SOL_COMPUTED,NARROW_INT,0.4355,161.3943,-14.8705,0.0000,0.5678,1.1053,"999",37,34,34,21,3,01,3,f3*ce23445a
$GNGGA,063842.60,3039.10579737,N,12047.28095760,E,4,35,0.5,4.5087,M,9.8161,M,08,0*7F
$GNRMC,063842.60,A,3039.10579737,N,12047.28095760,E,0.062,189.3,170120,5.8,W,D*39
#HEADINGA,COM2,0,46.0,FINE,2088,455940.600,2002986,18,18;SOL_COMPUTED,NARROW_INT,0.4336,162.0536,-15.3457,0.0000,0.5723,1.1093,"999",37,34,34,21,3,01,3,f3*2309f631
$GNGGA,063842.70,3039.10579798,N,12047.28095765,E,4,35,0.5,4.5119,M,9.8161,M,08,0*78
$GNRMC,063842.70,A,3039.10579798,N,12047.28095765,E,0.022,3.6,170120,5.8,W,D*3A
#HEADINGA,COM2,0,30.0,FINE,2088,455940.700,2003086,18,18;SOL_COMPUTED,NARROW_INT,0.4327,162.1252,-14.8121,0.0000,0.5721,1.1134,"999",37,34,34,21,3,01,3,f3*97fc5f56
$GNGGA,063842.80,3039.10579764,N,12047.28095866,E,4,35,0.5,4.5138,M,9.8161,M,08,0*7B
$GNRMC,063842.80,A,3039.10579764,N,12047.28095866,E,0.034,111.3,170120,5.8,W,D*3A
#HEADINGA,COM2,0,30.0,FINE,2088,455940.800,2003185,18,18;SOL_COMPUTED,NARROW_INT,0.4321,161.3852,-14.5813,0.0000,0.5716,1.1154,"999",37,34,34,21,3,01,3,f3*83e641be
$GNGGA,063842.90,3039.10579937,N,12047.28095833,E,4,35,0.5,4.5162,M,9.8161,M,08,0*7D
$GNRMC,063842.90,A,3039.10579937,N,12047.28095833,E,0.063,350.6,170120,5.8,W,D*33
#HEADINGA,COM2,0,30.0,FINE,2088,455940.900,2003285,21,18;SOL_COMPUTED,NARROW_INT,0.4332,162.1983,-15.7973,0.0000,0.5729,1.1085,"999",37,34,34,21,3,01,3,f3*bfdd1044
#REFSTATIONA,COM2,0,46.0,FINE,2088,455929.000,2002587,803,18;00000000,-2811044.342,4717820.352,3232735.546,0,RTCMV3,"0000"*86a986a7
$GNGGA,063843.00,3039.10579909,N,12047.28095702,E,4,35,0.5,4.5254,M,9.8161,M,09,0*72
$GNRMC,063843.00,A,3039.10579909,N,12047.28095702,E,0.042,256.1,170120,5.8,W,D*38
#HEADINGA,COM2,0,30.0,FINE,2088,455941.000,2003386,23,18;SOL_COMPUTED,NARROW_INT,0.4349,161.9270,-15.0971,0.0000,0.5687,1.1056,"999",37,34,34,21,3,01,3,f3*6de0da9d
$GNGGA,063843.10,3039.10579946,N,12047.28095887,E,4,35,0.5,4.5192,M,9.8161,M,09,0*73
$GNRMC,063843.10,A,3039.10579946,N,12047.28095887,E,0.059,77.0,170120,5.8,W,D*0A
#HEADINGA,COM2,0,30.0,FINE,2088,455941.100,2003486,17,18;SOL_COMPUTED,NARROW_INT,0.4330,161.9143,-14.5880,0.0000,0.5707,1.1125,"999",37,34,34,21,3,01,3,f3*af168702
$GNGGA,063843.20,3039.10579922,N,12047.28095716,E,4,35,0.5,4.5089,M,9.8161,M,09,0*7E
$GNRMC,063843.20,A,3039.10579922,N,12047.28095716,E,0.054,260.7,170120,5.8,W,D*32
#HEADINGA,COM2,0,30.0,FINE,2088,455941.200,2003587,18,18;SOL_COMPUTED,NARROW_INT,0.4333,162.0037,-14.9676,0.0000,0.5705,1.1099,"999",37,34,34,21,3,01,3,f3*1563ad92
$GNGGA,063843.30,3039.10579921,N,12047.28095659,E,4,35,0.5,4.5170,M,9.8161,M,09,0*71
$GNRMC,063843.30,A,3039.10579921,N,12047.28095659,E,0.018,269.1,170120,5.8,W,D*3D
#HEADINGA,COM2,0,30.0,FINE,2088,455941.300,2003686,17,18;SOL_COMPUTED,NARROW_INT,0.4304,161.4652,-15.4027,0.0000,0.5749,1.1166,"999",37,34,34,21,3,01,3,f3*51cc853b
$GNGGA,063843.40,3039.10579797,N,12047.28095755,E,4,35,0.5,4.5191,M,9.8161,M,09,0*77
$GNRMC,063843.40,A,3039.10579797,N,12047.28095755,E,0.054,146.3,170120,5.8,W,D*30
#HEADINGA,COM2,0,30.0,FINE,2088,455941.400,2003786,17,18;SOL_COMPUTED,NARROW_INT,0.4320,161.9173,-15.0683,0.0000,0.5723,1.1136,"999",37,34,34,21,3,01,3,f3*a719d3ab
$GNGGA,063843.50,3039.10579832,N,12047.28095663,E,4,35,0.5,4.5152,M,9.8161,M,09,0*7D
$GNRMC,063843.50,A,3039.10579832,N,12047.28095663,E,0.031,294.2,170120,5.8,W,D*3B
#HEADINGA,COM2,0,30.0,FINE,2088,455941.500,2003886,17,18;SOL_COMPUTED,NARROW_INT,0.4342,161.7226,-15.1810,0.0000,0.5717,1.1100,"999",37,34,34,21,3,01,3,f3*79a2dfde
$GNGGA,063843.60,3039.10580022,N,12047.28095677,E,4,35,0.5,4.5110,M,9.8161,M,09,0*72
$GNRMC,063843.60,A,3039.10580022,N,12047.28095677,E,0.068,3.8,170120,5.8,W,D*38
#HEADINGA,COM2,0,30.0,FINE,2088,455941.600,2003986,17,18;SOL_COMPUTED,NARROW_INT,0.4342,161.3809,-14.6409,0.0000,0.5699,1.1113,"999",37,34,34,21,3,01,3,f3*5b95a4ac
$GNGGA,063843.70,3039.10579891,N,12047.28095717,E,4,35,0.5,4.5122,M,9.8161,M,09,0*73
$GNRMC,063843.70,A,3039.10579891,N,12047.28095717,E,0.049,165.2,170120,5.8,W,D*30
#HEADINGA,COM2,0,30.0,FINE,2088,455941.700,2004085,17,18;SOL_COMPUTED,NARROW_INT,0.4306,161.7827,-14.9234,0.0000,0.5744,1.1193,"999",37,34,34,21,3,01,3,f3*13091f95
$GNGGA,063843.80,3039.10579932,N,12047.28095690,E,4,35,0.5,4.5179,M,9.8161,M,09,0*74
$GNRMC,063843.80,A,3039.10579932,N,12047.28095690,E,0.017,330.3,170120,5.8,W,D*31
#HEADINGA,COM2,0,30.0,FINE,2088,455941.800,2004185,17,18;SOL_COMPUTED,NARROW_INT,0.4326,161.8872,-15.8166,0.0000,0.5745,1.1123,"999",37,34,34,21,3,01,3,f3*8f17e3bf
$GNGGA,063843.90,3039.10579991,N,12047.28095854,E,4,35,0.5,4.5126,M,9.8161,M,09,0*70
$GNRMC,063843.90,A,3039.10579991,N,12047.28095854,E,0.055,67.4,170120,5.8,W,D*0F
#HEADINGA,COM2,0,30.0,FINE,2088,455941.900,2004285,17,18;SOL_COMPUTED,NARROW_INT,0.4315,162.1250,-15.5868,0.0000,0.5763,1.1159,"999",37,34,34,21,3,01,3,f3*6b1d3cf1
#REFSTATIONA,COM2,0,46.0,FINE,2088,455929.000,2002587,1802,18;00000000,-2811044.342,4717820.352,3232735.546,0,RTCMV3,"0000"*8e7e53a4
$GNGGA,063844.00,3039.10580003,N,12047.28095822,E,4,35,0.5,4.5133,M,9.8161,M,10,0*77
$GNRMC,063844.00,A,3039.10580003,N,12047.28095822,E,0.011,293.2,170120,5.8,W,D*3B
#HEADINGA,COM2,0,30.0,FINE,2088,455942.000,2004385,23,18;SOL_COMPUTED,NARROW_INT,0.4319,161.4457,-14.3157,0.0000,0.5714,1.1164,"999",37,34,34,21,3,01,3,f3*9affc63b
$GNGGA,063844.10,3039.10579931,N,12047.28095821,E,4,35,0.5,4.5143,M,9.8161,M,10,0*7C
$GNRMC,063844.10,A,3039.10579931,N,12047.28095821,E,0.026,180.8,170120,5.8,W,D*38
#HEADINGA,COM2,0,30.0,FINE,2088,455942.100,2004486,17,18;SOL_COMPUTED,NARROW_INT,0.4309,161.9102,-14.3718,0.0000,0.5729,1.1178,"999",37,34,34,21,3,01,3,f3*1399563b
$GNGGA,063844.20,3039.10579942,N,12047.28095670,E,4,35,0.5,4.5134,M,9.8161,M,10,0*71
$GNRMC,063844.20,A,3039.10579942,N,12047.28095670,E,0.047,274.8,170120,5.8,W,D*3A
#HEADINGA,COM2,0,30.0,FINE,2088,455942.200,2004587,17,18;SOL_COMPUTED,NARROW_INT,0.4299,161.8625,-15.4170,0.0000,0.5780,1.1190,"999",37,34,34,21,3,01,3,f3*b2afd547
$GNGGA,063844.30,3039.10580033,N,12047.28095760,E,4,35,0.5,4.5080,M,9.8161,M,10,0*77
$GNRMC,063844.30,A,3039.10580033,N,12047.28095760,E,0.043,40.4,170120,5.8,W,D*0F
#HEADINGA,COM2,0,30.0,FINE,2088,455942.300,2004685,17,18;SOL_COMPUTED,NARROW_INT,0.4339,161.9143,-14.9092,0.0000,0.5712,1.1099,"999",37,34,34,21,3,01,3,f3*d639a967
$GNGGA,063844.40,3039.10580062,N,12047.28095853,E,4,35,0.5,4.5144,M,9.8161,M,10,0*72
$GNRMC,063844.40,A,3039.10580062,N,12047.28095853,E,0.030,70.3,170120,5.8,W,D*03
#HEADINGA,COM2,0,30.0,FINE,2088,455942.400,2004785,17,18;SOL_COMPUTED,NARROW_INT,0.4343,161.8270,-15.0316,0.0000,0.5707,1.1078,"999",37,34,34,21,3,01,3,f3*5d087156
$GNGGA,063844.50,3039.10579942,N,12047.28095929,E,4,35,0.5,4.5116,M,9.8161,M,10,0*75
$GNRMC,063844.50,A,3039.10579942,N,12047.28095929,E,0.049,151.2,170120,5.8,W,D*3E
#HEADINGA,COM2,0,30.0,FINE,2088,455942.500,2004886,17,18;SOL_COMPUTED,NARROW_INT,0.4333,162.7232,-16.1320,0.0000,0.5762,1.1095,"999",37,34,34,21,3,01,3,f3*b4a1eaa8
$GNGGA,063844.60,3039.10579885,N,12047.28095727,E,4,35,0.5,4.5104,M,9.8161,M,10,0*7F
$GNRMC,063844.60,A,3039.10579885,N,12047.28095727,E,0.066,252.0,170120,5.8,W,D*38
#HEADINGA,COM2,0,30.0,FINE,2088,455942.600,2004985,17,18;SOL_COMPUTED,NARROW_INT,0.4316,161.9211,-14.9079,0.0000,0.5743,1.1156,"999",37,34,34,21,3,01,3,f3*60c17f73
$GNGGA,063844.70,3039.10579831,N,12047.28095931,E,4,35,0.5,4.5168,M,9.8161,M,10,0*72
$GNRMC,063844.70,A,3039.10579831,N,12047.28095931,E,0.066,107.1,170120,5.8,W,D*3D
#HEADINGA,COM2,0,30.0,FINE,2088,455942.700,2005085,17,18;SOL_COMPUTED,NARROW_INT,0.4328,162.2552,-15.4306,0.0000,0.5736,1.1109,"999",37,34,34,21,3,01,3,f3*72c3c142
$GNGGA,063844.80,3039.10580034,N,12047.28095845,E,4,35,0.5,4.5100,M,9.8161,M,10,0*7A
$GNRMC,063844.80,A,3039.10580034,N,12047.28095845,E,0.078,339.8,170120,5.8,W,D*32
#HEADINGA,COM2,0,30.0,FINE,2088,455942.800,2005185,17,18;SOL_COMPUTED,NARROW_INT,0.4331,162.0723,-15.7002,0.0000,0.5737,1.1083,"999",37,34,34,21,3,01,3,f3*cfb601c5
$GNGGA,063844.90,3039.10580051,N,12047.28095838,E,4,35,0.5,4.5118,M,9.8161,M,10,0*7B
$GNRMC,063844.90,A,3039.10580051,N,12047.28095838,E,0.006,339.7,170120,5.8,W,D*3C
#HEADINGA,COM2,0,30.0,FINE,2088,455942.900,2005285,17,18;SOL_COMPUTED,NARROW_INT,0.4340,162.1231,-16.0622,0.0000,0.5735,1.1042,"999",37,34,34,21,3,01,3,f3*e42cc510
#REFSTATIONA,COM2,0,46.0,FINE,2088,455929.000,2002587,2803,18;00000000,-2811044.342,4717820.352,3232735.546,0,RTCMV3,"0000"*63e97c7e
$GNGGA,063845.00,3039.10579893,N,12047.28095952,E,4,35,0.5,4.5086,M,9.8161,M,11,0*79
$GNRMC,063845.00,A,3039.10579893,N,12047.28095952,E,0.067,147.9,170120,5.8,W,D*3B
#HEADINGA,COM2,0,30.0,FINE,2088,455943.000,2005386,22,18;SOL_COMPUTED,NARROW_INT,0.4284,162.2418,-15.8996,0.0000,0.5808,1.1195,"999",37,34,34,21,3,01,3,f3*548b0649
$GNGGA,063845.10,3039.10580006,N,12047.28095811,E,4,35,0.5,4.5147,M,9.8161,M,11,0*70
$GNRMC,063845.10,A,3039.10580006,N,12047.28095811,E,0.060,312.9,170120,5.8,W,D*3B
#HEADINGA,COM2,0,30.0,FINE,2088,455943.100,2005486,18,18;SOL_COMPUTED,NARROW_INT,0.4327,162.3464,-15.3638,0.0000,0.5728,1.1103,"999",37,34,34,21,3,01,3,f3*5d6d0cc2
$GNGGA,063845.20,3039.10579907,N,12047.28095902,E,4,35,0.5,4.5192,M,9.8161,M,11,0*76
$GNRMC,063845.20,A,3039.10579907,N,12047.28095902,E,0.045,141.6,170120,5.8,W,D*39
#HEADINGA,COM2,0,30.0,FINE,2088,455943.200,2005587,19,18;SOL_COMPUTED,NARROW_INT,0.4330,162.3080,-15.4311,0.0000,0.5733,1.1094,"999",37,34,34,21,3,01,3,f3*09c1db88
$GNGGA,063845.30,3039.10579951,N,12047.28095714,E,4,35,0.5,4.5144,M,9.8161,M,10,0*77
$GNRMC,063845.30,A,3039.10579951,N,12047.28095714,E,0.060,285.0,170120,5.8,W,D*38
#HEADINGA,COM2,0,30.0,FINE,2088,455943.300,2005686,18,18;SOL_COMPUTED,NARROW_INT,0.4315,161.8938,-15.8106,0.0000,0.5761,1.1123,"999",37,34,34,21,3,01,3,f3*39f069fa
$GNGGA,063845.40,3039.10579968,N,12047.28095796,E,4,35,0.5,4.5099,M,9.8161,M,10,0*71
$GNRMC,063845.40,A,3039.10579968,N,12047.28095796,E,0.026,76.4,170120,5.8,W,D*07
#HEADINGA,COM2,0,30.0,FINE,2088,455943.400,2005786,17,18;SOL_COMPUTED,NARROW_INT,0.4319,162.1338,-16.6278,0.0000,0.5779,1.1089,"999",37,34,34,21,3,01,3,f3*8b77efff
$GNGGA,063845.50,3039.10579986,N,12047.28095863,E,4,35,0.5,4.5074,M,9.8161,M,10,0*76
$GNRMC,063845.50,A,3039.10579986,N,12047.28095863,E,0.022,73.5,170120,5.8,W,D*03
#HEADINGA,COM2,0,30.0,FINE,2088,455943.500,2005886,17,18;SOL_COMPUTED,NARROW_INT,0.4320,161.9630,-15.6088,0.0000,0.5747,1.1118,"999",37,34,34,21,3,01,3,f3*56e64a8d
$GNGGA,063845.60,3039.10579984,N,12047.28095900,E,4,35,0.5,4.5126,M,9.8161,M,10,0*75
$GNRMC,063845.60,A,3039.10579984,N,12047.28095900,E,0.011,93.6,170120,5.8,W,D*0B
#HEADINGA,COM2,0,30.0,FINE,2088,455943.600,2005986,17,18;SOL_COMPUTED,NARROW_INT,0.4346,162.1159,-15.1678,0.0000,0.5703,1.1080,"999",37,34,34,21,3,01,3,f3*d7503d31
$GNGGA,063845.70,3039.10580008,N,12047.28095678,E,4,35,0.5,4.5085,M,9.8161,M,10,0*77
$GNRMC,063845.70,A,3039.10580008,N,12047.28095678,E,0.070,277.3,170120,5.8,W,D*3B
#HEADINGA,COM2,0,57.0,FINE,2088,455943.700,2006086,16,18;SOL_COMPUTED,NARROW_INT,0.4323,161.9207,-15.3648,0.0000,0.5738,1.1136,"999",37,34,34,21,3,01,3,f3*17166f56
$GNGGA,063845.80,3039.10580020,N,12047.28095755,E,4,35,0.5,4.5086,M,9.8161,M,10,0*7F
$GNRMC,063845.80,A,3039.10580020,N,12047.28095755,E,0.024,80.1,170120,5.8,W,D*09
#HEADINGA,COM2,0,57.0,FINE,2088,455943.800,2006185,18,18;SOL_COMPUTED,NARROW_INT,0.4368,162.1759,-15.4524,0.0000,0.5682,1.1007,"999",37,34,34,21,3,01,3,f3*ab546a68
$GNGGA,063845.90,3039.10579971,N,12047.28095761,E,4,35,0.5,4.5065,M,9.8161,M,10,0*7F
$GNRMC,063845.90,A,3039.10579971,N,12047.28095761,E,0.018,173.8,170120,5.8,W,D*3F
#HEADINGA,COM2,0,57.0,FINE,2088,455943.900,2006286,17,18;SOL_COMPUTED,NARROW_INT,0.4306,162.5732,-16.6005,0.0000,0.5808,1.1135,"999",37,34,34,21,3,01,3,f3*8b6e0076
#REFSTATIONA,COM2,0,30.0,FINE,2088,455929.000,2005587,803,18;00000000,-2811044.342,4717820.352,3232735.546,0,RTCMV3,"0000"*0a7e8b2f
$GNGGA,063846.00,3039.10579929,N,12047.28096028,E,4,35,0.5,4.5174,M,9.8161,M,11,0*71
$GNRMC,063846.00,A,3039.10579929,N,12047.28096028,E,0.084,100.4,170120,5.8,W,D*3C
#HEADINGA,COM2,0,57.0,FINE,2088,455944.000,2006386,23,18;SOL_COMPUTED,NARROW_INT,0.4346,161.8614,-15.2822,0.0000,0.5722,1.1083,"999",37,34,34,21,3,01,3,f3*ec9675e9
$GNGGA,063846.10,3039.10580005,N,12047.28095813,E,4,35,0.5,4.5123,M,9.8161,M,11,0*70
$GNRMC,063846.10,A,3039.10580005,N,12047.28095813,E,0.072,292.2,170120,5.8,W,D*38
#HEADINGA,COM2,0,57.0,FINE,2088,455944.100,2006486,17,18;SOL_COMPUTED,NARROW_INT,0.4333,161.5413,-14.8179,0.0000,0.5729,1.1131,"999",37,34,34,21,3,01,3,f3*bfb818cb
$GNGGA,063846.20,3039.10579912,N,12047.28095974,E,4,35,0.5,4.5084,M,9.8161,M,11,0*76
$GNRMC,063846.20,A,3039.10579912,N,12047.28095974,E,0.060,123.7,170120,5.8,W,D*3D
#HEADINGA,COM2,0,57.0,FINE,2088,455944.200,2006587,18,18;SOL_COMPUTED,NARROW_INT,0.4309,162.2492,-15.6831,0.0000,0.5791,1.1177,"999",37,34,34,21,3,01,3,f3*b95abff9
$GNGGA,063846.30,3039.10579982,N,12047.28095791,E,4,35,0.5,4.5116,M,9.8161,M,11,0*71
$GNRMC,063846.30,A,3039.10579982,N,12047.28095791,E,0.062,294.0,170120,5.8,W,D*3A
#HEADINGA,COM2,0,57.0,FINE,2088,455944.300,2006686,18,18;SOL_COMPUTED,NARROW_INT,0.4342,161.4425,-15.1496,0.0000,0.5722,1.1096,"999",37,34,34,21,3,01,3,f3*4e368980
$GNGGA,063846.40,3039.10579831,N,12047.28095803,E,4,35,0.5,4.5134,M,9.8161,M,11,0*7B
$GNRMC,063846.40,A,3039.10579831,N,12047.28095803,E,0.054,176.2,170120,5.8,W,D*38
#HEADINGA,COM2,0,57.0,FINE,2088,455944.400,2006786,18,18;SOL_COMPUTED,NARROW_INT,0.4312,162.2355,-16.6494,0.0000,0.5813,1.1128,"999",37,34,34,21,3,01,3,f3*e32d2955
$GNGGA,063846.50,3039.10580017,N,12047.28095896,E,4,35,0.5,4.5087,M,9.8161,M,11,0*75
$GNRMC,063846.50,A,3039.10580017,N,12047.28095896,E,0.073,23.3,170120,5.8,W,D*0A
#HEADINGA,COM2,0,57.0,FINE,2088,455944.500,2006886,18,18;SOL_COMPUTED,NARROW_INT,0.4301,161.9001,-15.0284,0.0000,0.5767,1.1192,"999",37,34,34,21,3,01,3,f3*bd92b56d
$GNGGA,063846.60,3039.10579932,N,12047.28095971,E,4,35,0.5,4.5184,M,9.8161,M,11,0*74
$GNRMC,063846.60,A,3039.10579932,N,12047.28095971,E,0.038,142.7,170120,5.8,W,D*34
#HEADINGA,COM2,0,57.0,FINE,2088,455944.600,2006986,18,18;SOL_COMPUTED,NARROW_INT,0.4318,162.0742,-15.8860,0.0000,0.5765,1.1119,"999",37,34,34,21,3,01,3,f3*335ab16d
$GNGGA,063846.70,3039.10579977,N,12047.28095887,E,4,35,0.5,4.5067,M,9.8161,M,11,0*70
$GNRMC,063846.70,A,3039.10579977,N,12047.28095887,E,0.031,301.7,170120,5.8,W,D*30
#HEADINGA,COM2,0,57.0,FINE,2088,455944.700,2007086,17,18;SOL_COMPUTED,NARROW_INT,0.4340,162.1587,-15.2129,0.0000,0.5719,1.1078,"999",37,34,34,21,3,01,3,f3*77e12b6b
$GNGGA,063846.80,3039.10579970,N,12047.28095897,E,4,35,0.5,4.5128,M,9.8161,M,11,0*73
$GNRMC,063846.80,A,3039.10579970,N,12047.28095897,E,0.004,127.8,170120,5.8,W,D*36
#HEADINGA,COM2,0,57.0,FINE,2088,455944.800,2007186,20,18;SOL_COMPUTED,NARROW_INT,0.4322,161.9492,-15.0916,0.0000,0.5737,1.1125,"999",37,34,34,21,3,01,3,f3*90090316
$GNGGA,063846.90,3039.10579960,N,12047.28095715,E,4,35,0.5,4.5097,M,9.8161,M,11,0*73
$GNRMC,063846.90,A,3039.10579960,N,12047.28095715,E,0.056,266.4,170120,5.8,W,D*3E
#HEADINGA,COM2,0,57.0,FINE,2088,455944.900,2007285,18,18;SOL_COMPUTED,NARROW_INT,0.4318,162.4286,-14.8338,0.0000,0.5739,1.1139,"999",37,34,34,21,3,01,3,f3*4a8bc1bb
#REFSTATIONA,COM2,0,30.0,FINE,2088,455929.000,2005587,1803,18;00000000,-2811044.342,4717820.352,3232735.546,0,RTCMV3,"0000"*247822a4
$GNGGA,063847.00,3039.10579862,N,12047.28095682,E,4,35,0.5,4.5079,M,9.8161,M,12,0*74
$GNRMC,063847.00,A,3039.10579862,N,12047.28095682,E,0.037,196.2,170120,5.8,W,D*37
#HEADINGA,COM2,0,57.0,FINE,2088,455945.000,2007386,23,18;SOL_COMPUTED,NARROW_INT,0.4332,162.5138,-14.9425,0.0000,0.5726,1.1099,"999",37,34,34,21,3,01,3,f3*3159e303
$GNGGA,063847.10,3039.10579910,N,12047.28095652,E,4,35,0.5,4.5101,M,9.8161,M,12,0*72
$GNRMC,063847.10,A,3039.10579910,N,12047.28095652,E,0.020,331.7,170120,5.8,W,D*33
#HEADINGA,COM2,0,57.0,FINE,2088,455945.100,2007486,18,18;SOL_COMPUTED,NARROW_INT,0.4320,162.0047,-15.1096,0.0000,0.5745,1.1131,"999",37,34,34,21,3,01,3,f3*8f343d8f
$GNGGA,063847.20,3039.10579864,N,12047.28095957,E,4,35,0.5,4.5155,M,9.8161,M,12,0*78
$GNRMC,063847.20,A,3039.10579864,N,12047.28095957,E,0.096,99.9,170120,5.8,W,D*0A
#HEADINGA,COM2,0,57.0,FINE,2088,455945.200,2007587,19,18;SOL_COMPUTED,NARROW_INT,0.4279,162.4932,-15.3382,0.0000,0.5812,1.1237,"999",37,34,34,21,3,01,3,f3*0f1e4d2f
$GNGGA,063847.30,3039.10579972,N,12047.28095848,E,4,35,0.5,4.5107,M,9.8161,M,11,0*74
$GNRMC,063847.30,A,3039.10579972,N,12047.28095848,E,0.051,318.7,170120,5.8,W,D*3D
#HEADINGA,COM2,0,57.0,FINE,2088,455945.300,2007686,18,18;SOL_COMPUTED,NARROW_INT,0.4308,162.1019,-15.2813,0.0000,0.5760,1.1165,"999",37,34,34,21,3,01,3,f3*5297c5f8
$GNGGA,063847.40,3039.10579880,N,12047.28095870,E,4,35,0.5,4.5131,M,9.8161,M,11,0*71
$GNRMC,063847.40,A,3039.10579880,N,12047.28095870,E,0.034,168.2,170120,5.8,W,D*3E
#HEADINGA,COM2,0,57.0,FINE,2088,455945.400,2007786,18,18;SOL_COMPUTED,NARROW_INT,0.4308,161.6242,-15.0300,0.0000,0.5746,1.1163,"999",37,34,34,21,3,01,3,f3*b3e9c89a
$GNGGA,063847.50,3039.10579975,N,12047.28095892,E,4,35,0.5,4.5129,M,9.8161,M,11,0*7E
$GNRMC,063847.50,A,3039.10579975,N,12047.28095892,E,0.035,11.6,170120,5.8,W,D*02
#HEADINGA,COM2,0,57.0,FINE,2088,455945.500,2007886,18,18;SOL_COMPUTED,NARROW_INT,0.4335,162.2933,-15.6319,0.0000,0.5736,1.1099,"999",37,34,34,21,3,01,3,f3*52e8c5bc
$GNGGA,063847.60,3039.10579975,N,12047.28096030,E,4,35,0.5,4.5115,M,9.8161,M,11,0*71
$GNRMC,063847.60,A,3039.10579975,N,12047.28096030,E,0.043,89.9,170120,5.8,W,D*0D
#HEADINGA,COM2,0,57.0,FINE,2088,455945.600,2007986,17,18;SOL_COMPUTED,NARROW_INT,0.4295,162.5551,-15.9561,0.0000,0.5805,1.1189,"999",37,34,34,21,3,01,3,f3*27915040
$GNGGA,063847.70,3039.10579931,N,12047.28095892,E,4,35,0.5,4.5118,M,9.8161,M,11,0*7E
$GNRMC,063847.70,A,3039.10579931,N,12047.28095892,E,0.046,249.7,170120,5.8,W,D*3A
#HEADINGA,COM2,0,57.0,FINE,2088,455945.700,2008086,17,18;SOL_COMPUTED,NARROW_INT,0.4322,162.5656,-14.9861,0.0000,0.5743,1.1147,"999",37,34,34,21,3,01,3,f3*ba2f8854
$GNGGA,063847.80,3039.10579957,N,12047.28095809,E,4,35,0.5,4.5108,M,9.8161,M,11,0*72
$GNRMC,063847.80,A,3039.10579957,N,12047.28095809,E,0.027,290.4,170120,5.8,W,D*37
#HEADINGA,COM2,0,57.0,FINE,2088,455945.800,2008185,18,18;SOL_COMPUTED,NARROW_INT,0.4331,161.8378,-15.5793,0.0000,0.5740,1.1087,"999",37,34,34,21,3,01,3,f3*1ee78ede
$GNGGA,063847.90,3039.10579864,N,12047.28095906,E,4,35,0.5,4.5159,M,9.8161,M,11,0*78
$GNRMC,063847.90,A,3039.10579864,N,12047.28095906,E,0.045,138.1,170120,5.8,W,D*39
#HEADINGA,COM2,0,57.0,FINE,2088,455945.900,2008285,20,18;SOL_COMPUTED,NARROW_INT,0.4289,162.0656,-15.7452,0.0000,0.5799,1.1183,"999",37,34,34,21,3,01,3,f3*c45fa8a1
#REFSTATIONA,COM2,0,57.0,FINE,2088,455929.000,2007587,803,18;00000000,-2811044.342,4717820.352,3232735.546,0,RTCMV3,"0000"*20953061
$GNGGA,063848.00,3039.10579987,N,12047.28095805,E,4,35,0.5,4.5182,M,9.8161,M,12,0*75
$GNRMC,063848.00,A,3039.10579987,N,12047.28095805,E,0.054,324.5,170120,5.8,W,D*3A
#HEADINGA,COM2,0,57.0,FINE,2088,455946.000,2008386,22,18;SOL_COMPUTED,NARROW_INT,0.4346,161.9938,-14.7963,0.0000,0.5696,1.1059,"999",37,34,34,21,3,01,3,f3*898079c3
$GNGGA,063848.10,3039.10580016,N,12047.28096008,E,4,35,0.5,4.5201,M,9.8161,M,12,0*7D
$GNRMC,063848.10,A,3039.10580016,N,12047.28096008,E,0.064,80.7,170120,5.8,W,D*06
#HEADINGA,COM2,0,57.0,FINE,2088,455946.100,2008486,17,18;SOL_COMPUTED,NARROW_INT,0.4315,161.8255,-15.2454,0.0000,0.5761,1.1141,"999",37,34,34,21,3,01,3,f3*89eb6848
$GNGGA,063848.20,3039.10579976,N,12047.28095835,E,4,35,0.5,4.5165,M,9.8161,M,12,0*73
$GNRMC,063848.20,A,3039.10579976,N,12047.28095835,E,0.056,254.8,170120,5.8,W,D*3C
#HEADINGA,COM2,0,57.0,FINE,2088,455946.200,2008587,19,18;SOL_COMPUTED,NARROW_INT,0.4367,161.9507,-14.3951,0.0000,0.5675,1.1024,"999",37,34,34,21,3,01,3,f3*b8b2cbd0
$GNGGA,063848.30,3039.10579915,N,12047.28096046,E,4,35,0.5,4.5197,M,9.8161,M,08,0*7E
$GNRMC,063848.30,A,3039.10579915,N,12047.28096046,E,0.069,108.4,170120,5.8,W,D*3D
#HEADINGA,COM2,0,57.0,FINE,2088,455946.300,2008686,17,18;SOL_COMPUTED,NARROW_INT,0.4289,162.4067,-15.8065,0.0000,0.5822,1.1197,"999",37,34,34,21,3,01,3,f3*2c76c492
$GNGGA,063848.40,3039.10579970,N,12047.28095972,E,4,35,0.5,4.5208,M,9.8161,M,08,0*72
$GNRMC,063848.40,A,3039.10579970,N,12047.28095972,E,0.030,310.7,170120,5.8,W,D*30
#HEADINGA,COM2,0,57.0,FINE,2088,455946.400,2008786,18,18;SOL_COMPUTED,NARROW_INT,0.4316,162.3498,-15.5606,0.0000,0.5777,1.1139,"999",37,34,34,21,3,01,3,f3*66e1f2e7
$GNGGA,063848.50,3039.10579943,N,12047.28096020,E,4,35,0.5,4.5206,M,9.8161,M,08,0*70
$GNRMC,063848.50,A,3039.10579943,N,12047.28096020,E,0.018,123.0,170120,5.8,W,D*33
#HEADINGA,COM2,0,57.0,FINE,2088,455946.500,2008886,17,18;SOL_COMPUTED,NARROW_INT,0.4311,162.2419,-15.5048,0.0000,0.5783,1.1166,"999",37,34,34,21,3,01,3,f3*8bf1d885
$GNGGA,063848.60,3039.10579817,N,12047.28095969,E,4,35,0.5,4.5277,M,9.8161,M,08,0*72
$GNRMC,063848.60,A,3039.10579817,N,12047.28095969,E,0.048,199.5,170120,5.8,W,D*36
#HEADINGA,COM2,0,57.0,FINE,2088,455946.600,2008986,17,18;SOL_COMPUTED,NARROW_INT,0.4336,162.5305,-16.3221,0.0000,0.5783,1.1085,"999",37,34,34,21,3,01,3,f3*12a69973
$GNGGA,063848.70,3039.10579818,N,12047.28095892,E,4,35,0.5,4.5259,M,9.8161,M,08,0*75
$GNRMC,063848.70,A,3039.10579818,N,12047.28095892,E,0.024,270.8,170120,5.8,W,D*3E
#HEADINGA,COM2,0,57.0,FINE,2088,455946.700,2009086,17,18;SOL_COMPUTED,NARROW_INT,0.4327,162.2186,-16.2194,0.0000,0.5799,1.1124,"999",37,34,34,21,3,01,3,f3*5b4be148
$GNGGA,063848.80,3039.10579912,N,12047.28095905,E,4,35,0.5,4.5227,M,9.8161,M,08,0*77
$GNRMC,063848.80,A,3039.10579912,N,12047.28095905,E,0.034,6.7,170120,5.8,W,D*38
#HEADINGA,COM2,0,30.0,FINE,2088,455946.800,2009185,18,18;SOL_COMPUTED,NARROW_INT,0.4319,162.1238,-15.7479,0.0000,0.5796,1.1158,"999",37,34,34,21,3,01,3,f3*1e42f061
$GNGGA,063848.90,3039.10579967,N,12047.28095930,E,4,35,0.5,4.5188,M,9.8161,M,08,0*74
$GNRMC,063848.90,A,3039.10579967,N,12047.28095930,E,0.021,22.3,170120,5.8,W,D*0B
#HEADINGA,COM2,0,30.0,FINE,2088,455946.900,2009285,21,18;SOL_COMPUTED,NARROW_INT,0.4317,161.6086,-15.8558,0.0000,0.5795,1.1155,"999",37,34,34,21,3,01,3,f3*1b833a22
#REFSTATIONA,COM2,0,57.0,FINE,2088,455929.000,2008587,803,18;00000000,-2811044.342,4717820.352,3232735.546,0,RTCMV3,"0000"*59c557fc
$GNGGA,063849.00,3039.10579919,N,12047.28095773,E,4,35,0.5,4.5210,M,9.8161,M,09,0*7F
$GNRMC,063849.00,A,3039.10579919,N,12047.28095773,E,0.052,250.9,170120,5.8,W,D*3A
#HEADINGA,COM2,0,30.0,FINE,2088,455947.000,2009386,23,18;SOL_COMPUTED,NARROW_INT,0.4336,161.8007,-16.0290,0.0000,0.5776,1.1097,"999",37,34,34,21,3,01,3,f3*8a30ffa4
$GNGGA,063849.10,3039.10579881,N,12047.28096035,E,4,35,0.5,4.5190,M,9.8161,M,09,0*73
$GNRMC,063849.10,A,3039.10579881,N,12047.28096035,E,0.083,99.7,170120,5.8,W,D*08
#HEADINGA,COM2,0,30.0,FINE,2088,455947.100,2009485,18,18;SOL_COMPUTED,NARROW_INT,0.4328,162.3500,-15.0642,0.0000,0.5760,1.1141,"999",37,34,34,21,3,01,3,f3*2f86f8d3
$GNGGA,063849.20,3039.10579938,N,12047.28095974,E,4,35,0.5,4.5265,M,9.8161,M,09,0*75
$GNRMC,063849.20,A,3039.10579938,N,12047.28095974,E,0.028,316.9,170120,5.8,W,D*3C
#HEADINGA,COM2,0,30.0,FINE,2088,455947.200,2009586,19,18;SOL_COMPUTED,NARROW_INT,0.4353,161.9770,-15.7610,0.0000,0.5737,1.1053,"999",37,34,34,21,3,01,3,f3*19200d42
$GNGGA,063849.30,3039.10579995,N,12047.28095926,E,4,35,0.5,4.5190,M,9.8161,M,09,0*7D
$GNRMC,063849.30,A,3039.10579995,N,12047.28095926,E,0.025,324.4,170120,5.8,W,D*3C
#HEADINGA,COM2,0,30.0,FINE,2088,455947.300,2009685,18,18;SOL_COMPUTED,NARROW_INT,0.4336,161.9938,-15.8678,0.0000,0.5781,1.1118,"999",37,34,34,21,3,01,3,f3*ba439715
$GNGGA,063849.40,3039.10579895,N,12047.28095951,E,4,35,0.5,4.5234,M,9.8161,M,09,0*76
$GNRMC,063849.40,A,3039.10579895,N,12047.28095951,E,0.037,167.8,170120,5.8,W,D*30
#HEADINGA,COM2,0,30.0,FINE,2088,455947.400,2009786,17,18;SOL_COMPUTED,NARROW_INT,0.4320,162.1779,-15.5369,0.0000,0.5778,1.1153,"999",37,34,34,21,3,01,3,f3*341bc6f7
$GNGGA,063849.50,3039.10579889,N,12047.28095910,E,4,35,0.5,4.5200,M,9.8161,M,09,0*78
$GNRMC,063849.50,A,3039.10579889,N,12047.28095910,E,0.013,259.3,170120,5.8,W,D*3A
#HEADINGA,COM2,0,30.0,FINE,2088,455947.500,2009886,17,18;SOL_COMPUTED,NARROW_INT,0.4294,162.0109,-14.7533,0.0000,0.5784,1.1227,"999",37,34,34,21,3,01,3,f3*abf754d2
$GNGGA,063849.60,3039.10579817,N,12047.28095919,E,4,35,0.5,4.5216,M,9.8161,M,09,0*72
$GNRMC,063849.60,A,3039.10579817,N,12047.28095919,E,0.026,173.9,170120,5.8,W,D*30
#HEADINGA,COM2,0,30.0,FINE,2088,455947.600,2009986,17,18;SOL_COMPUTED,NARROW_INT,0.4314,162.2556,-15.4553,0.0000,0.5779,1.1161,"999",37,34,34,21,3,01,3,f3*ace50469
$GNGGA,063849.70,3039.10579919,N,12047.28095931,E,4,35,0.5,4.5221,M,9.8161,M,09,0*72
$GNRMC,063849.70,A,3039.10579919,N,12047.28095931,E,0.037,5.9,170120,5.8,W,D*34
#HEADINGA,COM2,0,30.0,FINE,2088,455947.700,2010085,17,18;SOL_COMPUTED,NARROW_INT,0.4322,161.9486,-15.7431,0.0000,0.5774,1.1133,"999",37,34,34,21,3,01,3,f3*e5e0a097
$GNGGA,063849.80,3039.10579885,N,12047.28095862,E,4,35,0.5,4.5239,M,9.8161,M,09,0*77
$GNRMC,063849.80,A,3039.10579885,N,12047.28095862,E,0.025,240.5,170120,5.8,W,D*34
#HEADINGA,COM2,0,30.0,FINE,2088,455947.800,2010186,16,18;SOL_COMPUTED,NARROW_INT,0.4347,162.4141,-16.0845,0.0000,0.5758,1.1071,"999",37,34,34,21,3,01,3,f3*efa266f5
$GNGGA,063849.90,3039.10579901,N,12047.28095918,E,4,35,0.5,4.5193,M,9.8161,M,09,0*74
$GNRMC,063849.90,A,3039.10579901,N,12047.28095918,E,0.019,72.3,170120,5.8,W,D*0E
#HEADINGA,COM2,0,30.0,FINE,2088,455947.900,2010285,17,18;SOL_COMPUTED,NARROW_INT,0.4322,161.8049,-15.7040,0.0000,0.5764,1.1131,"999",37,34,34,21,3,01,3,f3*369586d4
#REFSTATIONA,COM2,0,57.0,FINE,2088,455929.000,2008587,1803,18;00000000,-2811044.342,4717820.352,3232735.546,0,RTCMV3,"0000"*3bf11a16
$GNGGA,063850.00,3039.10579843,N,12047.28096072,E,4,35,0.5,4.5291,M,9.8161,M,10,0*7D
$GNRMC,063850.00,A,3039.10579843,N,12047.28096072,E,0.052,113.4,170120,5.8,W,D*30
#HEADINGA,COM2,0,30.0,FINE,2088,455948.000,2010386,22,18;SOL_COMPUTED,NARROW_INT,0.4317,162.0160,-15.4109,0.0000,0.5765,1.1152,"999",37,34,34,21,3,01,3,f3*0e059316
$GNGGA,063850.10,3039.10580010,N,12047.28095848,E,4,35,0.5,4.5180,M,9.8161,M,10,0*75
$GNRMC,063850.10,A,3039.10580010,N,12047.28095848,E,0.092,310.7,170120,5.8,W,D*35
#HEADINGA,COM2,0,30.0,FINE,2088,455948.100,2010486,18,18;SOL_COMPUTED,NARROW_INT,0.4347,162.3224,-16.0952,0.0000,0.5747,1.1059,"999",37,34,34,21,3,01,3,f3*66ee77a9
$GNGGA,063850.20,3039.10580012,N,12047.28095729,E,4,35,0.5,4.5154,M,9.8161,M,10,0*75
$GNRMC,063850.20,A,3039.10580012,N,12047.28095729,E,0.037,271.2,170120,5.8,W,D*30
#HEADINGA,COM2,0,30.0,FINE,2088,455948.200,2010588,18,18;SOL_COMPUTED,NARROW_INT,0.4343,161.1817,-15.2223,0.0000,0.5717,1.1088,"999",37,34,34,21,3,01,3,f3*1c805398
$GNGGA,063850.30,3039.10579964,N,12047.28095868,E,4,35,0.5,4.5208,M,9.8161,M,07,0*7C
$GNRMC,063850.30,A,3039.10579964,N,12047.28095868,E,0.046,111.7,170120,5.8,W,D*33
#HEADINGA,COM2,0,30.0,FINE,2088,455948.300,2010687,18,18;SOL_COMPUTED,NARROW_INT,0.4348,162.2775,-15.9539,0.0000,0.5742,1.1037,"999",37,34,34,21,3,01,3,f3*af5049cd
$GNGGA,063850.40,3039.10579908,N,12047.28095794,E,4,35,0.5,4.5170,M,9.8161,M,07,0*71
$GNRMC,063850.40,A,3039.10579908,N,12047.28095794,E,0.031,228.4,170120,5.8,W,D*38
#HEADINGA,COM2,0,30.0,FINE,2088,455948.400,2010787,17,18;SOL_COMPUTED,NARROW_INT,0.4299,161.4496,-15.3176,0.0000,0.5777,1.1174,"999",37,34,34,21,3,01,3,f3*8b7fd298
$GNGGA,063850.50,3039.10579934,N,12047.28095898,E,4,35,0.5,4.5184,M,9.8161,M,07,0*77
$GNRMC,063850.50,A,3039.10579934,N,12047.28095898,E,0.034,73.6,170120,5.8,W,D*0E
#HEADINGA,COM2,0,30.0,FINE,2088,455948.500,2010887,18,18;SOL_COMPUTED,NARROW_INT,0.4304,162.1066,-14.9343,0.0000,0.5767,1.1164,"999",37,34,34,21,3,01,3,f3*aae9945c
$GNGGA,063850.60,3039.10579978,N,12047.28095965,E,4,35,0.5,4.5264,M,9.8161,M,07,0*72
$GNRMC,063850.60,A,3039.10579978,N,12047.28095965,E,0.026,52.8,170120,5.8,W,D*08
#HEADINGA,COM2,0,30.0,FINE,2088,455948.600,2010986,18,18;SOL_COMPUTED,NARROW_INT,0.4352,162.3944,-16.0851,0.0000,0.5737,1.1020,"999",37,34,34,21,3,01,3,f3*2c9094dc
$GNGGA,063850.70,3039.10580100,N,12047.28095952,E,4,35,0.5,4.5100,M,9.8161,M,07,0*77
$GNRMC,063850.70,A,3039.10580100,N,12047.28095952,E,0.044,354.6,170120,5.8,W,D*33
#HEADINGA,COM2,0,30.0,FINE,2088,455948.700,2011086,20,18;SOL_COMPUTED,NARROW_INT,0.4324,162.1495,-14.7740,0.0000,0.5737,1.1126,"999",37,34,34,21,3,01,3,f3*b7bd2a64
$GNGGA,063850.80,3039.10580157,N,12047.28095867,E,4,35,0.5,4.5059,M,9.8161,M,07,0*70
$GNRMC,063850.80,A,3039.10580157,N,12047.28095867,E,0.033,307.8,170120,5.8,W,D*31
#HEADINGA,COM2,0,30.0,FINE,2088,455948.800,2011186,17,18;SOL_COMPUTED,NARROW_INT,0.4340,161.9116,-14.6128,0.0000,0.5708,1.1086,"999",37,34,34,21,3,01,3,f3*d7cad156
$GNGGA,063850.90,3039.10580168,N,12047.28095897,E,4,35,0.5,4.5074,M,9.8161,M,07,0*7D
$GNRMC,063850.90,A,3039.10580168,N,12047.28095897,E,0.010,66.1,170120,5.8,W,D*0F
#HEADINGA,COM2,0,30.0,FINE,2088,455948.900,2011286,17,18;SOL_COMPUTED,NARROW_INT,0.4362,161.7720,-15.8359,0.0000,0.5711,1.0996,"999",37,34,34,21,3,01,3,f3*8a8104e6
#REFSTATIONA,COM2,0,30.0,FINE,2088,455940.000,2010588,802,18;00000000,-2811044.342,4717820.352,3232735.546,0,RTCMV3,"0000"*e8fd8f38
$GNGGA,063851.00,3039.10580155,N,12047.28096155,E,4,35,0.5,4.5132,M,9.8161,M,08,0*73
$GNRMC,063851.00,A,3039.10580155,N,12047.28096155,E,0.080,93.5,170120,5.8,W,D*0A
#HEADINGA,COM2,0,30.0,FINE,2088,455949.000,2011386,23,18;SOL_COMPUTED,NARROW_INT,0.4330,162.4041,-15.6538,0.0000,0.5754,1.1085,"999",37,34,34,21,3,01,3,f3*e8934909
$GNGGA,063851.10,3039.10580169,N,12047.28095939,E,4,35,0.5,4.5105,M,9.8161,M,08,0*78
$GNRMC,063851.10,A,3039.10580169,N,12047.28095939,E,0.067,274.5,170120,5.8,W,D*37
#HEADINGA,COM2,0,30.0,FINE,2088,455949.100,2011486,18,18;SOL_COMPUTED,NARROW_INT,0.4360,162.0160,-14.5573,0.0000,0.5682,1.1036,"999",37,34,34,21,3,01,3,f3*e9ba5ca3
$GNGGA,063851.20,3039.10580088,N,12047.28095865,E,4,35,0.5,4.5083,M,9.8161,M,08,0*72
$GNRMC,063851.20,A,3039.10580088,N,12047.28095865,E,0.037,218.2,170120,5.8,W,D*3A
#HEADINGA,COM2,0,30.0,FINE,2088,455949.200,2011587,18,18;SOL_COMPUTED,NARROW_INT,0.4326,161.7765,-15.4321,0.0000,0.5747,1.1101,"999",37,34,34,21,3,01,3,f3*b332c9ae
$GNGGA,063851.30,3039.10580127,N,12047.28095945,E,4,35,0.5,4.5105,M,9.8161,M,08,0*7B
$GNRMC,063851.30,A,3039.10580127,N,12047.28095945,E,0.029,60.9,170120,5.8,W,D*05
#HEADINGA,COM2,0,30.0,FINE,2088,455949.300,2011686,18,18;SOL_COMPUTED,NARROW_INT,0.4340,161.7823,-15.2914,0.0000,0.5729,1.1072,"999",37,34,34,21,3,01,3,f3*a8a2271f
$GNGGA,063851.40,3039.10580099,N,12047.28095862,E,4,35,0.5,4.5117,M,9.8161,M,08,0*7F
$GNRMC,063851.40,A,3039.10580099,N,12047.28095862,E,0.028,249.0,170120,5.8,W,D*33
#HEADINGA,COM2,0,30.0,FINE,2088,455949.400,2011786,17,18;SOL_COMPUTED,NARROW_INT,0.4367,162.4809,-15.3690,0.0000,0.4496,1.0536,"999",37,34,34,21,3,01,3,f3*566680a9
$GNGGA,063851.50,3039.10580122,N,12047.28095939,E,4,35,0.5,4.5069,M,9.8161,M,08,0*78
$GNRMC,063851.50,A,3039.10580122,N,12047.28095939,E,0.025,71.2,170120,5.8,W,D*0A
#HEADINGA,COM2,0,30.0,FINE,2088,455949.500,2011886,17,18;SOL_COMPUTED,NARROW_INT,0.4372,162.7618,-14.6712,0.0000,0.4475,1.0531,"999",37,34,34,21,3,01,3,f3*4c88c807
$GNGGA,063851.60,3039.10580181,N,12047.28095999,E,4,35,0.5,4.5029,M,9.8161,M,08,0*7C
$GNRMC,063851.60,A,3039.10580181,N,12047.28095999,E,0.028,41.3,170120,5.8,W,D*05
#HEADINGA,COM2,0,30.0,FINE,2088,455949.600,2011986,17,18;SOL_COMPUTED,NARROW_INT,0.4380,161.9787,-15.3254,0.0000,0.4490,1.0508,"999",37,34,34,21,3,01,3,f3*dedcc886
$GNGGA,063851.70,3039.10580114,N,12047.28096098,E,4,35,0.5,4.5153,M,9.8161,M,08,0*76
$GNRMC,063851.70,A,3039.10580114,N,12047.28096098,E,0.039,127.8,170120,5.8,W,D*39
#HEADINGA,COM2,0,30.0,FINE,2088,455949.700,2012086,17,18;SOL_COMPUTED,NARROW_INT,0.4372,161.9694,-16.3737,0.0000,0.4521,1.0525,"999",38,34,34,21,3,01,3,f3*7ce8ed2e
$GNGGA,063851.80,3039.10580106,N,12047.28096027,E,4,35,0.5,4.5123,M,9.8161,M,08,0*79
$GNRMC,063851.80,A,3039.10580106,N,12047.28096027,E,0.022,262.5,170120,5.8,W,D*34
#HEADINGA,COM2,0,44.0,FINE,2088,455949.800,2012186,17,18;SOL_COMPUTED,NARROW_INT,0.4359,162.2157,-15.5763,0.0000,0.4517,1.0564,"999",38,34,34,21,3,01,3,f3*41db6879
$GNGGA,063851.90,3039.10580130,N,12047.28096184,E,4,35,0.5,4.5078,M,9.8161,M,08,0*7A
$GNRMC,063851.90,A,3039.10580130,N,12047.28096184,E,0.050,80.0,170120,5.8,W,D*06
#HEADINGA,COM2,0,44.0,FINE,2088,455949.900,2012286,16,18;SOL_COMPUTED,NARROW_INT,0.4376,162.9020,-15.9481,0.0000,0.4502,1.0517,"999",38,34,34,21,3,01,3,f3*6240c5a8
#REFSTATIONA,COM2,0,30.0,FINE,2088,455940.000,2010588,1802,18;00000000,-2811044.342,4717820.352,3232735.546,0,RTCMV3,"0000"*63e16d20
$GNGGA,063852.00,3039.10580120,N,12047.28096205,E,4,35,0.5,4.5132,M,9.8161,M,09,0*75
$GNRMC,063852.00,A,3039.10580120,N,12047.28096205,E,0.008,118.7,170120,5.8,W,D*3D
#HEADINGA,COM2,0,44.0,FINE,2088,455950.000,2012386,23,18;SOL_COMPUTED,NARROW_INT,0.4354,162.9687,-16.2500,0.0000,0.4526,1.0567,"999",38,34,34,21,3,01,3,f3*1e02a327
$GNGGA,063852.10,3039.10580023,N,12047.28096021,E,4,35,0.5,4.5112,M,9.8161,M,09,0*70
$GNRMC,063852.10,A,3039.10580023,N,12047.28096021,E,0.067,238.8,170120,5.8,W,D*3D
#HEADINGA,COM2,0,44.0,FINE,2088,455950.100,2012486,18,18;SOL_COMPUTED,NARROW_INT,0.4344,162.2588,-15.5797,0.0000,0.4528,1.0596,"999",38,34,34,21,3,01,3,f3*67528caa
$GNGGA,063852.20,3039.10580083,N,12047.28096047,E,4,35,0.5,4.5156,M,9.8161,M,09,0*79
$GNRMC,063852.20,A,3039.10580083,N,12047.28096047,E,0.023,20.9,170120,5.8,W,D*0E
#HEADINGA,COM2,0,44.0,FINE,2088,455950.200,2012587,18,18;SOL_COMPUTED,NARROW_INT,0.4372,162.3632,-15.4958,0.0000,0.4496,1.0529,"999",38,34,34,21,3,01,3,f3*7378f78e
$GNGGA,063852.30,3039.10580016,N,12047.28096049,E,4,35,0.5,4.5109,M,9.8161,M,09,0*70
$GNRMC,063852.30,A,3039.10580016,N,12047.28096049,E,0.024,178.1,170120,5.8,W,D*3E
#HEADINGA,COM2,0,44.0,FINE,2088,455950.300,2012686,18,18;SOL_COMPUTED,NARROW_INT,0.4352,162.3314,-16.1350,0.0000,0.4531,1.0574,"999",38,34,34,21,3,01,3,f3*8f2a81b8
$GNGGA,063852.40,3039.10580176,N,12047.28096020,E,4,35,0.5,4.5039,M,9.8161,M,09,0*7D
$GNRMC,063852.40,A,3039.10580176,N,12047.28096020,E,0.058,350.9,170120,5.8,W,D*3A
#HEADINGA,COM2,0,44.0,FINE,2088,455950.400,2012786,17,18;SOL_COMPUTED,NARROW_INT,0.4314,162.8108,-15.4854,0.0000,0.5779,1.1142,"999",38,34,34,21,3,01,3,f3*37ce46c1
$GNGGA,063852.50,3039.10580102,N,12047.28096006,E,4,35,0.5,4.5142,M,9.8161,M,09,0*76
$GNRMC,063852.50,A,3039.10580102,N,12047.28096006,E,0.027,189.2,170120,5.8,W,D*39
#HEADINGA,COM2,0,44.0,FINE,2088,455950.500,2012886,18,18;SOL_COMPUTED,NARROW_INT,0.4334,162.2070,-14.8577,0.0000,0.5728,1.1101,"999",38,34,34,21,3,01,3,f3*57cd1bbf
$GNGGA,063852.60,3039.10580068,N,12047.28096061,E,4,35,0.5,4.5124,M,9.8161,M,09,0*79
$GNRMC,063852.60,A,3039.10580068,N,12047.28096061,E,0.021,125.3,170120,5.8,W,D*37
#HEADINGA,COM2,0,44.0,FINE,2088,455950.600,2012986,18,18;SOL_COMPUTED,NARROW_INT,0.4335,162.4269,-16.2683,0.0000,0.5766,1.1067,"999",38,34,34,21,3,01,3,f3*14e11406
$GNGGA,063852.70,3039.10579933,N,12047.28096099,E,4,35,0.5,4.5189,M,9.8161,M,09,0*79
$GNRMC,063852.70,A,3039.10579933,N,12047.28096099,E,0.050,166.2,170120,5.8,W,D*30
#HEADINGA,COM2,0,44.0,FINE,2088,455950.700,2013086,17,18;SOL_COMPUTED,NARROW_INT,0.4315,162.1142,-16.0462,0.0000,0.5786,1.1129,"999",38,34,34,21,3,01,3,f3*422e02bc
$GNGGA,063852.80,3039.10580013,N,12047.28095933,E,4,35,0.5,4.5135,M,9.8161,M,09,0*76
$GNRMC,063852.80,A,3039.10580013,N,12047.28095933,E,0.059,299.0,170120,5.8,W,D*30
#HEADINGA,COM2,0,44.0,FINE,2088,455950.800,2013186,20,18;SOL_COMPUTED,NARROW_INT,0.4341,162.0396,-15.2043,0.0000,0.5728,1.1084,"999",38,34,34,21,3,01,3,f3*778255a2
$GNGGA,063852.90,3039.10579952,N,12047.28096031,E,4,35,0.5,4.5152,M,9.8161,M,09,0*74
$GNRMC,063852.90,A,3039.10579952,N,12047.28096031,E,0.038,125.9,170120,5.8,W,D*39
#HEADINGA,COM2,0,44.0,FINE,2088,455950.900,2013286,16,18;SOL_COMPUTED,NARROW_INT,0.4361,161.6921,-15.8197,0.0000,0.5716,1.1021,"999",38,34,34,21,3,01,3,f3*51b18892
#REFSTATIONA,COM2,0,30.0,FINE,2088,455940.000,2010588,2802,18;00000000,-2811044.342,4717820.352,3232735.546,0,RTCMV3,"0000"*c79fefe5
$GNGGA,063853.00,3039.10579936,N,12047.28095910,E,4,35,0.5,4.5219,M,9.8161,M,10,0*73
$GNRMC,063853.00,A,3039.10579936,N,12047.28095910,E,0.038,261.6,170120,5.8,W,D*36
#HEADINGA,COM2,0,44.0,FINE,2088,455951.000,2013386,23,18;SOL_COMPUTED,NARROW_INT,0.4342,162.0371,-16.3529,0.0000,0.5760,1.1055,"999",38,34,34,21,3,01,3,f3*041ffa1a
$GNGGA,063853.10,3039.10579836,N,12047.28096057,E,4,35,0.5,4.5148,M,9.8161,M,10,0*7D
$GNRMC,063853.10,A,3039.10579836,N,12047.28096057,E,0.058,128.4,170120,5.8,W,D*35
#HEADINGA,COM2,0,44.0,FINE,2088,455951.100,2013486,18,18;SOL_COMPUTED,NARROW_INT,0.4337,162.1506,-15.1966,0.0000,0.5727,1.1091,"999",38,34,34,21,3,01,3,f3*cc005151
$GNGGA,063853.20,3039.10580025,N,12047.28096154,E,4,35,0.5,4.5207,M,9.8161,M,10,0*78
$GNRMC,063853.20,A,3039.10580025,N,12047.28096154,E,0.074,23.9,170120,5.8,W,D*01
#HEADINGA,COM2,0,44.0,FINE,2088,455951.200,2013587,18,18;SOL_COMPUTED,NARROW_INT,0.4343,161.9179,-14.7276,0.0000,0.5707,1.1094,"999",38,34,34,21,3,01,3,f3*f7730116
$GNGGA,063853.30,3039.10579912,N,12047.28096073,E,4,35,0.5,4.5212,M,9.8161,M,09,0*7A
$GNRMC,063853.30,A,3039.10579912,N,12047.28096073,E,0.048,211.8,170120,5.8,W,D*32
#HEADINGA,COM2,0,44.0,FINE,2088,455951.300,2013686,17,18;SOL_COMPUTED,NARROW_INT,0.4314,162.0861,-15.9971,0.0000,0.5777,1.1125,"999",38,34,34,21,3,01,3,f3*db2c55bc
$GNGGA,063853.40,3039.10579814,N,12047.28096035,E,4,35,0.5,4.5160,M,9.8161,M,09,0*7E
$GNRMC,063853.40,A,3039.10579814,N,12047.28096035,E,0.037,198.5,170120,5.8,W,D*37
#HEADINGA,COM2,0,44.0,FINE,2088,455951.400,2013786,18,18;SOL_COMPUTED,NARROW_INT,0.4304,162.1646,-15.9482,0.0000,0.5793,1.1151,"999",38,34,34,21,3,01,3,f3*1d78c055
$GNGGA,063853.50,3039.10579869,N,12047.28095908,E,4,35,0.5,4.5187,M,9.8161,M,09,0*78
$GNRMC,063853.50,A,3039.10579869,N,12047.28095908,E,0.044,296.5,170120,5.8,W,D*31
#HEADINGA,COM2,0,44.0,FINE,2088,455951.500,2013886,18,18;SOL_COMPUTED,NARROW_INT,0.4328,161.9689,-14.6107,0.0000,0.5723,1.1123,"999",38,34,34,21,3,01,3,f3*2ad24f85
$GNGGA,063853.60,3039.10579941,N,12047.28096039,E,4,35,0.5,4.5139,M,9.8161,M,09,0*7D
$GNRMC,063853.60,A,3039.10579941,N,12047.28096039,E,0.048,57.5,170120,5.8,W,D*02
#HEADINGA,COM2,0,44.0,FINE,2088,455951.600,2013986,18,18;SOL_COMPUTED,NARROW_INT,0.4299,162.0433,-14.8731,0.0000,0.5770,1.1191,"999",38,34,34,21,3,01,3,f3*fbeabb9a
$GNGGA,063853.70,3039.10579827,N,12047.28096153,E,4,35,0.5,4.5222,M,9.8161,M,09,0*79
$GNRMC,063853.70,A,3039.10579827,N,12047.28096153,E,0.054,139.0,170120,5.8,W,D*3E
#HEADINGA,COM2,0,44.0,FINE,2088,455951.700,2014086,17,18;SOL_COMPUTED,NARROW_INT,0.4325,162.0314,-16.4819,0.0000,0.5777,1.1070,"999",38,34,34,21,3,01,3,f3*a1889311
$GNGGA,063853.80,3039.10579943,N,12047.28095961,E,4,35,0.5,4.5174,M,9.8161,M,09,0*7F
$GNRMC,063853.80,A,3039.10579943,N,12047.28095961,E,0.073,304.9,170120,5.8,W,D*38
#HEADINGA,COM2,0,44.0,FINE,2088,455951.800,2014186,18,18;SOL_COMPUTED,NARROW_INT,0.4370,161.6981,-14.8576,0.0000,0.5665,1.0993,"999",38,34,34,21,3,01,3,f3*e2da1e64
$GNGGA,063853.90,3039.10579804,N,12047.28096030,E,4,35,0.5,4.5217,M,9.8161,M,09,0*74
$GNRMC,063853.90,A,3039.10579804,N,12047.28096030,E,0.054,156.8,170120,5.8,W,D*34
#HEADINGA,COM2,0,44.0,FINE,2088,455951.900,2014285,18,18;SOL_COMPUTED,NARROW_INT,0.4298,162.3696,-15.2425,0.0000,0.5777,1.1164,"999",38,34,34,21,3,01,3,f3*dc438c8a
#REFSTATIONA,COM2,0,44.0,FINE,2088,455940.000,2013587,803,18;00000000,-2811044.342,4717820.352,3232735.546,0,RTCMV3,"0000"*7116d3e1
$GNGGA,063854.00,3039.10579814,N,12047.28096069,E,4,35,0.5,4.5214,M,9.8161,M,10,0*7C
$GNRMC,063854.00,A,3039.10579814,N,12047.28096069,E,0.013,74.0,170120,5.8,W,D*0D
#HEADINGA,COM2,0,44.0,FINE,2088,455952.000,2014385,27,18;SOL_COMPUTED,NARROW_INT,0.4339,161.9746,-15.7254,0.0000,0.5731,1.1043,"999",38,34,34,21,3,01,3,f3*05794c7d
$GNGGA,063854.10,3039.10579977,N,12047.28096342,E,4,35,0.5,4.5182,M,9.8161,M,10,0*7F
$GNRMC,063854.10,A,3039.10579977,N,12047.28096342,E,0.103,55.4,170120,5.8,W,D*05
#HEADINGA,COM2,0,44.0,FINE,2088,455952.100,2014486,18,18;SOL_COMPUTED,NARROW_INT,0.4301,162.5555,-14.5792,0.0000,0.5757,1.1173,"999",38,34,34,21,3,01,3,f3*3b2c2ea1
$GNGGA,063854.20,3039.10579758,N,12047.28096017,E,4,35,0.5,4.5197,M,9.8161,M,10,0*78
$GNRMC,063854.20,A,3039.10579758,N,12047.28096017,E,0.128,232.0,170120,5.8,W,D*38
#HEADINGA,COM2,0,44.0,FINE,2088,455952.200,2014587,19,18;SOL_COMPUTED,NARROW_INT,0.4322,161.9551,-15.3059,0.0000,0.5746,1.1101,"999",38,34,34,21,3,01,3,f3*b4b8f5f0
$GNGGA,063854.30,3039.10579863,N,12047.28096189,E,4,35,0.5,4.5166,M,9.8161,M,10,0*76
$GNRMC,063854.30,A,3039.10579863,N,12047.28096189,E,0.065,54.8,170120,5.8,W,D*0A
#HEADINGA,COM2,0,44.0,FINE,2088,455952.300,2014686,18,18;SOL_COMPUTED,NARROW_INT,0.4310,162.2971,-15.8058,0.0000,0.5786,1.1129,"999",38,34,34,21,3,01,3,f3*d9a8c40d
$GNGGA,063854.40,3039.10579838,N,12047.28096177,E,4,35,0.5,4.5177,M,9.8161,M,10,0*7E
$GNRMC,063854.40,A,3039.10579838,N,12047.28096177,E,0.010,202.4,170120,5.8,W,D*3D
#HEADINGA,COM2,0,44.0,FINE,2088,455952.400,2014786,18,18;SOL_COMPUTED,NARROW_INT,0.4338,161.7072,-15.6281,0.0000,0.5610,1.0843,"999",38,35,35,21,3,01,3,f3*5c48e10a
$GNGGA,063854.50,3039.10579801,N,12047.28096150,E,4,35,0.5,4.5199,M,9.8161,M,10,0*70
$GNRMC,063854.50,A,3039.10579801,N,12047.28096150,E,0.016,212.7,170120,5.8,W,D*37
#HEADINGA,COM2,0,44.0,FINE,2088,455952.500,2014886,17,18;SOL_COMPUTED,NARROW_INT,0.4324,162.1406,-14.5183,0.0000,0.5603,1.0900,"999",38,35,35,21,3,01,3,f3*3ab6a147
$GNGGA,063854.60,3039.10579716,N,12047.28096067,E,4,35,0.5,4.5238,M,9.8161,M,10,0*77
$GNRMC,063854.60,A,3039.10579716,N,12047.28096067,E,0.040,220.2,170120,5.8,W,D*3F
#HEADINGA,COM2,0,44.0,FINE,2088,455952.600,2014986,18,18;SOL_COMPUTED,NARROW_INT,0.4321,161.7675,-15.3904,0.0000,0.5623,1.0880,"999",38,35,35,21,3,01,3,f3*a52517de
$GNGGA,063854.70,3039.10579764,N,12047.28096250,E,4,35,0.5,4.5178,M,9.8161,M,10,0*72
$GNRMC,063854.70,A,3039.10579764,N,12047.28096250,E,0.060,73.3,170120,5.8,W,D*0A
#HEADINGA,COM2,0,44.0,FINE,2088,455952.700,2015086,17,18;SOL_COMPUTED,NARROW_INT,0.4343,162.1022,-14.8676,0.0000,0.5581,1.0834,"999",38,35,35,21,3,01,3,f3*e81492fa
$GNGGA,063854.80,3039.10579787,N,12047.28096085,E,4,35,0.5,4.5206,M,9.8161,M,10,0*70
$GNRMC,063854.80,A,3039.10579787,N,12047.28096085,E,0.052,279.3,170120,5.8,W,D*3B
#HEADINGA,COM2,0,22.0,FINE,2088,455952.800,2015185,20,18;SOL_COMPUTED,NARROW_INT,0.4295,161.8389,-14.9953,0.0000,0.5644,1.0951,"999",38,35,35,21,3,01,3,f3*88ebad0b
$GNGGA,063854.90,3039.10579955,N,12047.28096083,E,4,35,0.5,4.5160,M,9.8161,M,10,0*75
$GNRMC,063854.90,A,3039.10579955,N,12047.28096083,E,0.060,359.6,170120,5.8,W,D*3A
#HEADINGA,COM2,0,22.0,FINE,2088,455952.900,2015285,17,18;SOL_COMPUTED,NARROW_INT,0.4325,162.1416,-15.5755,0.0000,0.5632,1.0873,"999",38,35,35,21,3,01,3,f3*4ef0247c
#REFSTATIONA,COM2,0,44.0,FINE,2088,455940.000,2014587,803,18;00000000,-2811044.342,4717820.352,3232735.546,0,RTCMV3,"0000"*dbe04d08
$GNGGA,063855.00,3039.10579897,N,12047.28096041,E,4,35,0.5,4.5224,M,9.8161,M,11,0*7E
$GNRMC,063855.00,A,3039.10579897,N,12047.28096041,E,0.025,212.2,170120,5.8,W,D*38
#HEADINGA,COM2,0,22.0,FINE,2088,455953.000,2015385,23,18;SOL_COMPUTED,NARROW_INT,0.4329,161.6639,-15.2504,0.0000,0.5605,1.0861,"999",38,35,35,21,3,01,3,f3*c148e6f9
$GNGGA,063855.10,3039.10580004,N,12047.28096201,E,4,35,0.5,4.5194,M,9.8161,M,11,0*75
$GNRMC,063855.10,A,3039.10580004,N,12047.28096201,E,0.063,52.3,170120,5.8,W,D*0E
#HEADINGA,COM2,0,22.0,FINE,2088,455953.100,2015485,18,18;SOL_COMPUTED,NARROW_INT,0.4331,161.9834,-15.2916,0.0000,0.5597,1.0846,"999",38,35,35,21,3,01,3,f3*f8cdbbe8
$GNGGA,063855.20,3039.10579966,N,12047.28096130,E,4,35,0.5,4.5151,M,9.8161,M,11,0*75
$GNRMC,063855.20,A,3039.10579966,N,12047.28096130,E,0.026,238.4,170120,5.8,W,D*3F
#HEADINGA,COM2,0,22.0,FINE,2088,455953.200,2015586,19,18;SOL_COMPUTED,NARROW_INT,0.4323,162.5557,-15.3377,0.0000,0.5615,1.0870,"999",38,35,35,21,3,01,3,f3*f1d9f480
$GNGGA,063855.30,3039.10579989,N,12047.28096039,E,4,35,0.5,4.5143,M,9.8161,M,10,0*7F
$GNRMC,063855.30,A,3039.10579989,N,12047.28096039,E,0.029,286.3,170120,5.8,W,D*3A
#HEADINGA,COM2,0,22.0,FINE,2088,455953.300,2015685,18,18;SOL_COMPUTED,NARROW_INT,0.4320,161.5816,-14.8359,0.0000,0.5603,1.0895,"999",38,35,35,21,3,01,3,f3*58eaf410
$GNGGA,063855.40,3039.10579965,N,12047.28095949,E,4,35,0.5,4.5143,M,9.8161,M,10,0*77
$GNRMC,063855.40,A,3039.10579965,N,12047.28095949,E,0.029,252.6,170120,5.8,W,D*3E
#HEADINGA,COM2,0,22.0,FINE,2088,455953.400,2015785,18,18;SOL_COMPUTED,NARROW_INT,0.4331,161.5793,-14.5576,0.0000,0.5581,1.0872,"999",38,35,35,21,3,01,3,f3*b40eba1e
$GNGGA,063855.50,3039.10579907,N,12047.28096152,E,4,35,0.5,4.5207,M,9.8161,M,10,0*70
$GNRMC,063855.50,A,3039.10579907,N,12047.28096152,E,0.066,108.3,170120,5.8,W,D*38
#HEADINGA,COM2,0,22.0,FINE,2088,455953.500,2015885,17,18;SOL_COMPUTED,NARROW_INT,0.4345,161.8732,-15.5599,0.0000,0.5584,1.0804,"999",38,35,35,21,3,01,3,f3*922acb20
$GNGGA,063855.60,3039.10579951,N,12047.28095997,E,4,35,0.5,4.5192,M,9.8161,M,10,0*7D
$GNRMC,063855.60,A,3039.10579951,N,12047.28095997,E,0.051,288.3,170120,5.8,W,D*35
#HEADINGA,COM2,0,22.0,FINE,2088,455953.600,2015985,17,18;SOL_COMPUTED,NARROW_INT,0.4334,161.6996,-15.8560,0.0000,0.5609,1.0826,"999",38,35,35,21,3,01,3,f3*b17f680c
$GNGGA,063855.70,3039.10579873,N,12047.28096118,E,4,35,0.5,4.5234,M,9.8161,M,10,0*7E
$GNRMC,063855.70,A,3039.10579873,N,12047.28096118,E,0.047,126.9,170120,5.8,W,D*33
#HEADINGA,COM2,0,22.0,FINE,2088,455953.700,2016085,17,18;SOL_COMPUTED,NARROW_INT,0.4329,161.9232,-15.2424,0.0000,0.5600,1.0851,"999",38,35,35,21,3,01,3,f3*87fdc953
$GNGGA,063855.80,3039.10579989,N,12047.28095988,E,4,35,0.5,4.5202,M,9.8161,M,10,0*72
$GNRMC,063855.80,A,3039.10579989,N,12047.28095988,E,0.058,316.0,170120,5.8,W,D*3C
#HEADINGA,COM2,0,22.0,FINE,2088,455953.800,2016185,17,18;SOL_COMPUTED,NARROW_INT,0.4326,161.9007,-15.4563,0.0000,0.5602,1.0843,"999",38,35,35,21,3,01,3,f3*ba7e08b9
$GNGGA,063855.90,3039.10580007,N,12047.28096178,E,4,35,0.5,4.5123,M,9.8161,M,10,0*7E
$GNRMC,063855.90,A,3039.10580007,N,12047.28096178,E,0.059,83.7,170120,5.8,W,D*09
#HEADINGA,COM2,0,22.0,FINE,2088,455953.900,2016285,17,18;SOL_COMPUTED,NARROW_INT,0.4343,162.2322,-14.7859,0.0000,0.5570,1.0820,"999",38,35,35,21,3,01,3,f3*eaed0403
#REFSTATIONA,COM2,0,22.0,FINE,2088,455940.000,2015586,803,18;00000000,-2811044.342,4717820.352,3232735.546,0,RTCMV3,"0000"*e5835c41
$GNGGA,063856.00,3039.10580023,N,12047.28096191,E,4,35,0.5,4.5159,M,9.8161,M,11,0*79
$GNRMC,063856.00,A,3039.10580023,N,12047.28096191,E,0.007,35.1,170120,5.8,W,D*02
#HEADINGA,COM2,0,22.0,FINE,2088,455954.000,2016385,23,18;SOL_COMPUTED,NARROW_INT,0.4339,161.9665,-14.8854,0.0000,0.5571,1.0825,"999",38,35,35,21,3,01,3,f3*6b786d68
$GNGGA,063856.10,3039.10579886,N,12047.28095952,E,4,35,0.5,4.5156,M,9.8161,M,11,0*72
$GNRMC,063856.10,A,3039.10579886,N,12047.28095952,E,0.089,236.4,170120,5.8,W,D*34
#HEADINGA,COM2,0,22.0,FINE,2088,455954.100,2016485,18,18;SOL_COMPUTED,NARROW_INT,0.4327,161.5415,-15.4229,0.0000,0.5588,1.0833,"999",38,35,35,21,3,01,3,f3*765887fb
$GNGGA,063856.20,3039.10579885,N,12047.28096241,E,4,35,0.5,4.5250,M,9.8161,M,11,0*7D
$GNRMC,063856.20,A,3039.10579885,N,12047.28096241,E,0.090,90.1,170120,5.8,W,D*0D
#HEADINGA,COM2,0,22.0,FINE,2088,455954.200,2016586,17,18;SOL_COMPUTED,NARROW_INT,0.4311,161.7977,-15.1757,0.0000,0.5605,1.0879,"999",38,35,35,21,3,01,3,f3*03842d83
$GNGGA,063856.30,3039.10580065,N,12047.28096208,E,4,35,0.5,4.5201,M,9.8161,M,11,0*75
$GNRMC,063856.30,A,3039.10580065,N,12047.28096208,E,0.065,350.9,170120,5.8,W,D*3C
#HEADINGA,COM2,0,22.0,FINE,2088,455954.300,2016685,17,18;SOL_COMPUTED,NARROW_INT,0.4341,162.2889,-14.8220,0.0000,0.5572,1.0827,"999",38,35,35,21,3,01,3,f3*7725bb4e
$GNGGA,063856.40,3039.10579960,N,12047.28096061,E,4,35,0.5,4.5212,M,9.8161,M,11,0*77
$GNRMC,063856.40,A,3039.10579960,N,12047.28096061,E,0.059,230.4,170120,5.8,W,D*39
#HEADINGA,COM2,0,22.0,FINE,2088,455954.400,2016785,17,18;SOL_COMPUTED,NARROW_INT,0.4336,161.6397,-15.9679,0.0000,0.5597,1.0808,"999",38,35,35,21,3,01,3,f3*d5f921fb
$GNGGA,063856.50,3039.10579934,N,12047.28096198,E,4,35,0.5,4.5239,M,9.8161,M,11,0*79
$GNRMC,063856.50,A,3039.10579934,N,12047.28096198,E,0.044,102.2,170120,5.8,W,D*36
#HEADINGA,COM2,0,22.0,FINE,2088,455954.500,2016885,17,18;SOL_COMPUTED,NARROW_INT,0.4302,161.9826,-15.7240,0.0000,0.5638,1.0901,"999",38,35,35,21,3,01,3,f3*407d59b5
$GNGGA,063856.60,3039.10579890,N,12047.28095983,E,4,35,0.5,4.5176,M,9.8161,M,11,0*7C
$GNRMC,063856.60,A,3039.10579890,N,12047.28095983,E,0.069,256.8,170120,5.8,W,D*3C
#HEADINGA,COM2,0,22.0,FINE,2088,455954.600,2016985,17,18;SOL_COMPUTED,NARROW_INT,0.4327,161.8434,-15.0834,0.0000,0.5587,1.0853,"999",38,35,35,21,3,01,3,f3*4e2fd800
$GNGGA,063856.70,3039.10579974,N,12047.28096003,E,4,35,0.5,4.5204,M,9.8161,M,11,0*72
$GNRMC,063856.70,A,3039.10579974,N,12047.28096003,E,0.031,11.9,170120,5.8,W,D*09
#HEADINGA,COM2,0,22.0,FINE,2088,455954.700,2017085,17,18;SOL_COMPUTED,NARROW_INT,0.4319,161.8694,-15.0750,0.0000,0.5605,1.0881,"999",38,35,35,21,3,01,3,f3*fa4dc523
$GNGGA,063856.80,3039.10579855,N,12047.28096010,E,4,35,0.5,4.5240,M,9.8161,M,11,0*7D
$GNRMC,063856.80,A,3039.10579855,N,12047.28096010,E,0.043,177.4,170120,5.8,W,D*3F
#HEADINGA,COM2,0,22.0,FINE,2088,455954.800,2017185,17,18;SOL_COMPUTED,NARROW_INT,0.4338,161.5684,-15.3083,0.0000,0.5583,1.0825,"999",38,35,35,21,3,01,3,f3*58faf522
$GNGGA,063856.90,3039.10579918,N,12047.28096070,E,4,35,0.5,4.5219,M,9.8161,M,11,0*7E
$GNRMC,063856.90,A,3039.10579918,N,12047.28096070,E,0.029,40.0,170120,5.8,W,D*0D
#HEADINGA,COM2,0,22.0,FINE,2088,455954.900,2017285,17,18;SOL_COMPUTED,NARROW_INT,0.4337,162.1411,-15.9621,0.0000,0.5613,1.0818,"999",38,35,35,21,3,01,3,f3*310cc062
#REFSTATIONA,COM2,0,22.0,FINE,2088,455940.000,2015586,1803,18;00000000,-2811044.342,4717820.352,3232735.546,0,RTCMV3,"0000"*8e9d932c
$GNGGA,063857.00,3039.10579848,N,12047.28096169,E,4,35,0.5,4.5264,M,9.8161,M,12,0*72
$GNRMC,063857.00,A,3039.10579848,N,12047.28096169,E,0.040,129.6,170120,5.8,W,D*3F
#HEADINGA,COM2,0,22.0,FINE,2088,455955.000,2017385,23,18;SOL_COMPUTED,NARROW_INT,0.4329,162.0622,-15.9892,0.0