
$GNGGA,031501.10,3039.11551636,N,12047.31460485,E,1,07,2.8,24.7124,M,9.8179,M,,*72
$GNRMC,031501.10,A,3039.11551636,N,12047.31460485,E,0.045,123.7,150120,5.8,W,A*30
#HEADINGA,COM2,0,74.0,FINE,2088,270919.100,251328,18,18;SOL_COMPUTED,L1_FLOAT,13.3506,130.3446,66.2672,0.0000,45.0426,10.5217,"999",13,7,7,0,3,00,0,41*29461328
$GNGGA,031501.20,3039.11552394,N,12047.31460690,E,1,07,2.8,24.6736,M,9.8179,M,,*7D
$GNRMC,031501.20,A,3039.11552394,N,12047.31460690,E,0.061,89.0,150120,5.8,W,A*0B
#HEADINGA,COM2,0,74.0,FINE,2088,270919.200,251428,18,18;SOL_COMPUTED,L1_FLOAT,13.4495,130.5764,66.2377,0.0000,44.1558,10.3355,"999",13,7,7,0,3,00,0,41*7422141c
$GNGGA,031501.30,3039.11552786,N,12047.31459354,E,1,07,2.8,24.6276,M,9.8179,M,,*7D
$GNRMC,031501.30,A,3039.11552786,N,12047.31459354,E,0.014,21.9,150120,5.8,W,A*03
#HEADINGA,COM2,0,74.0,FINE,2088,270919.300,251528,18,18;SOL_COMPUTED,L1_FLOAT,13.5309,130.5635,66.2551,0.0000,43.9225,10.2598,"999",13,7,7,0,3,00,0,41*c05e9780
$GNGGA,031501.40,3039.11552175,N,12047.31460034,E,1,07,2.8,24.7152,M,9.8179,M,,*7B
$GNRMC,031501.40,A,3039.11552175,N,12047.31460034,E,0.007,206.4,150120,5.8,W,A*39
#HEADINGA,COM2,0,74.0,FINE,2088,270919.400,251628,18,18;SOL_COMPUTED,L1_FLOAT,13.4635,130.9172,66.2594,0.0000,44.0402,10.2714,"999",13,7,7,0,3,00,0,41*16f78af4
$GNGGA,031501.50,3039.11552321,N,12047.31459683,E,1,07,2.8,24.6905,M,9.8179,M,,*72
$GNRMC,031501.50,A,3039.11552321,N,12047.31459683,E,0.016,188.7,150120,5.8,W,A*3D
#HEADINGA,COM2,0,74.0,FINE,2088,270919.500,251728,18,18;SOL_COMPUTED,L1_FLOAT,13.5046,130.6267,66.2959,0.0000,44.0570,10.2387,"999",13,7,7,0,3,00,0,41*67dc69d7
$GNGGA,031501.60,3039.11553712,N,12047.31459185,E,1,07,2.8,24.5960,M,9.8179,M,,*75
$GNRMC,031501.60,A,3039.11553712,N,12047.31459185,E,0.036,31.3,150120,5.8,W,A*0F
#HEADINGA,COM2,0,74.0,FINE,2088,270919.600,251828,18,18;SOL_COMPUTED,L1_FLOAT,13.5238,130.6196,66.3008,0.0000,44.0034,10.2206,"999",13,7,7,0,3,00,0,41*c0c013b3
$GNGGA,031501.70,3039.11553926,N,12047.31459526,E,1,07,2.8,24.5967,M,9.8179,M,,*77
$GNRMC,031501.70,A,3039.11553926,N,12047.31459526,E,0.045,55.1,150120,5.8,W,A*0E
#HEADINGA,COM2,0,74.0,FINE,2088,270919.700,251928,18,18;SOL_COMPUTED,L1_FLOAT,13.4796,130.6077,66.2504,0.0000,44.0612,10.2975,"999",13,7,7,0,3,00,0,41*025c1ee4
$GNGGA,031501.80,3039.11554182,N,12047.31459227,E,1,07,2.8,24.5955,M,9.8179,M,,*7E
$GNRMC,031501.80,A,3039.11554182,N,12047.31459227,E,0.035,29.9,150120,5.8,W,A*02
#HEADINGA,COM2,0,74.0,FINE,2088,270919.800,252028,17,18;SOL_COMPUTED,L1_FLOAT,13.5309,130.6524,66.2622,0.0000,43.8994,10.2438,"999",13,7,7,0,3,00,0,41*4e7ca15a
$GNGGA,031501.90,3039.11554583,N,12047.31458769,E,1,07,2.8,24.5675,M,9.8179,M,,*79
$GNRMC,031501.90,A,3039.11554583,N,12047.31458769,E,0.032,16.5,150120,5.8,W,A*0F
#HEADINGA,COM2,0,74.0,FINE,2088,270919.900,252128,18,18;SOL_COMPUTED,L1_FLOAT,13.4997,130.7559,66.2848,0.0000,44.0070,10.2378,"999",13,7,7,0,3,00,0,41*1804e925
#REFSTATIONA,COM2,0,90.0,UNKNOWN,0,0.000,0,252232,0;00000001,0.000,0.000,0.000,0,NONE,""*5fadb2c1
$GNGGA,031502.00,3039.11555486,N,12047.31457756,E,1,07,2.8,24.5080,M,9.8179,M,,*79
$GNRMC,031502.00,A,3039.11555486,N,12047.31457756,E,0.060,345.7,150120,5.8,W,A*33
#HEADINGA,COM2,0,74.0,FINE,2088,270920.000,252228,22,18;SOL_COMPUTED,L1_FLOAT,13.5736,130.5532,66.2859,0.0000,43.8293,10.2016,"999",13,7,7,0,3,00,0,41*80454a3d
$GNGGA,031502.10,3039.11555557,N,12047.31456977,E,1,07,2.8,24.4627,M,9.8179,M,,*73
$GNRMC,031502.10,A,3039.11555557,N,12047.31456977,E,0.032,321.1,150120,5.8,W,A*30
#HEADINGA,COM2,0,74.0,FINE,2088,270920.100,252328,18,18;SOL_COMPUTED,L1_FLOAT,13.4729,130.5113,66.2532,0.0000,44.1106,10.3096,"999",13,7,7,0,3,00,0,41*3252c98e
$GNGGA,031502.20,3039.11555886,N,12047.31458499,E,1,07,2.8,24.4846,M,9.8179,M,,*7B
$GNRMC,031502.20,A,3039.11555886,N,12047.31458499,E,0.059,67.5,150120,5.8,W,A*09
#HEADINGA,COM2,0,74.0,FINE,2088,270920.200,252428,18,18;SOL_COMPUTED,L1_FLOAT,13.3258,131.2890,66.0626,0.0000,43.6148,10.4006,"999",13,7,7,0,3,00,0,41*1a04e225
$GNGGA,031502.30,3039.11555629,N,12047.31458284,E,1,07,2.8,24.4893,M,9.8179,M,,*73
$GNRMC,031502.30,A,3039.11555629,N,12047.31458284,E,0.042,100.8,150120,5.8,W,A*3E
#HEADINGA,COM2,0,74.0,FINE,2088,270920.300,252528,18,18;SOL_COMPUTED,L1_FLOAT,13.3882,131.4645,66.0848,0.0000,43.3938,10.3164,"999",13,7,7,0,3,00,0,41*13edb5ae
$GNGGA,031502.40,3039.11555758,N,12047.31456328,E,1,07,2.8,24.4354,M,9.8179,M,,*7A
$GNRMC,031502.40,A,3039.11555758,N,12047.31456328,E,0.038,247.7,150120,5.8,W,A*35
#HEADINGA,COM2,0,74.0,FINE,2088,270920.400,252628,18,18;SOL_COMPUTED,L1_FLOAT,13.3930,131.1212,66.0352,0.0000,43.3970,10.3875,"999",13,7,7,0,3,00,0,41*f2557c65
$GNGGA,031502.50,3039.11555634,N,12047.31457021,E,1,07,2.8,24.4638,M,9.8179,M,,*74
$GNRMC,031502.50,A,3039.11555634,N,12047.31457021,E,0.030,185.1,150120,5.8,W,A*37
#HEADINGA,COM2,0,74.0,FINE,2088,270920.500,252728,18,18;SOL_COMPUTED,L1_FLOAT,13.2708,131.1320,66.0107,0.0000,43.7492,10.5027,"999",13,7,7,0,3,00,0,41*5d526fc5
$GNGGA,031502.60,3039.11555763,N,12047.31457618,E,1,07,2.8,24.4720,M,9.8179,M,,*70
$GNRMC,031502.60,A,3039.11555763,N,12047.31457618,E,0.043,138.2,150120,5.8,W,A*3A
#HEADINGA,COM2,0,74.0,FINE,2088,270920.600,252828,18,18;SOL_COMPUTED,L1_FLOAT,13.3315,131.2459,66.0690,0.0000,43.6135,10.3942,"999",13,7,7,0,3,00,0,41*8367e344
$GNGGA,031502.70,3039.11556673,N,12047.31457619,E,1,07,2.8,24.4327,M,9.8179,M,,*70
$GNRMC,031502.70,A,3039.11556673,N,12047.31457619,E,0.042,82.0,150120,5.8,W,A*0A
#HEADINGA,COM2,0,74.0,FINE,2088,270920.700,252927,18,18;SOL_COMPUTED,L1_FLOAT,13.3462,131.4573,66.0567,0.0000,43.4778,10.3725,"999",13,7,7,0,3,00,0,41*e096c983
$GNGGA,031502.80,3039.11556918,N,12047.31457351,E,1,07,2.8,24.4455,M,9.8179,M,,*76
$GNRMC,031502.80,A,3039.11556918,N,12047.31457351,E,0.024,39.4,150120,5.8,W,A*0A
#HEADINGA,COM2,0,74.0,FINE,2088,270920.800,253027,18,18;SOL_COMPUTED,L1_FLOAT,13.3976,131.1713,66.0636,0.0000,43.4081,10.3544,"999",13,7,7,0,3,00,0,41*af3b09b2
$GNGGA,031502.90,3039.11557023,N,12047.31456709,E,1,07,2.8,24.4334,M,9.8179,M,,*7F
$GNRMC,031502.90,A,3039.11557023,N,12047.31456709,E,0.013,315.7,150120,5.8,W,A*39
#HEADINGA,COM2,0,74.0,FINE,2088,270920.900,253128,18,18;SOL_COMPUTED,L1_FLOAT,13.3211,131.1429,66.0138,0.0000,43.5795,10.4586,"999",13,7,7,0,3,00,0,41*c1c8107c
#REFSTATIONA,COM2,0,90.0,UNKNOWN,0,0.000,0,253231,0;00000001,0.000,0.000,0.000,0,NONE,""*3202f4b2
$GNGGA,031503.00,3039.11557158,N,12047.31456948,E,1,07,2.8,24.4370,M,9.8179,M,,*71
$GNRMC,031503.00,A,3039.11557158,N,12047.31456948,E,0.008,79.8,150120,5.8,W,A*0B
#HEADINGA,COM2,0,74.0,FINE,2088,270921.000,253227,23,18;SOL_COMPUTED,L1_FLOAT,13.3086,131.1223,66.0397,0.0000,43.6694,10.4484,"999",13,7,7,0,3,00,0,41*adbc2733
$GNGGA,031503.10,3039.11557955,N,12047.31456133,E,1,07,2.8,24.3827,M,9.8179,M,,*7F
$GNRMC,031503.10,A,3039.11557955,N,12047.31456133,E,0.028,341.7,150120,5.8,W,A*3E
#HEADINGA,COM2,0,74.0,FINE,2088,270921.100,253327,19,18;SOL_COMPUTED,L1_FLOAT,13.3475,131.3540,66.0655,0.0000,43.5133,10.3733,"999",13,7,7,0,3,00,0,41*91835f75
$GNGGA,031503.20,3039.11558129,N,12047.31456644,E,1,07,2.8,24.3878,M,9.8179,M,,*7D
$GNRMC,031503.20,A,3039.11558129,N,12047.31456644,E,0.026,51.6,150120,5.8,W,A*0B
#HEADINGA,COM2,0,74.0,FINE,2088,270921.200,253428,18,18;SOL_COMPUTED,L1_FLOAT,13.0478,131.6567,65.8041,0.0000,43.5599,10.6988,"999",13,7,7,0,3,00,0,41*8dae93d9
$GNGGA,031503.30,3039.11558103,N,12047.31455599,E,1,07,2.8,24.3390,M,9.8179,M,,*79
$GNRMC,031503.30,A,3039.11558103,N,12047.31455599,E,0.014,196.7,150120,5.8,W,A*38
#HEADINGA,COM2,0,74.0,FINE,2088,270921.300,253527,18,18;SOL_COMPUTED,L1_FLOAT,13.0392,131.7658,65.7893,0.0000,43.5282,10.7079,"999",13,7,7,0,3,00,0,41*c94c6c55
$GNGGA,031503.40,3039.11557768,N,12047.31456033,E,1,07,2.8,24.3877,M,9.8179,M,,*7E
$GNRMC,031503.40,A,3039.11557768,N,12047.31456033,E,0.030,183.4,150120,5.8,W,A*3C
#HEADINGA,COM2,0,74.0,FINE,2088,270921.400,253628,18,18;SOL_COMPUTED,L1_FLOAT,12.9760,131.6249,65.7368,0.0000,43.6931,10.8187,"999",13,7,7,0,3,00,0,41*1871f2fe
$GNGGA,031503.50,3039.11557707,N,12047.31456808,E,1,07,2.8,24.4390,M,9.8179,M,,*73
$GNRMC,031503.50,A,3039.11557707,N,12047.31456808,E,0.031,152.1,150120,5.8,W,A*3C
#HEADINGA,COM2,0,74.0,FINE,2088,270921.500,253728,18,18;SOL_COMPUTED,L1_FLOAT,13.0346,131.6060,65.7926,0.0000,43.5952,10.7238,"999",13,7,7,0,3,00,0,41*502cf5de
$GNGGA,031503.60,3039.11559268,N,12047.31455495,E,1,07,2.8,24.3308,M,9.8179,M,,*7F
$GNRMC,031503.60,A,3039.11559268,N,12047.31455495,E,0.037,347.7,150120,5.8,W,A*30
#HEADINGA,COM2,0,74.0,FINE,2088,270921.600,253828,18,18;SOL_COMPUTED,L1_FLOAT,13.0939,131.7695,65.8005,0.0000,43.3587,10.6527,"999",13,7,7,0,3,00,0,41*f641d1c7
$GNGGA,031503.70,3039.11560061,N,12047.31455324,E,1,07,2.8,24.2856,M,9.8179,M,,*73
$GNRMC,031503.70,A,3039.11560061,N,12047.31455324,E,0.053,7.7,150120,5.8,W,A*38
#HEADINGA,COM2,0,74.0,FINE,2088,270921.700,253928,18,18;SOL_COMPUTED,L1_FLOAT,13.0408,131.6181,65.7517,0.0000,43.4982,10.7523,"999",13,7,7,0,3,00,0,41*531a1660
$GNGGA,031503.80,3039.11560198,N,12047.31455708,E,1,07,2.8,24.2866,M,9.8179,M,,*72
$GNRMC,031503.80,A,3039.11560198,N,12047.31455708,E,0.046,39.9,150120,5.8,W,A*0D
#HEADINGA,COM2,0,74.0,FINE,2088,270921.800,254028,18,18;SOL_COMPUTED,L1_FLOAT,13.0231,131.6845,65.7953,0.0000,43.6086,10.7229,"999",13,7,7,0,3,00,0,41*54c80039
$GNGGA,031503.90,3039.11559654,N,12047.31455799,E,1,07,2.8,24.3112,M,9.8179,M,,*7D
$GNRMC,031503.90,A,3039.11559654,N,12047.31455799,E,0.028,114.2,150120,5.8,W,A*34
#HEADINGA,COM2,0,74.0,FINE,2088,270921.900,254128,18,18;SOL_COMPUTED,L1_FLOAT,12.9792,131.5445,65.7708,0.0000,43.7564,10.7937,"999",13,7,7,0,3,00,0,41*14f43105
#REFSTATIONA,COM2,0,90.0,UNKNOWN,0,0.000,0,254232,0;00000001,0.000,0.000,0.000,0,NONE,""*16b4829a
$GNGGA,031504.00,3039.11560601,N,12047.31454640,E,1,07,2.8,24.2467,M,9.8179,M,,*7B
$GNRMC,031504.00,A,3039.11560601,N,12047.31454640,E,0.029,337.4,150120,5.8,W,A*30
#HEADINGA,COM2,0,74.0,FINE,2088,270922.000,254228,22,18;SOL_COMPUTED,L1_FLOAT,13.1248,131.7755,65.7920,0.0000,43.2338,10.6337,"999",13,7,7,0,3,00,0,41*3163acab
$GNGGA,031504.10,3039.11560725,N,12047.31456214,E,1,07,2.8,24.2822,M,9.8179,M,,*77
$GNRMC,031504.10,A,3039.11560725,N,12047.31456214,E,0.059,74.8,150120,5.8,W,A*0E
#HEADINGA,COM2,0,74.0,FINE,2088,270922.100,254328,18,18;SOL_COMPUTED,L1_FLOAT,12.9861,131.6848,65.7153,0.0000,43.5924,10.8218,"999",13,7,7,0,3,00,0,41*0175183d
$GNGGA,031504.20,3039.11561883,N,12047.31456529,E,1,07,2.8,24.1991,M,9.8179,M,,*75
$GNRMC,031504.20,A,3039.11561883,N,12047.31456529,E,0.112,69.1,150120,5.8,W,A*0D
#HEADINGA,COM2,0,74.0,FINE,2088,270922.200,254428,18,18;SOL_COMPUTED,L1_FLOAT,12.9868,132.4235,65.7265,0.0000,42.9898,10.6376,"999",13,7,7,0,3,00,0,41*365e3249
$GNGGA,031504.30,3039.11562566,N,12047.31455086,E,1,07,2.8,24.1120,M,9.8179,M,,*70
$GNRMC,031504.30,A,3039.11562566,N,12047.31455086,E,0.074,49.2,150120,5.8,W,A*0A
#HEADINGA,COM2,0,74.0,FINE,2088,270922.300,254528,18,18;SOL_COMPUTED,L1_FLOAT,12.9004,132.3564,65.6330,0.0000,43.1411,10.7948,"999",13,7,7,0,3,00,0,41*f0e7f7ae
$GNGGA,031504.40,3039.11562279,N,12047.31454779,E,1,07,2.8,24.1481,M,9.8179,M,,*76
$GNRMC,031504.40,A,3039.11562279,N,12047.31454779,E,0.033,24.6,150120,5.8,W,A*0E
#HEADINGA,COM2,0,74.0,FINE,2088,270922.400,254628,18,18;SOL_COMPUTED,L1_FLOAT,12.9443,132.3376,65.6535,0.0000,43.0330,10.7423,"999",13,7,7,0,3,00,0,41*f7900abd
$GNGGA,031504.50,3039.11562167,N,12047.31454760,E,1,07,2.8,24.1663,M,9.8179,M,,*7D
$GNRMC,031504.50,A,3039.11562167,N,12047.31454760,E,0.014,14.4,150120,5.8,W,A*0F
#HEADINGA,COM2,0,74.0,FINE,2088,270922.500,254728,18,18;SOL_COMPUTED,L1_FLOAT,12.9165,132.3656,65.6583,0.0000,43.1230,10.7585,"999",13,7,7,0,3,00,0,41*6790d22f
$GNGGA,031504.60,3039.11562384,N,12047.31454489,E,1,07,2.8,24.1352,M,9.8179,M,,*72
$GNRMC,031504.60,A,3039.11562384,N,12047.31454489,E,0.008,80.6,150120,5.8,W,A*05
#HEADINGA,COM2,0,74.0,FINE,2088,270922.600,254828,18,18;SOL_COMPUTED,L1_FLOAT,12.9285,132.3181,65.6554,0.0000,43.0915,10.7552,"999",13,7,7,0,3,00,0,41*a77d1831
$GNGGA,031504.70,3039.11563762,N,12047.31453469,E,1,07,2.8,24.0037,M,9.8179,M,,*76
$GNRMC,031504.70,A,3039.11563762,N,12047.31453469,E,0.040,21.4,150120,5.8,W,A*05
#HEADINGA,COM2,0,74.0,FINE,2088,270922.700,254928,18,18;SOL_COMPUTED,L1_FLOAT,12.9618,132.6020,65.6779,0.0000,42.9277,10.6830,"999",13,7,7,0,3,00,0,41*f0086b29
$GNGGA,031504.80,3039.11564443,N,12047.31453563,E,1,07,2.8,23.9788,M,9.8179,M,,*78
$GNRMC,031504.80,A,3039.11564443,N,12047.31453563,E,0.061,22.7,150120,5.8,W,A*05
#HEADINGA,COM2,0,74.0,FINE,2088,270922.800,255028,17,18;SOL_COMPUTED,L1_FLOAT,12.9601,132.4149,65.6344,0.0000,42.9179,10.7378,"999",13,7,7,0,3,00,0,41*c9ad1004
$GNGGA,031504.90,3039.11563732,N,12047.31453905,E,1,07,2.8,24.0493,M,9.8179,M,,*70
$GNRMC,031504.90,A,3039.11563732,N,12047.31453905,E,0.014,22.4,150120,5.8,W,A*0B
#HEADINGA,COM2,0,74.0,FINE,2088,270922.900,255128,18,18;SOL_COMPUTED,L1_FLOAT,12.9370,132.3209,65.6407,0.0000,43.0326,10.7599,"999",13,7,7,0,3,00,0,41*03b5e437
#REFSTATIONA,COM2,0,90.0,UNKNOWN,0,0.000,0,255232,0;00000001,0.000,0.000,0.000,0,NONE,""*51a77461
$GNGGA,031505.00,3039.11564343,N,12047.31453875,E,1,07,2.8,24.0136,M,9.8179,M,,*71
$GNRMC,031505.00,A,3039.11564343,N,12047.31453875,E,0.032,33.5,150120,5.8,W,A*05
#HEADINGA,COM2,0,74.0,FINE,2088,270923.000,255228,22,18;SOL_COMPUTED,L1_FLOAT,12.9179,132.5043,65.6265,0.0000,43.0136,10.7714,"999",13,7,7,0,3,00,0,41*48af1529
$GNGGA,031505.10,3039.11564360,N,12047.31454992,E,1,07,2.8,24.0572,M,9.8179,M,,*7A
$GNRMC,031505.10,A,3039.11564360,N,12047.31454992,E,0.053,69.8,150120,5.8,W,A*0F
#HEADINGA,COM2,0,74.0,FINE,2088,270923.100,255328,18,18;SOL_COMPUTED,L1_FLOAT,12.8673,132.2439,65.5486,0.0000,43.1333,10.9043,"999",13,7,7,0,3,00,0,41*dd3ce9c1
$GNGGA,031505.20,3039.11565579,N,12047.31454986,E,1,07,2.8,23.9857,M,9.8179,M,,*77
$GNRMC,031505.20,A,3039.11565579,N,12047.31454986,E,0.091,49.8,150120,5.8,W,A*0A
#HEADINGA,COM2,0,74.0,FINE,2088,270923.200,255428,18,18;SOL_COMPUTED,L1_FLOAT,12.8083,133.3697,65.4927,0.0000,42.4950,10.7957,"999",13,7,7,0,3,00,0,41*a721a02f
$GNGGA,031505.30,3039.11566013,N,12047.31454161,E,1,07,2.8,23.9370,M,9.8179,M,,*73
$GNRMC,031505.30,A,3039.11566013,N,12047.31454161,E,0.069,33.6,150120,5.8,W,A*04
#HEADINGA,COM2,0,74.0,FINE,2088,270923.300,255528,18,18;SOL_COMPUTED,L1_FLOAT,12.8084,132.9699,65.5019,0.0000,42.6337,10.8210,"999",13,7,7,0,3,00,0,41*3077f085
$GNGGA,031505.40,3039.11566311,N,12047.31453004,E,1,07,2.8,23.8838,M,9.8179,M,,*76
$GNRMC,031505.40,A,3039.11566311,N,12047.31453004,E,0.048,356.6,150120,5.8,W,A*34
#HEADINGA,COM2,0,74.0,FINE,2088,270923.400,255628,18,18;SOL_COMPUTED,L1_FLOAT,12.8651,133.2885,65.5895,0.0000,42.4871,10.6722,"999",13,7,7,0,3,00,0,41*a6b9d2be
$GNGGA,031505.50,3039.11567655,N,12047.31451406,E,1,07,2.8,23.7644,M,9.8179,M,,*7D
$GNRMC,031505.50,A,3039.11567655,N,12047.31451406,E,0.098,338.0,150120,5.8,W,A*36
#HEADINGA,COM2,0,74.0,FINE,2088,270923.500,255728,18,18;SOL_COMPUTED,L1_FLOAT,12.8121,133.0222,65.5107,0.0000,42.6160,10.8055,"999",13,7,7,0,3,00,0,41*3e3fe38a
$GNGGA,031505.60,3039.11567967,N,12047.31451520,E,1,07,2.8,23.7598,M,9.8179,M,,*77
$GNRMC,031505.60,A,3039.11567967,N,12047.31451520,E,0.088,341.6,150120,5.8,W,A*37
#HEADINGA,COM2,0,74.0,FINE,2088,270923.600,255828,18,18;SOL_COMPUTED,L1_FLOAT,12.8762,133.0263,65.5298,0.0000,42.4319,10.7350,"999",13,7,7,0,3,00,0,41*d3b2b343
$GNGGA,031505.70,3039.11569224,N,12047.31451390,E,1,07,2.8,23.6745,M,9.8179,M,,*7A
$GNRMC,031505.70,A,3039.11569224,N,12047.31451390,E,0.113,1.0,150120,5.8,W,A*3B
#HEADINGA,COM2,0,74.0,FINE,2088,270923.700,255928,18,18;SOL_COMPUTED,L1_FLOAT,12.8613,133.1015,65.5872,0.0000,42.5497,10.6922,"999",13,7,7,0,3,00,0,41*156588fa
$GNGGA,031505.80,3039.11570127,N,12047.31451102,E,1,07,2.8,23.6086,M,9.8179,M,,*7C
$GNRMC,031505.80,A,3039.11570127,N,12047.31451102,E,0.125,4.7,150120,5.8,W,A*32
#HEADINGA,COM2,0,74.0,FINE,2088,270923.800,256028,17,18;SOL_COMPUTED,L1_FLOAT,12.8876,133.1238,65.5547,0.0000,42.4010,10.6960,"999",13,7,7,0,3,00,0,41*90ad2d82
$GNGGA,031505.90,3039.11569379,N,12047.31451320,E,1,07,2.8,23.6554,M,9.8179,M,,*74
$GNRMC,031505.90,A,3039.11569379,N,12047.31451320,E,0.061,357.4,150120,5.8,W,A*37
#HEADINGA,COM2,0,74.0,FINE,2088,270923.900,256128,18,18;SOL_COMPUTED,L1_FLOAT,12.8449,132.9664,65.5241,0.0000,42.5399,10.7707,"999",13,7,7,0,3,00,0,41*b2e7c0f9
#REFSTATIONA,COM2,0,90.0,UNKNOWN,0,0.000,0,256232,0;00000001,0.000,0.000,0.000,0,NONE,""*98936f6c
$GNGGA,031506.00,3039.11569391,N,12047.31451635,E,1,07,2.8,23.7003,M,9.8179,M,,*7F
$GNRMC,031506.00,A,3039.11569391,N,12047.31451635,E,0.064,343.6,150120,5.8,W,A*38
#HEADINGA,COM2,0,74.0,FINE,2088,270924.000,256228,22,18;SOL_COMPUTED,L1_FLOAT,12.8612,133.2806,65.5152,0.0000,42.3714,10.7383,"999",13,7,7,0,3,00,0,41*180c14eb
$GNGGA,031506.10,3039.11569350,N,12047.31451945,E,1,07,2.8,23.7032,M,9.8179,M,,*79
$GNRMC,031506.10,A,3039.11569350,N,12047.31451945,E,0.038,354.3,150120,5.8,W,A*36
#HEADINGA,COM2,0,74.0,FINE,2088,270924.100,256328,19,18;SOL_COMPUTED,L1_FLOAT,12.8535,133.0420,65.4988,0.0000,42.4430,10.7783,"999",13,7,7,0,3,00,0,41*3583cb34
$GNGGA,031506.20,3039.11570222,N,12047.31452046,E,1,07,2.8,23.6392,M,9.8179,M,,*77
$GNRMC,031506.20,A,3039.11570222,N,12047.31452046,E,0.062,22.5,150120,5.8,W,A*0B
#HEADINGA,COM2,0,74.0,FINE,2088,270924.200,256428,18,18;SOL_COMPUTED,L1_FLOAT,13.0191,133.2209,65.7120,0.0000,41.8142,10.3446,"999",13,7,7,0,3,00,0,41*4289e674
$GNGGA,031506.30,3039.11570596,N,12047.31451411,E,1,07,2.8,23.6094,M,9.8179,M,,*7E
$GNRMC,031506.30,A,3039.11570596,N,12047.31451411,E,0.065,352.2,150120,5.8,W,A*33
#HEADINGA,COM2,0,74.0,FINE,2088,270924.300,256528,18,18;SOL_COMPUTED,L1_FLOAT,12.9929,133.1528,65.6530,0.0000,41.8226,10.4198,"999",13,7,7,0,3,00,0,41*5eb36974
$GNGGA,031506.40,3039.11570576,N,12047.31451030,E,1,07,2.8,23.6265,M,9.8179,M,,*7C
$GNRMC,031506.40,A,3039.11570576,N,12047.31451030,E,0.075,322.1,150120,5.8,W,A*38
#HEADINGA,COM2,0,74.0,FINE,2088,270924.400,256628,18,18;SOL_COMPUTED,L1_FLOAT,12.9808,133.2720,65.6768,0.0000,41.8616,10.4001,"999",13,7,7,0,3,00,0,41*d9c6c4a9
$GNGGA,031506.50,3039.11570286,N,12047.31452043,E,1,07,2.8,23.6838,M,9.8179,M,,*70
$GNRMC,031506.50,A,3039.11570286,N,12047.31452043,E,0.042,329.7,150120,5.8,W,A*3F
#HEADINGA,COM2,0,74.0,FINE,2088,270924.500,256728,18,18;SOL_COMPUTED,L1_FLOAT,12.9324,133.1710,65.6287,0.0000,41.9701,10.4871,"999",13,7,7,0,3,00,0,41*7692f830
$GNGGA,031506.60,3039.11571543,N,12047.31451076,E,1,07,2.8,23.5908,M,9.8179,M,,*78
$GNRMC,031506.60,A,3039.11571543,N,12047.31451076,E,0.093,335.9,150120,5.8,W,A*39
#HEADINGA,COM2,0,74.0,FINE,2088,270924.600,256828,18,18;SOL_COMPUTED,L1_FLOAT,13.0603,133.3261,65.6577,0.0000,41.5561,10.3479,"999",13,7,7,0,3,00,0,41*0ec9498d
$GNGGA,031506.70,3039.11571475,N,12047.31451569,E,1,07,2.8,23.5697,M,9.8179,M,,*7F
$GNRMC,031506.70,A,3039.11571475,N,12047.31451569,E,0.045,0.9,150120,5.8,W,A*39
#HEADINGA,COM2,0,74.0,FINE,2088,270924.700,256928,17,18;SOL_COMPUTED,L1_FLOAT,13.0331,133.0942,65.6983,0.0000,41.7781,10.3543,"999",13,7,7,0,3,00,0,41*59d798c0
$GNGGA,031506.80,3039.11571210,N,12047.31452197,E,1,07,2.8,23.5962,M,9.8179,M,,*76
$GNRMC,031506.80,A,3039.11571210,N,12047.31452197,E,0.025,27.5,150120,5.8,W,A*0A
#HEADINGA,COM2,0,74.0,FINE,2088,270924.800,257028,18,18;SOL_COMPUTED,L1_FLOAT,12.9992,133.0582,65.7082,0.0000,41.9125,10.3759,"999",13,7,7,0,3,00,0,41*4a9cd5f9
$GNGGA,031506.90,3039.11570755,N,12047.31452344,E,1,07,2.8,23.6387,M,9.8179,M,,*7C
$GNRMC,031506.90,A,3039.11570755,N,12047.31452344,E,0.014,281.1,150120,5.8,W,A*3A
#HEADINGA,COM2,0,74.0,FINE,2088,270924.900,257128,18,18;SOL_COMPUTED,L1_FLOAT,12.9731,133.1947,65.6994,0.0000,41.9385,10.3928,"999",13,7,7,0,3,00,0,41*8ea863c3
#REFSTATIONA,COM2,0,90.0,UNKNOWN,0,0.000,0,257232,0;00000001,0.000,0.000,0.000,0,NONE,""*df809997
$GNGGA,031507.00,3039.11571024,N,12047.31453044,E,1,07,2.8,23.6494,M,9.8179,M,,*73
$GNRMC,031507.00,A,3039.11571024,N,12047.31453044,E,0.019,16.0,150120,5.8,W,A*00
#HEADINGA,COM2,0,74.0,FINE,2088,270925.000,257228,22,18;SOL_COMPUTED,L1_FLOAT,13.0203,133.1282,65.6961,0.0000,41.8000,10.3631,"999",13,7,7,0,3,00,0,41*ecfc973d
$GNGGA,031507.10,3039.11571419,N,12047.31453623,E,1,07,2.8,23.6440,M,9.8179,M,,*76
$GNRMC,031507.10,A,3039.11571419,N,12047.31453623,E,0.041,33.5,150120,5.8,W,A*03
#HEADINGA,COM2,0,74.0,FINE,2088,270925.100,257328,18,18;SOL_COMPUTED,L1_FLOAT,13.0060,133.1406,65.6588,0.0000,41.7804,10.4043,"999",13,7,7,0,3,00,0,41*5a83d36a
$GNGGA,031507.20,3039.11571934,N,12047.31453478,E,1,07,2.8,23.6061,M,9.8179,M,,*7C
$GNRMC,031507.20,A,3039.11571934,N,12047.31453478,E,0.053,17.5,150120,5.8,W,A*0B
#HEADINGA,COM2,0,74.0,FINE,2088,270925.200,257428,18,18;SOL_COMPUTED,L1_FLOAT,13.0134,133.5619,65.7004,0.0000,41.3130,10.2264,"999",13,7,7,0,3,00,0,41*e91ecf60
$GNGGA,031507.30,3039.11571370,N,12047.31453502,E,1,07,2.8,23.6451,M,9.8179,M,,*7C
$GNRMC,031507.30,A,3039.11571370,N,12047.31453502,E,0.023,324.6,150120,5.8,W,A*3B
#HEADINGA,COM2,0,74.0,FINE,2088,270925.300,257528,18,18;SOL_COMPUTED,L1_FLOAT,12.9772,133.5953,65.6818,0.0000,41.3864,10.2675,"999",13,7,7,0,3,00,0,41*a999065d
$GNGGA,031507.40,3039.11571033,N,12047.31454227,E,1,07,2.8,23.7146,M,9.8179,M,,*7A
$GNRMC,031507.40,A,3039.11571033,N,12047.31454227,E,0.025,303.9,150120,5.8,W,A*33
#HEADINGA,COM2,0,74.0,FINE,2088,270925.400,257628,18,18;SOL_COMPUTED,L1_FLOAT,12.9991,133.4052,65.7108,0.0000,41.4201,10.2409,"999",13,7,7,0,3,00,0,41*e56c86f3
$GNGGA,031507.50,3039.11570774,N,12047.31455427,E,1,07,2.8,23.7847,M,9.8179,M,,*71
$GNRMC,031507.50,A,3039.11570774,N,12047.31455427,E,0.010,350.4,150120,5.8,W,A*3D
#HEADINGA,COM2,0,74.0,FINE,2088,270925.500,257728,18,18;SOL_COMPUTED,L1_FLOAT,12.8746,133.3899,65.6739,0.0000,41.7640,10.3715,"999",13,7,7,0,3,00,0,41*eeac906a
$GNGGA,031507.60,3039.11571462,N,12047.31454744,E,1,07,2.8,23.7288,M,9.8179,M,,*79
$GNRMC,031507.60,A,3039.11571462,N,12047.31454744,E,0.048,328.7,150120,5.8,W,A*3D
#HEADINGA,COM2,0,74.0,FINE,2088,270925.600,257828,18,18;SOL_COMPUTED,L1_FLOAT,12.9905,133.5528,65.6737,0.0000,41.3393,10.2665,"999",13,7,7,0,3,00,0,41*e232aa07
$GNGGA,031507.70,3039.11571780,N,12047.31455183,E,1,07,2.8,23.7136,M,9.8179,M,,*7D
$GNRMC,031507.70,A,3039.11571780,N,12047.31455183,E,0.045,356.3,150120,5.8,W,A*3F
#HEADINGA,COM2,0,74.0,FINE,2088,270925.700,257928,18,18;SOL_COMPUTED,L1_FLOAT,13.0089,133.5161,65.7503,0.0000,41.4128,10.1919,"999",13,7,7,0,3,00,0,41*995511ce
$GNGGA,031507.80,3039.11571920,N,12047.31455907,E,1,07,2.8,23.7159,M,9.8179,M,,*7B
$GNRMC,031507.80,A,3039.11571920,N,12047.31455907,E,0.046,28.8,150120,5.8,W,A*02
#HEADINGA,COM2,0,74.0,FINE,2088,270925.800,258028,18,18;SOL_COMPUTED,L1_FLOAT,13.0132,133.6156,65.7517,0.0000,41.3691,10.1797,"999",13,7,7,0,3,00,0,41*0887427c
$GNGGA,031507.90,3039.11571609,N,12047.31456695,E,1,07,2.8,23.7658,M,9.8179,M,,*7F
$GNRMC,031507.90,A,3039.11571609,N,12047.31456695,E,0.035,40.9,150120,5.8,W,A*0B
#HEADINGA,COM2,0,74.0,FINE,2088,270925.900,258128,18,18;SOL_COMPUTED,L1_FLOAT,12.9412,133.6051,65.6644,0.0000,41.4605,10.3089,"999",13,7,7,0,3,00,0,41*70e9da3f
#REFSTATIONA,COM2,0,90.0,UNKNOWN,0,0.000,0,258232,0;00000001,0.000,0.000,0.000,0,NONE,""*8486e22c
$GNGGA,031508.00,3039.11571264,N,12047.31457156,E,1,07,2.8,23.8289,M,9.8179,M,,*78
$GNRMC,031508.00,A,3039.11571264,N,12047.31457156,E,0.022,352.7,150120,5.8,W,A*33
#HEADINGA,COM2,0,74.0,FINE,2088,270926.000,258228,23,18;SOL_COMPUTED,L1_FLOAT,12.9181,133.5447,65.6395,0.0000,41.5120,10.3523,"999",13,7,7,0,3,00,0,41*816071b5
$GNGGA,031508.10,3039.11572064,N,12047.31457832,E,1,07,2.8,23.7836,M,9.8179,M,,*72
$GNRMC,031508.10,A,3039.11572064,N,12047.31457832,E,0.063,38.1,150120,5.8,W,A*04
#HEADINGA,COM2,0,74.0,FINE,2088,270926.100,258328,19,18;SOL_COMPUTED,L1_FLOAT,13.0243,133.5099,65.7161,0.0000,41.3044,10.2077,"999",13,7,7,0,3,00,0,41*474d84e3
$GNGGA,031508.20,3039.11572572,N,12047.31458063,E,1,07,2.8,23.7654,M,9.8179,M,,*7A
$GNRMC,031508.20,A,3039.11572572,N,12047.31458063,E,0.080,26.6,150120,5.8,W,A*03
#HEADINGA,COM2,0,74.0,FINE,2088,270926.200,258428,18,18;SOL_COMPUTED,L1_FLOAT,13.0114,133.8174,65.7207,0.0000,40.8913,10.0900,"999",13,7,7,0,3,00,0,41*7d8b9c88
$GNGGA,031508.30,3039.11572181,N,12047.31458340,E,1,07,2.8,23.8052,M,9.8179,M,,*7E
$GNRMC,031508.30,A,3039.11572181,N,12047.31458340,E,0.050,13.8,150120,5.8,W,A*0D
#HEADINGA,COM2,0,74.0,FINE,2088,270926.300,258528,17,18;SOL_COMPUTED,L1_FLOAT,13.0374,133.5280,65.7744,0.0000,40.9817,10.0478,"999",13,7,7,0,3,00,0,41*c6251def
$GNGGA,031508.40,3039.11571524,N,12047.31458605,E,1,07,2.8,23.8780,M,9.8179,M,,*7D
$GNRMC,031508.40,A,3039.11571524,N,12047.31458605,E,0.035,315.6,150120,5.8,W,A*3E
#HEADINGA,COM2,0,74.0,FINE,2088,270926.400,258628,18,18;SOL_COMPUTED,L1_FLOAT,13.0025,133.5523,65.7052,0.0000,40.9726,10.1289,"999",13,7,7,0,3,00,0,41*8cd53af6
$GNGGA,031508.50,3039.11571377,N,12047.31458613,E,1,07,2.8,23.9088,M,9.8179,M,,*75
$GNRMC,031508.50,A,3039.11571377,N,12047.31458613,E,0.056,296.6,150120,5.8,W,A*37
#HEADINGA,COM2,0,74.0,FINE,2088,270926.500,258728,18,18;SOL_COMPUTED,L1_FLOAT,13.0257,133.7043,65.7408,0.0000,40.9079,10.0706,"999",13,7,7,0,3,00,0,41*546e55a9
$GNGGA,031508.60,3039.11571552,N,12047.31459102,E,1,07,2.8,23.9076,M,9.8179,M,,*70
$GNRMC,031508.60,A,3039.11571552,N,12047.31459102,E,0.040,313.3,150120,5.8,W,A*3D
#HEADINGA,COM2,0,74.0,FINE,2088,270926.600,258828,18,18;SOL_COMPUTED,L1_FLOAT,13.0389,133.6061,65.7766,0.0000,40.9516,10.0387,"999",13,7,7,0,3,00,0,41*09f18bfa
$GNGGA,031508.70,3039.11572396,N,12047.31459249,E,1,07,2.8,23.8671,M,9.8179,M,,*70
$GNRMC,031508.70,A,3039.11572396,N,12047.31459249,E,0.069,345.4,150120,5.8,W,A*32
#HEADINGA,COM2,0,74.0,FINE,2088,270926.700,258928,18,18;SOL_COMPUTED,L1_FLOAT,13.0709,133.6785,65.7556,0.0000,40.7946,10.0254,"999",13,7,7,0,3,00,0,41*d53ac873
$GNGGA,031508.80,3039.11572651,N,12047.31459463,E,1,07,2.8,23.8561,M,9.8179,M,,*7D
$GNRMC,031508.80,A,3039.11572651,N,12047.31459463,E,0.071,347.8,150120,5.8,W,A*3A
#HEADINGA,COM2,0,74.0,FINE,2088,270926.800,259028,17,18;SOL_COMPUTED,L1_FLOAT,13.1038,133.7117,65.8107,0.0000,40.7674,9.9535,"999",13,7,7,0,3,00,0,41*928c4017
$GNGGA,031508.90,3039.11571860,N,12047.31460591,E,1,07,2.8,23.9370,M,9.8179,M,,*72
$GNRMC,031508.90,A,3039.11571860,N,12047.31460591,E,0.026,348.9,150120,5.8,W,A*3E
#HEADINGA,COM2,0,74.0,FINE,2088,270926.900,259128,17,18;SOL_COMPUTED,L1_FLOAT,12.9743,133.6228,65.7246,0.0000,41.0626,10.1292,"999",13,7,7,0,3,00,0,41*a4b3fa8e
#REFSTATIONA,COM2,0,90.0,UNKNOWN,0,0.000,0,259232,0;00000001,0.000,0.000,0.000,0,NONE,""*c39514d7
$GNGGA,031509.00,3039.11571166,N,12047.31461602,E,1,07,2.8,24.0011,M,9.8179,M,,*77
$GNRMC,031509.00,A,3039.11571166,N,12047.31461602,E,0.011,149.7,150120,5.8,W,A*38
#HEADINGA,COM2,0,74.0,FINE,2088,270927.000,259228,22,18;SOL_COMPUTED,L1_FLOAT,12.9993,133.7045,65.7299,0.0000,40.9652,10.0991,"999",13,7,7,0,3,00,0,41*eef05796
$GNGGA,031509.10,3039.11571484,N,12047.31462794,E,1,07,2.8,24.0217,M,9.8179,M,,*76
$GNRMC,031509.10,A,3039.11571484,N,12047.31462794,E,0.040,66.4,150120,5.8,W,A*06
#HEADINGA,COM2,0,74.0,FINE,2088,270927.100,259328,18,18;SOL_COMPUTED,L1_FLOAT,12.9434,133.8494,65.6501,0.0000,42.8560,14.9061,"999",13,6,6,0,3,00,0,41*78c18640
$GNGGA,031509.20,3039.11572315,N,12047.31463417,E,1,07,2.8,23.9993,M,9.8179,M,,*79
$GNRMC,031509.20,A,3039.11572315,N,12047.31463417,E,0.076,40.5,150120,5.8,W,A*00
#HEADINGA,COM2,0,74.0,FINE,2088,270927.200,259428,18,18;SOL_COMPUTED,L1_FLOAT,9.1491,136.1623,66.1490,0.0000,59.6340,19.9780,"999",13,6,6,0,3,00,0,41*1a9bab04
$GNGGA,031509.30,3039.11571843,N,12047.31464062,E,1,07,2.8,24.0717,M,9.8179,M,,*7E
$GNRMC,031509.30,A,3039.11571843,N,12047.31464062,E,0.049,23.5,150120,5.8,W,A*02
#HEADINGA,COM2,0,74.0,FINE,2088,270927.300,259528,18,18;SOL_COMPUTED,L1_FLOAT,9.0949,135.8948,66.0757,0.0000,59.9156,20.1821,"999",13,6,6,0,3,00,0,41*8b913a83
$GNGGA,031509.40,3039.11570551,N,12047.31464871,E,1,07,2.8,24.1752,M,9.8179,M,,*7C
$GNRMC,031509.40,A,3039.11570551,N,12047.31464871,E,0.010,175.9,150120,5.8,W,A*32
#HEADINGA,COM2,0,74.0,FINE,2088,270927.400,259628,18,18;SOL_COMPUTED,L1_FLOAT,9.0752,135.6930,66.0926,0.0000,60.1604,20.1973,"999",13,6,6,0,3,00,0,41*edb1324c
$GNGGA,031509.50,3039.11570484,N,12047.31465418,E,1,07,2.8,24.1882,M,9.8179,M,,*74
$GNRMC,031509.50,A,3039.11570484,N,12047.31465418,E,0.011,145.4,150120,5.8,W,A*37
#HEADINGA,COM2,0,74.0,FINE,2088,270927.500,259728,18,18;SOL_COMPUTED,L1_FLOAT,9.1219,135.7762,66.1284,0.0000,59.9045,20.0511,"999",13,6,6,0,3,00,0,41*fe96d215
$GNGGA,031509.60,3039.11571335,N,12047.31466145,E,1,07,2.8,24.1526,M,9.8179,M,,*76
$GNRMC,031509.60,A,3039.11571335,N,12047.31466145,E,0.049,46.8,150120,5.8,W,A*05
#HEADINGA,COM2,0,74.0,FINE,2088,270927.600,259828,18,18;SOL_COMPUTED,L1_FLOAT,9.1379,135.7455,66.1807,0.0000,59.9337,19.9479,"999",13,6,6,0,3,00,0,41*f02d93a6
$GNGGA,031509.70,3039.11571720,N,12047.31467450,E,1,07,2.8,24.1673,M,9.8179,M,,*74
$GNRMC,031509.70,A,3039.11571720,N,12047.31467450,E,0.090,51.0,150120,5.8,W,A*0E
#HEADINGA,COM2,0,74.0,FINE,2088,270927.700,259928,18,18;SOL_COMPUTED,L1_FLOAT,9.1258,135.9837,66.2279,0.0000,60.0338,19.9230,"999",13,6,6,0,3,00,0,41*bca84ecd
$GNGGA,031509.80,3039.11570959,N,12047.31468569,E,1,07,2.8,24.2392,M,9.8179,M,,*77
$GNRMC,031509.80,A,3039.11570959,N,12047.31468569,E,0.067,75.8,150120,5.8,W,A*02
#HEADINGA,COM2,0,74.0,FINE,2088,270927.800,260028,18,18;SOL_COMPUTED,L1_FLOAT,9.0842,135.8654,66.1621,0.0000,60.1955,20.0957,"999",13,6,6,0,3,00,0,41*ae3c96ad
$GNGGA,031509.90,3039.11570736,N,12047.31469222,E,1,07,2.8,24.2651,M,9.8179,M,,*72
$GNRMC,031509.90,A,3039.11570736,N,12047.31469222,E,0.058,81.2,150120,5.8,W,A*00
#HEADINGA,COM2,0,74.0,FINE,2088,270927.900,260128,18,18;SOL_COMPUTED,L1_FLOAT,9.0435,136.0150,65.9995,0.0000,60.0225,20.4048,"999",13,6,6,0,3,00,0,41*6100a804
#REFSTATIONA,COM2,0,90.0,UNKNOWN,0,0.000,0,260231,0;00000001,0.000,0.000,0.000,0,NONE,""*854ea719
$GNGGA,031510.00,3039.11570705,N,12047.31469812,E,1,07,2.8,24.2800,M,9.8179,M,,*70
$GNRMC,031510.00,A,3039.11570705,N,12047.31469812,E,0.052,75.6,150120,5.8,W,A*0D
#HEADINGA,COM2,0,74.0,FINE,2088,270928.000,260228,22,18;SOL_COMPUTED,L1_FLOAT,9.1552,136.0568,66.2124,0.0000,59.7725,19.8837,"999",13,6,6,0,3,00,0,41*551da6b0
$GNGGA,031510.10,3039.11571195,N,12047.31471190,E,1,07,2.8,24.2953,M,9.8179,M,,*72
$GNRMC,031510.10,A,3039.11571195,N,12047.31471190,E,0.088,61.7,150120,5.8,W,A*0B
#HEADINGA,COM2,0,74.0,FINE,2088,270928.100,260328,19,18;SOL_COMPUTED,L1_FLOAT,9.0681,135.8159,66.1184,0.0000,60.2128,20.1881,"999",13,6,6,0,3,00,0,41*5eea0c00
$GNGGA,031510.20,3039.11571460,N,12047.31472647,E,1,07,2.8,24.3206,M,9.8179,M,,*7A
$GNRMC,031510.20,A,3039.11571460,N,12047.31472647,E,0.115,61.4,150120,5.8,W,A*0F
#HEADINGA,COM2,0,74.0,FINE,2088,270928.200,260428,18,18;SOL_COMPUTED,L1_FLOAT,8.9626,136.7529,66.2599,0.0000,59.6863,19.8149,"999",13,6,6,0,3,00,0,41*57360777
$GNGGA,031510.30,3039.11571088,N,12047.31474434,E,1,07,2.8,24.3711,M,9.8179,M,,*7A
$GNRMC,031510.30,A,3039.11571088,N,12047.31474434,E,0.134,73.9,150120,5.8,W,A*01
#HEADINGA,COM2,0,74.0,FINE,2088,270928.300,260528,17,18;SOL_COMPUTED,L1_FLOAT,8.8907,137.0504,66.2225,0.0000,59.9637,20.0380,"999",13,6,6,0,3,00,0,41*af0520c7
$GNGGA,031510.40,3039.11570090,N,12047.31475035,E,1,07,2.8,24.4244,M,9.8179,M,,*73
$GNRMC,031510.40,A,3039.11570090,N,12047.31475035,E,0.109,89.5,150120,5.8,W,A*0D
#HEADINGA,COM2,0,74.0,FINE,2088,270928.400,260628,18,18;SOL_COMPUTED,L1_FLOAT,8.9036,136.8322,66.1089,0.0000,59.6907,20.1443,"999",13,6,6,0,3,00,0,41*69cef7ed
$GNGGA,031510.50,3039.11569823,N,12047.31474475,E,1,07,2.8,24.4113,M,9.8179,M,,*7A
$GNRMC,031510.50,A,3039.11569823,N,12047.31474475,E,0.052,95.6,150120,5.8,W,A*04
#HEADINGA,COM2,0,74.0,FINE,2088,270928.500,260728,18,18;SOL_COMPUTED,L1_FLOAT,8.9429,136.9433,66.1000,0.0000,59.3640,20.0730,"999",13,6,6,0,3,00,0,41*6d5f318d
$GNGGA,031510.60,3039.11569983,N,12047.31474938,E,1,07,2.8,24.3962,M,9.8179,M,,*7F
$GNRMC,031510.60,A,3039.11569983,N,12047.31474938,E,0.051,83.9,150120,5.8,W,A*03
#HEADINGA,COM2,0,74.0,FINE,2088,270928.600,260828,18,18;SOL_COMPUTED,L1_FLOAT,8.9926,136.7190,66.2622,0.0000,59.4999,19.7467,"999",13,6,6,0,3,00,0,41*a519a008
$GNGGA,031510.70,3039.11570177,N,12047.31476104,E,1,07,2.8,24.4073,M,9.8179,M,,*7E
$GNRMC,031510.70,A,3039.11570177,N,12047.31476104,E,0.074,74.2,150120,5.8,W,A*08
#HEADINGA,COM2,0,74.0,FINE,2088,270928.700,260928,18,18;SOL_COMPUTED,L1_FLOAT,8.9473,136.8965,66.2525,0.0000,59.7088,19.8681,"999",13,6,6,0,3,00,0,41*71488794
$GNGGA,031510.80,3039.11570230,N,12047.31477193,E,1,07,2.8,24.4315,M,9.8179,M,,*7D
$GNRMC,031510.80,A,3039.11570230,N,12047.31477193,E,0.082,69.1,150120,5.8,W,A*0E
#HEADINGA,COM2,0,74.0,FINE,2088,270928.800,261028,18,18;SOL_COMPUTED,L1_FLOAT,8.9757,137.4249,66.2194,0.0000,59.2372,19.8745,"999",13,6,6,0,3,00,0,41*d730572f
$GNGGA,031510.90,3039.11570319,N,12047.31477993,E,1,07,2.8,24.4470,M,9.8179,M,,*7A
$GNRMC,031510.90,A,3039.11570319,N,12047.31477993,E,0.082,62.1,150120,5.8,W,A*06
#HEADINGA,COM2,0,74.0,FINE,2088,270928.900,261128,18,18;SOL_COMPUTED,L1_FLOAT,8.9087,137.2335,66.1471,0.0000,59.5853,20.1068,"999",13,6,6,0,3,00,0,41*c7626974
#REFSTATIONA,COM2,0,90.0,UNKNOWN,0,0.000,0,261232,0;00000001,0.000,0.000,0.000,0,NONE,""*e8e1e16a
$GNGGA,031511.00,3039.11569937,N,12047.31478810,E,1,07,2.8,24.4858,M,9.8179,M,,*7F
$GNRMC,031511.00,A,3039.11569937,N,12047.31478810,E,0.069,66.9,150120,5.8,W,A*0C
#HEADINGA,COM2,0,74.0,FINE,2088,270929.000,261228,22,18;SOL_COMPUTED,L1_FLOAT,8.9543,137.2747,66.2047,0.0000,59.3995,19.9339,"999",13,6,6,0,3,00,0,41*e74aeb4b
$GNGGA,031511.10,3039.11570070,N,12047.31479925,E,1,07,2.8,24.4887,M,9.8179,M,,*78
$GNRMC,031511.10,A,3039.11570070,N,12047.31479925,E,0.085,68.4,150120,5.8,W,A*08
#HEADINGA,COM2,0,74.0,FINE,2088,270929.100,261328,19,18;SOL_COMPUTED,L1_FLOAT,8.9199,136.9095,66.2616,0.0000,59.9030,19.9204,"999",13,6,6,0,3,00,0,41*a8f9399e
$GNGGA,031511.20,3039.11569884,N,12047.31480239,E,1,07,2.8,24.4809,M,9.8179,M,,*76
$GNRMC,031511.20,A,3039.11569884,N,12047.31480239,E,0.071,70.9,150120,5.8,W,A*0F
#HEADINGA,COM2,0,74.0,FINE,2088,270929.200,261428,18,18;SOL_COMPUTED,L1_FLOAT,8.6554,137.5642,66.1687,0.0000,57.0968,13.4356,"999",13,7,7,0,3,00,0,41*9eecb78d
$GNGGA,031511.30,3039.11569651,N,12047.31480558,E,1,07,2.8,24.5111,M,9.8179,M,,*70
$GNRMC,031511.30,A,3039.11569651,N,12047.31480558,E,0.049,60.9,150120,5.8,W,A*02
#HEADINGA,COM2,0,74.0,FINE,2088,270929.300,261528,18,18;SOL_COMPUTED,L1_FLOAT,8.6217,138.0105,66.0489,0.0000,56.8423,13.5956,"999",13,7,7,0,3,00,0,41*44dc1cba
$GNGGA,031511.40,3039.11568894,N,12047.31481571,E,1,07,2.8,24.5884,M,9.8179,M,,*7E
$GNRMC,031511.40,A,3039.11568894,N,12047.31481571,E,0.035,77.6,150120,5.8,W,A*0B
#HEADINGA,COM2,0,74.0,FINE,2088,270929.400,261628,18,18;SOL_COMPUTED,L1_FLOAT,8.6194,137.6248,66.1162,0.0000,57.1844,13.5451,"999",13,7,7,0,3,00,0,41*31d4139b
$GNGGA,031511.50,3039.11568603,N,12047.31482560,E,1,07,2.8,24.6062,M,9.8179,M,,*7F
$GNRMC,031511.50,A,3039.11568603,N,12047.31482560,E,0.044,90.9,150120,5.8,W,A*09
#HEADINGA,COM2,0,74.0,FINE,2088,270929.500,261728,18,18;SOL_COMPUTED,L1_FLOAT,8.6034,138.1275,66.0997,0.0000,57.0186,13.5646,"999",13,7,7,0,3,00,0,41*bc2e4430
$GNGGA,031511.60,3039.11569033,N,12047.31482872,E,1,07,2.8,24.5705,M,9.8179,M,,*73
$GNRMC,031511.60,A,3039.11569033,N,12047.31482872,E,0.045,71.4,150120,5.8,W,A*03
#HEADINGA,COM2,0,74.0,FINE,2088,270929.600,261828,18,18;SOL_COMPUTED,L1_FLOAT,8.6171,137.8779,66.0716,0.0000,56.9780,13.5843,"999",13,7,7,0,3,00,0,41*52970cc0
$GNGGA,031511.70,3039.11569109,N,12047.31483610,E,1,07,2.8,24.5639,M,9.8179,M,,*7F
$GNRMC,031511.70,A,3039.11569109,N,12047.31483610,E,0.050,69.7,150120,5.8,W,A*0F
#HEADINGA,COM2,0,74.0,FINE,2088,270929.700,261928,18,18;SOL_COMPUTED,L1_FLOAT,8.6124,137.9520,66.0741,0.0000,56.9779,13.5854,"999",13,7,7,0,3,00,0,41*b56cad3c
$GNGGA,031511.80,3039.11568908,N,12047.31485119,E,1,07,2.8,24.6172,M,9.8179,M,,*7B
$GNRMC,031511.80,A,3039.11568908,N,12047.31485119,E,0.062,73.3,150120,5.8,W,A*0E
#HEADINGA,COM2,0,74.0,FINE,2088,270929.800,262027,19,18;SOL_COMPUTED,L1_FLOAT,8.6330,137.7194,66.0751,0.0000,56.9489,13.5626,"999",13,7,7,0,3,00,0,41*a87b6d95
$GNGGA,031511.90,3039.11568229,N,12047.31485934,E,1,07,2.8,24.6751,M,9.8179,M,,*72
$GNRMC,031511.90,A,3039.11568229,N,12047.31485934,E,0.051,84.1,150120,5.8,W,A*0A
#HEADINGA,COM2,0,74.0,FINE,2088,270929.900,262128,18,18;SOL_COMPUTED,L1_FLOAT,8.6362,137.5750,66.0787,0.0000,56.9998,13.5608,"999",13,7,7,0,3,00,0,41*d41f1b74
#REFSTATIONA,COM2,0,90.0,UNKNOWN,0,0.000,0,262232,0;00000001,0.000,0.000,0.000,0,NONE,""*21d5fa67
$GNGGA,031512.00,3039.11568709,N,12047.31485625,E,1,07,2.8,24.6245,M,9.8179,M,,*70
$GNRMC,031512.00,A,3039.11568709,N,12047.31485625,E,0.040,60.4,150120,5.8,W,A*07
#HEADINGA,COM2,0,74.0,FINE,2088,270930.000,262228,22,18;SOL_COMPUTED,L1_FLOAT,8.6431,137.5540,66.0737,0.0000,56.9511,13.5564,"999",13,7,7,0,3,00,0,41*a18a7d4d
$GNGGA,031512.10,3039.11568679,N,12047.31486662,E,1,07,2.8,24.6480,M,9.8179,M,,*78
$GNRMC,031512.10,A,3039.11568679,N,12047.31486662,E,0.047,61.3,150120,5.8,W,A*01
#HEADINGA,COM2,0,74.0,FINE,2088,270930.100,262328,19,18;SOL_COMPUTED,L1_FLOAT,8.6033,137.9731,66.0936,0.0000,57.0627,13.5773,"999",13,7,7,0,3,00,0,41*eb7a02e3
$GNGGA,031512.20,3039.11568504,N,12047.31488350,E,1,07,2.8,24.6752,M,9.8179,M,,*74
$GNRMC,031512.20,A,3039.11568504,N,12047.31488350,E,0.066,74.7,150120,5.8,W,A*02
#HEADINGA,COM2,0,74.0,FINE,2088,270930.200,262428,18,18;SOL_COMPUTED,L1_FLOAT,8.4792,139.2170,66.1321,0.0000,56.4923,13.4600,"999",13,7,7,0,3,00,0,41*00e7ad91
$GNGGA,031512.30,3039.11568503,N,12047.31488757,E,1,07,2.8,24.6498,M,9.8179,M,,*74
$GNRMC,031512.30,A,3039.11568503,N,12047.31488757,E,0.064,75.7,150120,5.8,W,A*04
#HEADINGA,COM2,0,74.0,FINE,2088,270930.300,262528,18,18;SOL_COMPUTED,L1_FLOAT,8.5384,138.7772,66.2298,0.0000,56.5210,13.2778,"999",13,7,7,0,3,00,0,41*2dfebdf7
$GNGGA,031512.40,3039.11567476,N,12047.31488920,E,1,07,2.8,24.7289,M,9.8179,M,,*76
$GNRMC,031512.40,A,3039.11567476,N,12047.31488920,E,0.025,91.6,150120,5.8,W,A*0F
#HEADINGA,COM2,0,74.0,FINE,2088,270930.400,262628,18,18;SOL_COMPUTED,L1_FLOAT,8.4567,138.5126,66.0183,0.0000,56.7139,13.6398,"999",13,7,7,0,3,00,0,41*29c1be26
$GNGGA,031512.50,3039.11567183,N,12047.31489262,E,1,07,2.8,24.7461,M,9.8179,M,,*74
$GNRMC,031512.50,A,3039.11567183,N,12047.31489262,E,0.012,107.9,150120,5.8,W,A*38
#HEADINGA,COM2,0,74.0,FINE,2088,270930.500,262728,18,18;SOL_COMPUTED,L1_FLOAT,8.5325,138.6723,66.1790,0.0000,56.4908,13.3436,"999",13,7,7,0,3,00,0,41*e9edbc6b
$GNGGA,031512.60,3039.11567067,N,12047.31491875,E,1,07,2.8,24.8298,M,9.8179,M,,*76
$GNRMC,031512.60,A,3039.11567067,N,12047.31491875,E,0.065,88.6,150120,5.8,W,A*0C
#HEADINGA,COM2,0,74.0,FINE,2088,270930.600,262828,18,18;SOL_COMPUTED,L1_FLOAT,8.4193,138.8901,65.9982,0.0000,56.7399,13.7080,"999",13,7,7,0,3,00,0,41*b54fa107
$GNGGA,031512.70,3039.11566987,N,12047.31493154,E,1,07,2.8,24.8766,M,9.8179,M,,*7D
$GNRMC,031512.70,A,3039.11566987,N,12047.31493154,E,0.072,80.4,150120,5.8,W,A*0F
#HEADINGA,COM2,0,74.0,FINE,2088,270930.700,262928,18,18;SOL_COMPUTED,L1_FLOAT,8.4415,139.0687,66.0545,0.0000,56.6300,13.6063,"999",13,7,7,0,3,00,0,41*3f2544a2
$GNGGA,031512.80,3039.11566820,N,12047.31493501,E,1,07,2.8,24.8894,M,9.8179,M,,*78
$GNRMC,031512.80,A,3039.11566820,N,12047.31493501,E,0.052,77.1,150120,5.8,W,A*07
#HEADINGA,COM2,0,74.0,FINE,2088,270930.800,263028,18,18;SOL_COMPUTED,L1_FLOAT,8.4362,139.3793,66.0438,0.0000,56.4933,13.6172,"999",13,7,7,0,3,00,0,41*c87b1252
$GNGGA,031512.90,3039.11566198,N,12047.31494128,E,1,07,2.8,24.9395,M,9.8179,M,,*70
$GNRMC,031512.90,A,3039.11566198,N,12047.31494128,E,0.032,103.7,150120,5.8,W,A*36
#HEADINGA,COM2,0,74.0,FINE,2088,270930.900,263127,18,18;SOL_COMPUTED,L1_FLOAT,8.5059,138.9272,66.1123,0.0000,56.3903,13.4466,"999",13,7,7,0,3,00,0,41*2b18ecfa
#REFSTATIONA,COM2,0,90.0,UNKNOWN,0,0.000,0,263231,0;00000001,0.000,0.000,0.000,0,NONE,""*4c7abc14
$GNGGA,031513.00,3039.11565643,N,12047.31495596,E,1,07,2.8,25.0049,M,9.8179,M,,*70
$GNRMC,031513.00,A,3039.11565643,N,12047.31495596,E,0.055,115.8,150120,5.8,W,A*35
#HEADINGA,COM2,0,74.0,FINE,2088,270931.000,263227,23,18;SOL_COMPUTED,L1_FLOAT,8.4282,139.0029,66.0558,0.0000,56.7460,13.6281,"999",13,7,7,0,3,00,0,41*4ed70807
$GNGGA,031513.10,3039.11566189,N,12047.31497561,E,1,07,2.8,25.0088,M,9.8179,M,,*74
$GNRMC,031513.10,A,3039.11566189,N,12047.31497561,E,0.115,86.4,150120,5.8,W,A*0E
#HEADINGA,COM2,0,74.0,FINE,2088,270931.100,263327,19,18;SOL_COMPUTED,L1_FLOAT,8.4227,139.1507,66.0106,0.0000,56.6106,13.6805,"999",13,7,7,0,3,00,0,41*948008b7
$GNGGA,031513.20,3039.11566815,N,12047.31498514,E,1,07,2.8,24.9824,M,9.8179,M,,*70
$GNRMC,031513.20,A,3039.11566815,N,12047.31498514,E,0.138,73.1,150120,5.8,W,A*0C
#HEADINGA,COM2,0,74.0,FINE,2088,270931.200,263428,18,18;SOL_COMPUTED,L1_FLOAT,8.5520,139.7471,66.1730,0.0000,55.4534,13.1944,"999",13,7,7,0,3,00,0,41*5c5ed47a
$GNGGA,031513.30,3039.11566048,N,12047.31499414,E,1,07,2.8,25.0256,M,9.8179,M,,*76
$GNRMC,031513.30,A,3039.11566048,N,12047.31499414,E,0.120,89.6,150120,5.8,W,A*06
#HEADINGA,COM2,0,74.0,FINE,2088,270931.300,263527,18,18;SOL_COMPUTED,L1_FLOAT,8.6510,139.5506,66.3054,0.0000,55.1957,12.9131,"999",13,7,7,0,3,00,0,41*78fa1c93
$GNGGA,031513.40,3039.11564785,N,12047.31500412,E,1,07,2.8,25.1083,M,9.8179,M,,*79
$GNRMC,031513.40,A,3039.11564785,N,12047.31500412,E,0.108,117.9,150120,5.8,W,A*31
#HEADINGA,COM2,0,74.0,FINE,2088,270931.400,263628,18,18;SOL_COMPUTED,L1_FLOAT,8.5757,139.5420,66.2979,0.0000,55.6656,13.0342,"999",13,7,7,0,3,00,0,41*ea299e95
$GNGGA,031513.50,3039.11564478,N,12047.31499736,E,1,07,2.8,25.1011,M,9.8179,M,,*76
$GNRMC,031513.50,A,3039.11564478,N,12047.31499736,E,0.053,151.7,150120,5.8,W,A*36
#HEADINGA,COM2,0,74.0,FINE,2088,270931.500,263728,18,18;SOL_COMPUTED,L1_FLOAT,8.6599,139.6578,66.3111,0.0000,55.0978,12.8918,"999",13,7,7,0,3,00,0,41*95d004d8
$GNGGA,031513.60,3039.11564749,N,12047.31500803,E,1,07,2.8,25.1349,M,9.8179,M,,*72
$GNRMC,031513.60,A,3039.11564749,N,12047.31500803,E,0.032,102.2,150120,5.8,W,A*38
#HEADINGA,COM2,0,74.0,FINE,2088,270931.600,263828,18,18;SOL_COMPUTED,L1_FLOAT,8.6036,139.2796,66.2178,0.0000,55.4260,13.0798,"999",13,7,7,0,3,00,0,41*fb0128ec
$GNGGA,031513.70,3039.11565493,N,12047.31502634,E,1,07,2.8,25.1467,M,9.8179,M,,*75
$GNRMC,031513.70,A,3039.11565493,N,12047.31502634,E,0.089,66.9,150120,5.8,W,A*0C
#HEADINGA,COM2,0,74.0,FINE,2088,270931.700,263928,18,18;SOL_COMPUTED,L1_FLOAT,8.6271,140.0943,66.2495,0.0000,54.9646,12.9956,"999",13,7,7,0,3,00,0,41*dcd14134
$GNGGA,031513.80,3039.11565747,N,12047.31503640,E,1,07,2.8,25.1434,M,9.8179,M,,*74
$GNRMC,031513.80,A,3039.11565747,N,12047.31503640,E,0.110,65.5,150120,5.8,W,A*05
#HEADINGA,COM2,0,74.0,FINE,2088,270931.800,264028,18,18;SOL_COMPUTED,L1_FLOAT,8.5741,139.8489,66.2731,0.0000,55.4691,13.0557,"999",13,7,7,0,3,00,0,41*f979a5cf
$GNGGA,031513.90,3039.11565817,N,12047.31503538,E,1,07,2.8,25.1140,M,9.8179,M,,*75
$GNRMC,031513.90,A,3039.11565817,N,12047.31503538,E,0.082,58.0,150120,5.8,W,A*03
#HEADINGA,COM2,0,74.0,FINE,2088,270931.900,264128,17,18;SOL_COMPUTED,L1_FLOAT,8.5940,139.5909,66.1792,0.0000,55.2522,13.1262,"999",13,7,7,0,3,00,0,41*61047cf2
#REFSTATIONA,COM2,0,90.0,UNKNOWN,0,0.000,0,264231,0;00000001,0.000,0.000,0.000,0,NONE,""*42707ab4
$GNGGA,031514.00,3039.11565353,N,12047.31503457,E,1,07,2.8,25.1246,M,9.8179,M,,*7D
$GNRMC,031514.00,A,3039.11565353,N,12047.31503457,E,0.035,50.9,150120,5.8,W,A*03
#HEADINGA,COM2,0,74.0,FINE,2088,270932.000,264228,22,18;SOL_COMPUTED,L1_FLOAT,8.5631,139.5442,66.1522,0.0000,55.4121,13.2025,"999",13,7,7,0,3,00,0,41*31cd17aa
$GNGGA,031514.10,3039.11566022,N,12047.31503044,E,1,07,2.8,25.0682,M,9.8179,M,,*71
$GNRMC,031514.10,A,3039.11566022,N,12047.31503044,E,0.054,1.1,150120,5.8,W,A*39
#HEADINGA,COM2,0,74.0,FINE,2088,270932.100,264328,18,18;SOL_COMPUTED,L1_FLOAT,8.6601,139.4530,66.2663,0.0000,57.8713,19.6333,"999",13,6,6,0,3,00,0,41*c9312076
$GNGGA,031514.20,3039.11566389,N,12047.31504059,E,1,07,2.8,25.0778,M,9.8179,M,,*7F
$GNRMC,031514.20,A,3039.11566389,N,12047.31504059,E,0.074,12.7,150120,5.8,W,A*05
#HEADINGA,COM2,0,74.0,FINE,2088,270932.200,264428,18,18;SOL_COMPUTED,L1_FLOAT,8.4523,140.6345,66.0295,0.0000,57.8799,20.3618,"999",13,6,6,0,3,00,0,41*29e6dcdd
$GNGGA,031514.30,3039.11565851,N,12047.31505005,E,1,07,2.8,25.1394,M,9.8179,M,,*7C
$GNRMC,031514.30,A,3039.11565851,N,12047.31505005,E,0.055,10.4,150120,5.8,W,A*03
#HEADINGA,COM2,0,74.0,FINE,2088,270932.300,264528,18,18;SOL_COMPUTED,L1_FLOAT,8.4432,140.0495,66.0434,0.0000,58.2080,20.3211,"999",13,6,6,0,3,00,0,41*06c01b31
$GNGGA,031514.40,3039.11564929,N,12047.31505856,E,1,07,2.8,25.1920,M,9.8179,M,,*7F
$GNRMC,031514.40,A,3039.11564929,N,12047.31505856,E,0.019,23.8,150120,5.8,W,A*01
#HEADINGA,COM2,0,74.0,FINE,2088,270932.400,264628,18,18;SOL_COMPUTED,L1_FLOAT,8.4438,140.3536,66.1088,0.0000,58.2298,20.2633,"999",13,6,6,0,3,00,0,41*b11a4b0c
$GNGGA,031514.50,3039.11564968,N,12047.31506176,E,1,07,2.8,25.1734,M,9.8179,M,,*78
$GNRMC,031514.50,A,3039.11564968,N,12047.31506176,E,0.018,18.0,150120,5.8,W,A*0C
#HEADINGA,COM2,0,74.0,FINE,2088,270932.500,264728,18,18;SOL_COMPUTED,L1_FLOAT,8.5140,140.6903,66.1636,0.0000,57.7379,20.0570,"999",13,6,6,0,3,00,0,41*da56f7e5
$GNGGA,031514.60,3039.11565205,N,12047.31506474,E,1,07,2.8,25.1533,M,9.8179,M,,*78
$GNRMC,031514.60,A,3039.11565205,N,12047.31506474,E,0.027,4.9,150120,5.8,W,A*31
#HEADINGA,COM2,0,74.0,FINE,2088,270932.600,264828,18,18;SOL_COMPUTED,L1_FLOAT,8.4161,140.6167,65.9375,0.0000,57.9216,20.5648,"999",13,6,6,0,3,00,0,41*7a0180e8
$GNGGA,031514.70,3039.11565349,N,12047.31507081,E,1,07,2.8,25.1472,M,9.8179,M,,*7B
$GNRMC,031514.70,A,3039.11565349,N,12047.31507081,E,0.034,9.9,150120,5.8,W,A*39
#HEADINGA,COM2,0,74.0,FINE,2088,270932.700,264928,18,18;SOL_COMPUTED,L1_FLOAT,8.5208,139.8897,66.1662,0.0000,58.0163,19.9762,"999",13,6,6,0,3,00,0,41*d2956e42
$GNGGA,031514.80,3039.11564749,N,12047.31508690,E,1,07,2.8,25.2059,M,9.8179,M,,*76
$GNRMC,031514.80,A,3039.11564749,N,12047.31508690,E,0.031,57.9,150120,5.8,W,A*04
#HEADINGA,COM2,0,74.0,FINE,2088,270932.800,265028,18,18;SOL_COMPUTED,L1_FLOAT,8.4564,139.8160,66.1023,0.0000,58.3397,20.2025,"999",13,6,6,0,3,00,0,41*f4facbb4
$GNGGA,031514.90,3039.11564216,N,12047.31510709,E,1,07,2.8,25.2814,M,9.8179,M,,*71
$GNRMC,031514.90,A,3039.11564216,N,12047.31510709,E,0.052,83.4,150120,5.8,W,A*03
#HEADINGA,COM2,0,74.0,FINE,2088,270932.900,265128,18,18;SOL_COMPUTED,L1_FLOAT,8.4684,140.0052,66.0941,0.0000,58.1611,20.1989,"999",13,6,6,0,3,00,0,41*452a862b
#REFSTATIONA,COM2,0,90.0,UNKNOWN,0,0.000,0,265232,0;00000001,0.000,0.000,0.000,0,NONE,""*2fdf3cc7
$GNGGA,031515.00,3039.11564264,N,12047.31511563,E,1,07,2.8,25.2799,M,9.8179,M,,*79
$GNRMC,031515.00,A,3039.11564264,N,12047.31511563,E,0.058,80.8,150120,5.8,W,A*04
#HEADINGA,COM2,0,74.0,FINE,2088,270933.000,265228,22,18;SOL_COMPUTED,L1_FLOAT,8.4435,140.0751,66.1041,0.0000,58.3260,20.2522,"999",13,6,6,0,3,00,0,41*95870f13
$GNGGA,031515.10,3039.11564778,N,12047.31512084,E,1,07,2.8,25.2421,M,9.8179,M,,*7F
$GNRMC,031515.10,A,3039.11564778,N,12047.31512084,E,0.065,68.5,150120,5.8,W,A*07
#HEADINGA,COM2,0,74.0,FINE,2088,270933.100,265328,18,18;SOL_COMPUTED,L1_FLOAT,8.4209,140.5910,66.0492,0.0000,58.1465,20.4162,"999",13,6,6,0,3,00,0,41*ceb3d79c
$GNGGA,031515.20,3039.11565048,N,12047.31512637,E,1,07,2.8,25.2035,M,9.8179,M,,*76
$GNRMC,031515.20,A,3039.11565048,N,12047.31512637,E,0.071,66.4,150120,5.8,W,A*05
#HEADINGA,COM2,0,74.0,FINE,2088,270933.200,265428,18,18;SOL_COMPUTED,L1_FLOAT,8.3408,141.0655,66.0719,0.0000,55.0184,13.3676,"999",13,7,7,0,3,00,0,41*0fc228a9
$GNGGA,031515.30,3039.11563737,N,12047.31513347,E,1,07,2.8,25.2929,M,9.8179,M,,*79
$GNRMC,031515.30,A,3039.11563737,N,12047.31513347,E,0.048,89.4,150120,5.8,W,A*05
#HEADINGA,COM2,0,74.0,FINE,2088,270933.300,265528,18,18;SOL_COMPUTED,L1_FLOAT,8.2525,140.9295,65.9590,0.0000,58.3484,20.7430,"999",13,6,6,0,3,00,0,41*821199cd
$GNGGA,031515.40,3039.11562598,N,12047.31513833,E,1,07,2.8,25.3640,M,9.8179,M,,*71
$GNRMC,031515.40,A,3039.11562598,N,12047.31513833,E,0.037,124.9,150120,5.8,W,A*3F
#HEADINGA,COM2,0,74.0,FINE,2088,270933.400,265628,18,18;SOL_COMPUTED,L1_FLOAT,8.1895,141.2005,65.7941,0.0000,58.3085,21.1343,"999",13,6,6,0,3,00,0,41*b12e81b9
$GNGGA,031515.50,3039.11562441,N,12047.31514851,E,1,07,2.8,25.3790,M,9.8179,M,,*7A
$GNRMC,031515.50,A,3039.11562441,N,12047.31514851,E,0.044,118.9,150120,5.8,W,A*33
#HEADINGA,COM2,0,74.0,FINE,2088,270933.500,265728,18,18;SOL_COMPUTED,L1_FLOAT,8.2386,141.1480,65.9300,0.0000,58.2889,20.8344,"999",13,6,6,0,3,00,0,41*fdf4c9c8
$GNGGA,031515.60,3039.11562531,N,12047.31515546,E,1,07,2.8,25.3789,M,9.8179,M,,*7D
$GNRMC,031515.60,A,3039.11562531,N,12047.31515546,E,0.043,110.1,150120,5.8,W,A*3B
#HEADINGA,COM2,0,74.0,FINE,2088,270933.600,265828,18,18;SOL_COMPUTED,L1_FLOAT,8.2539,140.8249,65.9489,0.0000,58.3546,20.7456,"999",13,6,6,0,3,00,0,41*2a8b9330
$GNGGA,031515.70,3039.11562744,N,12047.31516392,E,1,07,2.8,25.3783,M,9.8179,M,,*7A
$GNRMC,031515.70,A,3039.11562744,N,12047.31516392,E,0.047,94.3,150120,5.8,W,A*0D
#HEADINGA,COM2,0,74.0,FINE,2088,270933.700,265928,18,18;SOL_COMPUTED,L1_FLOAT,8.2389,141.2524,65.9733,0.0000,58.3403,20.7902,"999",13,6,6,0,3,00,0,41*22e6c9fb
$GNGGA,031515.80,3039.11562877,N,12047.31517409,E,1,07,2.8,25.3975,M,9.8179,M,,*79
$GNRMC,031515.80,A,3039.11562877,N,12047.31517409,E,0.053,80.7,150120,5.8,W,A*0D
#HEADINGA,COM2,0,74.0,FINE,2088,270933.800,266028,18,18;SOL_COMPUTED,L1_FLOAT,8.2986,140.8645,65.9273,0.0000,57.9728,20.6655,"999",13,6,6,0,3,00,0,41*f4b6e3f4
$GNGGA,031515.90,3039.11562094,N,12047.31518269,E,1,07,2.8,25.4681,M,9.8179,M,,*71
$GNRMC,031515.90,A,3039.11562094,N,12047.31518269,E,0.039,105.7,150120,5.8,W,A*36
#HEADINGA,COM2,0,74.0,FINE,2088,270933.900,266128,18,18;SOL_COMPUTED,L1_FLOAT,8.1929,141.2590,65.7710,0.0000,58.2017,21.1634,"999",13,6,6,0,3,00,0,41*f98f3cac
#REFSTATIONA,COM2,0,90.0,UNKNOWN,0,0.000,0,266232,0;00000001,0.000,0.000,0.000,0,NONE,""*e6eb27ca
$GNGGA,031516.00,3039.11561819,N,12047.31518957,E,1,07,2.8,25.5068,M,9.8179,M,,*73
$GNRMC,031516.00,A,3039.11561819,N,12047.31518957,E,0.027,110.1,150120,5.8,W,A*39
#HEADINGA,COM2,0,74.0,FINE,2088,270934.000,266228,22,18;SOL_COMPUTED,L1_FLOAT,8.2478,141.4164,65.8111,0.0000,57.8391,20.9867,"999",13,6,6,0,3,00,0,41*b370bd8d
$GNGGA,031516.10,3039.11562664,N,12047.31519461,E,1,07,2.8,25.4450,M,9.8179,M,,*72
$GNRMC,031516.10,A,3039.11562664,N,12047.31519461,E,0.054,66.2,150120,5.8,W,A*01
#HEADINGA,COM2,0,74.0,FINE,2088,270934.100,266328,19,18;SOL_COMPUTED,L1_FLOAT,8.2675,141.1311,65.8842,0.0000,57.9810,20.8219,"999",13,6,6,0,3,00,0,41*2bc13b47
$GNGGA,031516.20,3039.11563194,N,12047.31520544,E,1,07,2.8,25.4161,M,9.8179,M,,*73
$GNRMC,031516.20,A,3039.11563194,N,12047.31520544,E,0.093,66.6,150120,5.8,W,A*08
#HEADINGA,COM2,0,74.0,FINE,2088,270934.200,266428,18,18;SOL_COMPUTED,L1_FLOAT,8.2956,141.7465,65.9938,0.0000,57.4276,20.5377,"999",13,6,6,0,3,00,0,41*4279b322
$GNGGA,031516.30,3039.11562824,N,12047.31521845,E,1,07,2.8,25.4617,M,9.8179,M,,*7A
$GNRMC,031516.30,A,3039.11562824,N,12047.31521845,E,0.096,77.2,150120,5.8,W,A*06
#HEADINGA,COM2,0,74.0,FINE,2088,270934.300,266527,18,18;SOL_COMPUTED,L1_FLOAT,8.2104,142.2042,65.8831,0.0000,57.5835,20.9315,"999",13,6,6,0,3,00,0,41*58b49c20
$GNGGA,031516.40,3039.11561771,N,12047.31522223,E,1,07,2.8,25.5245,M,9.8179,M,,*7A
$GNRMC,031516.40,A,3039.11561771,N,12047.31522223,E,0.054,111.7,150120,5.8,W,A*3E
#HEADINGA,COM2,0,74.0,FINE,2088,270934.400,266628,18,18;SOL_COMPUTED,L1_FLOAT,8.1191,141.8849,65.7101,0.0000,57.9722,21.3548,"999",13,6,6,0,3,00,0,41*ccc16e58
$GNGGA,031516.50,3039.11561829,N,12047.31522240,E,1,07,2.8,25.5124,M,9.8179,M,,*78
$GNRMC,031516.50,A,3039.11561829,N,12047.31522240,E,0.027,108.6,150120,5.8,W,A*35
#HEADINGA,COM2,0,74.0,FINE,2088,270934.500,266728,18,18;SOL_COMPUTED,L1_FLOAT,8.1888,142.0327,65.7443,0.0000,57.4930,21.1448,"999",13,6,6,0,3,00,0,41*1cba8873
$GNGGA,031516.60,3039.11561784,N,12047.31522774,E,1,07,2.8,25.5204,M,9.8179,M,,*70
$GNRMC,031516.60,A,3039.11561784,N,12047.31522774,E,0.023,102.1,150120,5.8,W,A*35
#HEADINGA,COM2,0,74.0,FINE,2088,270934.600,266828,18,18;SOL_COMPUTED,L1_FLOAT,8.2377,141.8032,65.7503,0.0000,57.2579,20.9918,"999",13,6,6,0,3,00,0,41*80e8c079
$GNGGA,031516.70,3039.11561891,N,12047.31523529,E,1,07,2.8,25.5105,M,9.8179,M,,*73
$GNRMC,031516.70,A,3039.11561891,N,12047.31523529,E,0.042,92.3,150120,5.8,W,A*09
#HEADINGA,COM2,0,75.0,FINE,2088,270934.700,266928,18,18;SOL_COMPUTED,L1_FLOAT,8.1860,141.7663,65.8261,0.0000,57.8027,21.0270,"999",13,6,6,0,3,00,0,41*36106472
$GNGGA,031516.80,3039.11561821,N,12047.31523972,E,1,07,2.8,25.5070,M,9.8179,M,,*76
$GNRMC,031516.80,A,3039.11561821,N,12047.31523972,E,0.039,95.7,150120,5.8,W,A*00
#HEADINGA,COM2,0,75.0,FINE,2088,270934.800,267028,18,18;SOL_COMPUTED,L1_FLOAT,8.2035,141.5639,65.8076,0.0000,57.7200,20.9878,"999",13,6,6,0,3,00,0,41*cd131085
$GNGGA,031516.90,3039.11561992,N,12047.31523798,E,1,07,2.8,25.4748,M,9.8179,M,,*79
$GNRMC,031516.90,A,3039.11561992,N,12047.31523798,E,0.017,70.8,150120,5.8,W,A*0A
#HEADINGA,COM2,0,75.0,FINE,2088,270934.900,267128,17,18;SOL_COMPUTED,L1_FLOAT,8.1779,141.7109,65.6777,0.0000,57.5490,21.2302,"999",13,6,6,0,3,00,0,41*862c410e
#REFSTATIONA,COM2,0,90.0,UNKNOWN,0,0.000,0,267232,0;00000001,0.000,0.000,0.000,0,NONE,""*a1f8d131
$GNGGA,031517.00,3039.11562017,N,12047.31524879,E,1,07,2.8,25.5058,M,9.8179,M,,*76
$GNRMC,031517.00,A,3039.11562017,N,12047.31524879,E,0.033,59.6,150120,5.8,W,A*01
#HEADINGA,COM2,0,75.0,FINE,2088,270935.000,267228,21,18;SOL_COMPUTED,L1_FLOAT,8.1883,141.7085,65.7658,0.0000,57.6718,21.0935,"999",13,6,6,0,3,00,0,41*3ee55da6
$GNGGA,031517.10,3039.11562000,N,12047.31525339,E,1,07,2.8,25.4969,M,9.8179,M,,*75
$GNRMC,031517.10,A,3039.11562000,N,12047.31525339,E,0.032,67.1,150120,5.8,W,A*03
#HEADINGA,COM2,0,75.0,FINE,2088,270935.100,267327,19,18;SOL_COMPUTED,L1_FLOAT,8.2009,141.9215,65.7276,0.0000,57.4093,21.1288,"999",13,6,6,0,3,00,0,41*9fd4c4cd
$GNGGA,031517.20,3039.11561497,N,12047.31526127,E,1,07,2.8,25.5390,M,9.8179,M,,*7C
$GNRMC,031517.20,A,3039.11561497,N,12047.31526127,E,0.026,124.5,150120,5.8,W,A*30
#HEADINGA,COM2,0,75.0,FINE,2088,270935.200,267427,18,18;SOL_COMPUTED,L1_FLOAT,8.0379,142.4208,65.5487,0.0000,57.6687,21.7149,"999",13,6,6,0,3,00,0,41*80c224b5
$GNGGA,031517.30,3039.11561289,N,12047.31526688,E,1,07,2.8,25.5805,M,9.8179,M,,*71
$GNRMC,031517.30,A,3039.11561289,N,12047.31526688,E,0.012,153.7,150120,5.8,W,A*3F
#HEADINGA,COM2,0,75.0,FINE,2088,270935.300,267527,18,18;SOL_COMPUTED,L1_FLOAT,8.0161,142.4738,65.5465,0.0000,57.7976,21.7826,"999",13,6,6,0,3,00,0,41*7f2dbf67
$GNGGA,031517.40,3039.11561706,N,12047.31527219,E,1,07,2.8,25.5758,M,9.8179,M,,*7E
$GNRMC,031517.40,A,3039.11561706,N,12047.31527219,E,0.041,18.3,150120,5.8,W,A*0B
#HEADINGA,COM2,0,75.0,FINE,2088,270935.400,267627,18,18;SOL_COMPUTED,L1_FLOAT,8.0785,142.4567,65.6356,0.0000,57.5534,21.5015,"999",13,6,6,0,3,00,0,41*06c61f12
$GNGGA,031517.50,3039.11561534,N,12047.31527915,E,1,07,2.8,25.5924,M,9.8179,M,,*7E
$GNRMC,031517.50,A,3039.11561534,N,12047.31527915,E,0.030,51.1,150120,5.8,W,A*07
#HEADINGA,COM2,0,75.0,FINE,2088,270935.500,267727,18,18;SOL_COMPUTED,L1_FLOAT,8.1093,142.4617,65.7459,0.0000,57.5768,21.2836,"999",13,6,6,0,3,00,0,41*3806e865
$GNGGA,031517.60,3039.11561091,N,12047.31529932,E,1,07,2.8,25.6668,M,9.8179,M,,*78
$GNRMC,031517.60,A,3039.11561091,N,12047.31529932,E,0.234,108.0,150120,5.8,W,A*3F
#HEADINGA,COM2,0,75.0,FINE,2088,270935.600,267827,18,18;SOL_COMPUTED,L1_FLOAT,8.0276,142.5550,65.6819,0.0000,57.9788,21.5909,"999",13,6,6,0,3,00,0,41*1a19c027
$GNGGA,031517.70,3039.11561465,N,12047.31530355,E,1,07,2.8,25.6444,M,9.8179,M,,*79
$GNRMC,031517.70,A,3039.11561465,N,12047.31530355,E,0.139,45.2,150120,5.8,W,A*06
#HEADINGA,COM2,0,75.0,FINE,2088,270935.700,267927,18,18;SOL_COMPUTED,L1_FLOAT,8.0800,142.3064,65.6441,0.0000,57.6208,21.4750,"999",13,6,6,0,3,00,0,41*8abf8439
$GNGGA,031517.80,3039.11561725,N,12047.31530574,E,1,07,2.8,25.6295,M,9.8179,M,,*7E
$GNRMC,031517.80,A,3039.11561725,N,12047.31530574,E,0.110,11.0,150120,5.8,W,A*03
#HEADINGA,COM2,0,75.0,FINE,2088,270935.800,268027,18,18;SOL_COMPUTED,L1_FLOAT,8.0640,142.2176,65.6534,0.0000,57.7913,21.4983,"999",13,6,6,0,3,00,0,41*d423561d
$GNGGA,031517.90,3039.11561642,N,12047.31530529,E,1,07,2.8,25.6421,M,9.8179,M,,*7E
$GNRMC,031517.90,A,3039.11561642,N,12047.31530529,E,0.111,309.8,150120,5.8,W,A*39
#HEADINGA,COM2,0,75.0,FINE,2088,270935.900,268127,18,18;SOL_COMPUTED,L1_FLOAT,8.1652,141.9782,65.7464,0.0000,57.3773,21.0947,"999",13,6,6,0,3,00,0,41*80d2ec18
#REFSTATIONA,COM2,0,90.0,UNKNOWN,0,0.000,0,268235,0;00000001,0.000,0.000,0.000,0,NONE,""*00c359dd
$GNGGA,031518.00,3039.11561240,N,12047.31531516,E,1,07,2.8,25.6957,M,9.8179,M,,*7F
$GNRMC,031518.00,A,3039.11561240,N,12047.31531516,E,0.023,219.3,150120,5.8,W,A*3F
#HEADINGA,COM2,0,75.0,FINE,2088,270936.000,268232,19,18;SOL_COMPUTED,L1_FLOAT,8.0809,142.0639,65.6717,0.0000,57.7724,21.4176,"999",13,6,6,0,3,00,0,41*3fe40e53
$GNGGA,031518.10,3039.11561003,N,12047.31532160,E,1,07,2.8,25.7187,M,9.8179,M,,*79
$GNRMC,031518.10,A,3039.11561003,N,12047.31532160,E,0.031,182.6,150120,5.8,W,A*3A
#HEADINGA,COM2,0,75.0,FINE,2088,270936.100,268327,19,18;SOL_COMPUTED,L1_FLOAT,8.0779,142.5373,65.6750,0.0000,57.6037,21.4673,"999",13,6,6,0,3,00,0,41*11cb090a
$GNGGA,031518.20,3039.11561257,N,12047.31532630,E,1,07,2.8,25.7183,M,9.8179,M,,*7F
$GNRMC,031518.20,A,3039.11561257,N,12047.31532630,E,0.018,355.4,150120,5.8,W,A*39
#HEADINGA,COM2,0,75.0,FINE,2088,270936.200,268428,18,18;SOL_COMPUTED,L1_FLOAT,7.8728,142.8336,65.4281,0.0000,58.1200,22.2525,"999",13,6,6,0,3,00,0,41*62879876
$GNGGA,031518.30,3039.11561637,N,12047.31533352,E,1,07,2.8,25.7096,M,9.8179,M,,*79
$GNRMC,031518.30,A,3039.11561637,N,12047.31533352,E,0.065,25.1,150120,5.8,W,A*01
#HEADINGA,COM2,0,75.0,FINE,2088,270936.300,268527,18,18;SOL_COMPUTED,L1_FLOAT,7.8644,143.3661,65.4365,0.0000,57.9736,22.3207,"999",13,6,6,0,3,00,0,41*136bb0e3
$GNGGA,031518.40,3039.11561491,N,12047.31534209,E,1,07,2.8,25.7259,M,9.8179,M,,*79
$GNRMC,031518.40,A,3039.11561491,N,12047.31534209,E,0.058,53.4,150120,5.8,W,A*0A
#HEADINGA,COM2,0,75.0,FINE,2088,270936.400,268627,18,18;SOL_COMPUTED,L1_FLOAT,7.7672,142.7774,65.3731,0.0000,58.8083,22.6223,"999",13,6,6,0,3,00,0,41*83261147
$GNGGA,031518.50,3039.11561210,N,12047.31534614,E,1,07,2.8,25.7491,M,9.8179,M,,*7D
$GNRMC,031518.50,A,3039.11561210,N,12047.31534614,E,0.023,55.7,150120,5.8,W,A*05
#HEADINGA,COM2,0,75.0,FINE,2088,270936.500,268727,18,18;SOL_COMPUTED,L1_FLOAT,7.8296,142.8143,65.4197,0.0000,58.4267,22.3865,"999",13,6,6,0,3,00,0,41*268828d0
$GNGGA,031518.60,3039.11560648,N,12047.31535428,E,1,07,2.8,25.7910,M,9.8179,M,,*7E
$GNRMC,031518.60,A,3039.11560648,N,12047.31535428,E,0.052,146.3,150120,5.8,W,A*33
#HEADINGA,COM2,0,75.0,FINE,2088,270936.600,268827,18,18;SOL_COMPUTED,L1_FLOAT,7.8262,142.8584,65.4860,0.0000,58.5804,22.3162,"999",13,6,6,0,3,00,0,41*6c2359b6
$GNGGA,031518.70,3039.11561246,N,12047.31534916,E,1,07,2.8,25.7181,M,9.8179,M,,*75
$GNRMC,031518.70,A,3039.11561246,N,12047.31534916,E,0.150,330.0,150120,5.8,W,A*3B
#HEADINGA,COM2,0,75.0,FINE,2088,270936.700,268927,18,18;SOL_COMPUTED,L1_FLOAT,7.8586,142.6446,65.6129,0.0000,58.7135,22.0410,"999",13,6,6,0,3,00,0,41*1fbdf15b
$GNGGA,031518.80,3039.11561019,N,12047.31536072,E,1,07,2.8,25.7721,M,9.8179,M,,*77
$GNRMC,031518.80,A,3039.11561019,N,12047.31536072,E,0.040,8.9,150120,5.8,W,A*34
#HEADINGA,COM2,0,75.0,FINE,2088,270936.800,269027,18,18;SOL_COMPUTED,L1_FLOAT,7.8086,142.6910,65.4349,0.0000,58.6669,22.4174,"999",13,6,6,0,3,00,0,41*7e45ffd8
$GNGGA,031518.90,3039.11560937,N,12047.31537548,E,1,07,2.8,25.8117,M,9.8179,M,,*73
$GNRMC,031518.90,A,3039.11560937,N,12047.31537548,E,0.145,86.0,150120,5.8,W,A*07
#HEADINGA,COM2,0,75.0,FINE,2088,270936.900,269127,18,18;SOL_COMPUTED,L1_FLOAT,7.7858,142.8200,65.4515,0.0000,58.8197,22.4754,"999",13,6,6,0,3,00,0,41*c96e0324
#REFSTATIONA,COM2,0,90.0,UNKNOWN,0,0.000,0,269234,0;00000001,0.000,0.000,0.000,0,NONE,""*e8943d61
$GNGGA,031519.00,3039.11561300,N,12047.31538134,E,1,07,2.8,25.7872,M,9.8179,M,,*71
$GNRMC,031519.00,A,3039.11561300,N,12047.31538134,E,0.140,60.6,150120,5.8,W,A*0B
