
$GNGGA,062746.90,3039.10493268,N,12047.27587469,E,4,29,0.7,4.1427,M,9.8158,M,09,0*7D
$GNRMC,062746.90,A,3039.10493268,N,12047.27587469,E,0.064,331.0,170120,5.8,W,D*31
#HEADINGA,COM2,0,62.0,FINE,2088,455284.900,1347285,15,18;SOL_COMPUTED,NARROW_INT,0.6429,119.1998,23.7876,0.0000,0.3645,0.7596,"999",33,29,29,9,3,01,3,73*6618f1ef
#REFSTATIONA,COM2,0,62.0,FINE,2088,455253.000,1346586,803,18;00000000,-2811044.342,4717820.352,3232735.546,0,RTCMV3,"0000"*1f06c22f
$GNGGA,062747.00,3039.10493175,N,12047.27587206,E,4,29,0.7,4.1357,M,9.8158,M,10,0*7D
$GNRMC,062747.00,A,3039.10493175,N,12047.27587206,E,0.088,247.6,170120,5.8,W,D*3D
#HEADINGA,COM2,0,62.0,FINE,2088,455285.000,1347385,22,18;SOL_COMPUTED,NARROW_INT,0.6407,119.0159,23.7805,0.0000,0.3652,0.7623,"999",33,29,29,9,3,01,3,73*f353e855
$GNGGA,062747.10,3039.10493169,N,12047.27587603,E,4,29,0.7,4.1424,M,9.8158,M,10,0*73
$GNRMC,062747.10,A,3039.10493169,N,12047.27587603,E,0.123,91.0,170120,5.8,W,D*0F
#HEADINGA,COM2,0,62.0,FINE,2088,455285.100,1347485,17,18;SOL_COMPUTED,NARROW_INT,0.6392,119.2487,23.8800,0.0000,0.3669,0.7632,"999",33,29,29,9,3,01,3,73*8037eee2
$GNGGA,062747.20,3039.10493067,N,12047.27587535,E,4,29,0.7,4.1368,M,9.8158,M,10,0*76
$GNRMC,062747.20,A,3039.10493067,N,12047.27587535,E,0.042,210.3,170120,5.8,W,D*3B
#HEADINGA,COM2,0,62.0,FINE,2088,455285.200,1347587,17,18;SOL_COMPUTED,NARROW_INT,0.6386,119.0302,23.9498,0.0000,0.3670,0.7636,"999",33,29,29,9,3,01,3,73*ac5226f7
$GNGGA,062747.30,3039.10493150,N,12047.27587279,E,4,29,0.7,4.1332,M,9.8158,M,10,0*72
$GNRMC,062747.30,A,3039.10493150,N,12047.27587279,E,0.085,290.4,170120,5.8,W,D*34
#HEADINGA,COM2,0,62.0,FINE,2088,455285.300,1347686,16,18;SOL_COMPUTED,NARROW_INT,0.6383,118.9907,23.7635,0.0000,0.3662,0.7662,"999",33,29,29,9,3,01,3,73*0e0d8516
$GNGGA,062747.40,3039.10493232,N,12047.27587474,E,4,29,0.7,4.1330,M,9.8158,M,10,0*7B
$GNRMC,062747.40,A,3039.10493232,N,12047.27587474,E,0.067,63.9,170120,5.8,W,D*00
#HEADINGA,COM2,0,62.0,FINE,2088,455285.400,1347785,17,18;SOL_COMPUTED,NARROW_INT,0.6370,119.0318,23.8124,0.0000,0.3672,0.7674,"999",33,29,29,9,3,01,3,73*dd1d3e15
$GNGGA,062747.50,3039.10493107,N,12047.27588072,E,4,29,0.7,4.1507,M,9.8158,M,10,0*70
$GNRMC,062747.50,A,3039.10493107,N,12047.27588072,E,0.191,103.7,170120,5.8,W,D*38
#HEADINGA,COM2,0,62.0,FINE,2088,455285.500,1347885,20,18;SOL_COMPUTED,NARROW_INT,0.6283,119.1933,23.1835,0.0000,0.3709,0.7827,"999",33,29,29,9,3,01,3,73*adbc7f7f
$GNGGA,062747.60,3039.10493373,N,12047.27587741,E,4,29,0.7,4.1450,M,9.8158,M,10,0*79
$GNRMC,062747.60,A,3039.10493373,N,12047.27587741,E,0.141,313.0,170120,5.8,W,D*3B
#HEADINGA,COM2,0,62.0,FINE,2088,455285.600,1347985,16,18;SOL_COMPUTED,NARROW_INT,0.6423,119.1528,23.7672,0.0000,0.3649,0.7630,"999",33,29,29,9,3,01,3,73*9d3e65a0
$GNGGA,062747.70,3039.10493315,N,12047.27587728,E,4,29,0.7,4.1391,M,9.8158,M,10,0*7D
$GNRMC,062747.70,A,3039.10493315,N,12047.27587728,E,0.021,190.9,170120,5.8,W,D*32
#HEADINGA,COM2,0,62.0,FINE,2088,455285.700,1348085,16,18;SOL_COMPUTED,NARROW_INT,0.6457,119.4131,24.7025,0.0000,0.3658,0.7518,"999",33,29,29,9,3,01,3,73*b895c024
$GNGGA,062747.80,3039.10493466,N,12047.27587999,E,4,29,0.7,4.1465,M,9.8158,M,10,0*79
$GNRMC,062747.80,A,3039.10493466,N,12047.27587999,E,0.100,57.3,170120,5.8,W,D*08
#HEADINGA,COM2,0,62.0,FINE,2088,455285.800,1348185,15,18;SOL_COMPUTED,NARROW_INT,0.6379,119.3745,23.8134,0.0000,0.3675,0.7684,"999",33,29,29,9,3,01,3,73*6e568d32
$GNGGA,062747.90,3039.10493291,N,12047.27587897,E,4,29,0.7,4.1400,M,9.8158,M,10,0*7A
$GNRMC,062747.90,A,3039.10493291,N,12047.27587897,E,0.071,206.8,170120,5.8,W,D*32
#HEADINGA,COM2,0,62.0,FINE,2088,455285.900,1348285,15,18;SOL_COMPUTED,NARROW_INT,0.6382,119.0245,24.1399,0.0000,0.3674,0.7656,"999",33,29,29,9,3,01,3,73*75c7898b
#REFSTATIONA,COM2,0,62.0,FINE,2088,455253.000,1346586,1803,18;00000000,-2811044.342,4717820.352,3232735.546,0,RTCMV3,"0000"*246d5aed
$GNGGA,062748.00,3039.10493188,N,12047.27587885,E,4,29,0.7,4.1419,M,9.8158,M,11,0*7D
$GNRMC,062748.00,A,3039.10493188,N,12047.27587885,E,0.037,185.8,170120,5.8,W,D*36
#HEADINGA,COM2,0,62.0,FINE,2088,455286.000,1348385,21,18;SOL_COMPUTED,NARROW_INT,0.6375,119.2372,23.9417,0.0000,0.3676,0.7678,"999",33,29,29,9,3,01,3,73*bc4cc9b8
$GNGGA,062748.10,3039.10493308,N,12047.27587772,E,4,29,0.7,4.1373,M,9.8158,M,11,0*7A
$GNRMC,062748.10,A,3039.10493308,N,12047.27587772,E,0.056,320.8,170120,5.8,W,D*30
#HEADINGA,COM2,0,62.0,FINE,2088,455286.100,1348486,16,18;SOL_COMPUTED,NARROW_INT,0.6399,119.0677,23.9928,0.0000,0.3660,0.7639,"999",33,29,29,9,3,01,3,73*39496c72
$GNGGA,062748.20,3039.10493423,N,12047.27587968,E,4,29,0.7,4.1426,M,9.8158,M,11,0*75
$GNRMC,062748.20,A,3039.10493423,N,12047.27587968,E,0.074,55.7,170120,5.8,W,D*06
#HEADINGA,COM2,0,61.0,FINE,2088,455286.200,1348586,17,18;SOL_COMPUTED,NARROW_INT,0.6403,118.9688,23.4182,0.0000,0.3633,0.7673,"999",33,29,29,10,3,01,3,73*f1d2b5f5
$GNGGA,062748.30,3039.10493355,N,12047.27587940,E,4,29,0.7,4.1442,M,9.8158,M,11,0*7A
$GNRMC,062748.30,A,3039.10493355,N,12047.27587940,E,0.026,199.2,170120,5.8,W,D*38
#HEADINGA,COM2,0,61.0,FINE,2088,455286.300,1348686,16,18;SOL_COMPUTED,NARROW_INT,0.6391,119.3648,23.6705,0.0000,0.3656,0.7667,"999",33,29,29,10,3,01,3,73*7159b68c
$GNGGA,062748.40,3039.10493335,N,12047.27587695,E,4,29,0.7,4.1374,M,9.8158,M,11,0*7E
$GNRMC,062748.40,A,3039.10493335,N,12047.27587695,E,0.077,264.5,170120,5.8,W,D*3C
#HEADINGA,COM2,0,61.0,FINE,2088,455286.400,1348785,17,18;SOL_COMPUTED,NARROW_INT,0.6418,119.0789,23.6113,0.0000,0.3632,0.7638,"999",33,29,29,10,3,01,3,73*8c8437a3
$GNGGA,062748.50,3039.10493310,N,12047.27587548,E,4,29,0.7,4.1378,M,9.8158,M,11,0*77
$GNRMC,062748.50,A,3039.10493310,N,12047.27587548,E,0.047,258.9,170120,5.8,W,D*39
#HEADINGA,COM2,0,61.0,FINE,2088,455286.500,1348885,20,18;SOL_COMPUTED,NARROW_INT,0.6388,118.6327,23.3850,0.0000,0.3631,0.7692,"999",33,29,29,10,3,01,3,73*cb714bd0
$GNGGA,062748.60,3039.10493368,N,12047.27587824,E,4,29,0.7,4.1473,M,9.8158,M,11,0*70
$GNRMC,062748.60,A,3039.10493368,N,12047.27587824,E,0.088,76.4,170120,5.8,W,D*02
#HEADINGA,COM2,0,61.0,FINE,2088,455286.600,1348985,16,18;SOL_COMPUTED,NARROW_INT,0.6333,119.0108,22.7891,0.0000,0.3657,0.7805,"999",33,29,29,10,3,01,3,73*4ec4e45a
$GNGGA,062748.70,3039.10493314,N,12047.27587744,E,4,29,0.7,4.1429,M,9.8158,M,11,0*7C
$GNRMC,062748.70,A,3039.10493314,N,12047.27587744,E,0.031,232.3,170120,5.8,W,D*36
#HEADINGA,COM2,0,61.0,FINE,2088,455286.700,1349085,16,18;SOL_COMPUTED,NARROW_INT,0.6380,119.2192,23.4638,0.0000,0.3652,0.7694,"999",33,29,29,10,3,01,3,73*321fb1aa
$GNGGA,062748.80,3039.10493351,N,12047.27587670,E,4,29,0.7,4.1414,M,9.8158,M,11,0*7A
$GNRMC,062748.80,A,3039.10493351,N,12047.27587670,E,0.027,300.0,170120,5.8,W,D*3A
#HEADINGA,COM2,0,61.0,FINE,2088,455286.800,1349185,16,18;SOL_COMPUTED,NARROW_INT,0.6357,119.0060,23.2076,0.0000,0.3654,0.7744,"999",33,29,29,10,3,01,3,73*136f416e
$GNGGA,062748.90,3039.10493489,N,12047.27587478,E,4,29,0.7,4.1296,M,9.8158,M,11,0*7F
$GNRMC,062748.90,A,3039.10493489,N,12047.27587478,E,0.077,309.5,170120,5.8,W,D*3A
#HEADINGA,COM2,0,61.0,FINE,2088,455286.900,1349285,15,18;SOL_COMPUTED,NARROW_INT,0.6496,118.8436,24.2413,0.0000,0.3601,0.7501,"999",33,29,29,10,3,01,3,73*693d918b
#REFSTATIONA,COM2,0,62.0,FINE,2088,455253.000,1346586,2803,18;00000000,-2811044.342,4717820.352,3232735.546,0,RTCMV3,"0000"*8013d828
$GNGGA,062749.00,3039.10493293,N,12047.27587540,E,4,29,0.7,4.1397,M,9.8158,M,12,0*73
$GNRMC,062749.00,A,3039.10493293,N,12047.27587540,E,0.073,164.7,170120,5.8,W,D*3A
#HEADINGA,COM2,0,61.0,FINE,2088,455287.000,1349385,21,18;SOL_COMPUTED,NARROW_INT,0.6381,118.3998,23.2047,0.0000,0.3626,0.7717,"999",33,29,29,10,3,01,3,73*d5a43a85
$GNGGA,062749.10,3039.10493405,N,12047.27587602,E,4,29,0.7,4.1348,M,9.8158,M,12,0*7C
$GNRMC,062749.10,A,3039.10493405,N,12047.27587602,E,0.045,25.6,170120,5.8,W,D*07
#HEADINGA,COM2,0,61.0,FINE,2088,455287.100,1349485,17,18;SOL_COMPUTED,NARROW_INT,0.6428,119.2600,24.0829,0.0000,0.3644,0.7591,"999",33,29,29,10,3,01,3,73*798ac992
$GNGGA,062749.20,3039.10493390,N,12047.27587848,E,4,29,0.7,4.1399,M,9.8158,M,12,0*78
$GNRMC,062749.20,A,3039.10493390,N,12047.27587848,E,0.077,94.0,170120,5.8,W,D*02
#HEADINGA,COM2,0,61.0,FINE,2088,455287.200,1349586,18,18;SOL_COMPUTED,NARROW_INT,0.6352,118.9925,23.6750,0.0000,0.3669,0.7712,"999",33,29,29,10,3,01,3,73*0b7818f2
$GNGGA,062749.30,3039.10493356,N,12047.27587662,E,4,29,0.7,4.1332,M,9.8158,M,09,0*7E
$GNRMC,062749.30,A,3039.10493356,N,12047.27587662,E,0.059,258.2,170120,5.8,W,D*33
#HEADINGA,COM2,0,61.0,FINE,2088,455287.300,1349685,17,18;SOL_COMPUTED,NARROW_INT,0.6422,118.8178,24.2336,0.0000,0.3640,0.7587,"999",33,29,29,10,3,01,3,73*30d43561
$GNGGA,062749.40,3039.10493419,N,12047.27587732,E,4,29,0.7,4.1398,M,9.8158,M,09,0*71
$GNRMC,062749.40,A,3039.10493419,N,12047.27587732,E,0.031,43.7,170120,5.8,W,D*0F
#HEADINGA,COM2,0,61.0,FINE,2088,455287.400,1349785,17,18;SOL_COMPUTED,NARROW_INT,0.6378,118.6763,23.3003,0.0000,0.4086,0.7654,"999",33,29,29,10,3,01,3,73*eb238bc4
$GNGGA,062749.50,3039.10493460,N,12047.27587466,E,4,29,0.7,4.1355,M,9.8158,M,09,0*7D
$GNRMC,062749.50,A,3039.10493460,N,12047.27587466,E,0.084,279.9,170120,5.8,W,D*39
#HEADINGA,COM2,0,61.0,FINE,2088,455287.500,1349885,17,18;SOL_COMPUTED,NARROW_INT,0.6418,118.6284,23.7832,0.0000,0.4074,0.7567,"999",33,29,29,10,3,01,3,73*f77dc1e3
$GNGGA,062749.60,3039.10493230,N,12047.27587631,E,4,29,0.7,4.1331,M,9.8158,M,09,0*7F
$GNRMC,062749.60,A,3039.10493230,N,12047.27587631,E,0.097,148.3,170120,5.8,W,D*30
#HEADINGA,COM2,0,61.0,FINE,2088,455287.600,1349985,19,18;SOL_COMPUTED,NARROW_INT,0.6388,118.8195,23.6134,0.0000,0.4091,0.7615,"999",33,29,29,10,3,01,3,73*4812ba3b
$GNGGA,062749.70,3039.10493069,N,12047.27587558,E,4,29,0.7,4.1326,M,9.8158,M,09,0*7A
$GNRMC,062749.70,A,3039.10493069,N,12047.27587558,E,0.062,201.3,170120,5.8,W,D*37
#HEADINGA,COM2,0,61.0,FINE,2088,455287.700,1350085,16,18;SOL_COMPUTED,NARROW_INT,0.6400,118.8222,23.5304,0.0000,0.4084,0.7611,"999",33,29,29,10,3,01,3,73*30a34c25
$GNGGA,062749.80,3039.10493068,N,12047.27587649,E,4,29,0.7,4.1392,M,9.8158,M,09,0*78
$GNRMC,062749.80,A,3039.10493068,N,12047.27587649,E,0.028,91.3,170120,5.8,W,D*0F
#HEADINGA,COM2,0,61.0,FINE,2088,455287.800,1350185,15,18;SOL_COMPUTED,NARROW_INT,0.6370,118.6314,23.3476,0.0000,0.4092,0.7660,"999",33,29,29,10,3,01,3,73*9ee6e3c4
$GNGGA,062749.90,3039.10493311,N,12047.27587723,E,4,29,0.7,4.1382,M,9.8158,M,09,0*78
$GNRMC,062749.90,A,3039.10493311,N,12047.27587723,E,0.091,14.7,170120,5.8,W,D*05
#HEADINGA,COM2,0,61.0,FINE,2088,455287.900,1350285,15,18;SOL_COMPUTED,NARROW_INT,0.6360,119.0308,23.2549,0.0000,0.4108,0.7677,"999",33,29,29,10,3,01,3,73*edf26b57
#REFSTATIONA,COM2,0,61.0,FINE,2088,455277.000,1349586,803,18;00000000,-2811044.342,4717820.352,3232735.546,0,RTCMV3,"0000"*b1e013d8
$GNGGA,062750.00,3039.10492943,N,12047.27587470,E,4,29,0.7,4.1376,M,9.8158,M,10,0*73
$GNRMC,062750.00,A,3039.10492943,N,12047.27587470,E,0.154,210.8,170120,5.8,W,D*3C
#HEADINGA,COM2,0,61.0,FINE,2088,455288.000,1350385,22,18;SOL_COMPUTED,NARROW_INT,0.6363,118.5965,23.1520,0.0000,0.4089,0.7675,"999",33,29,29,10,3,01,3,73*535631c0
$GNGGA,062750.10,3039.10493090,N,12047.27587474,E,4,29,0.7,4.1329,M,9.8158,M,10,0*7A
$GNRMC,062750.10,A,3039.10493090,N,12047.27587474,E,0.053,1.3,170120,5.8,W,D*30
#HEADINGA,COM2,0,61.0,FINE,2088,455288.100,1350485,17,18;SOL_COMPUTED,NARROW_INT,0.6425,118.6945,23.8730,0.0000,0.4074,0.7548,"999",33,29,29,10,3,01,3,73*66c77e4e
$GNGGA,062750.20,3039.10493107,N,12047.27587649,E,4,29,0.7,4.1353,M,9.8158,M,10,0*77
$GNRMC,062750.20,A,3039.10493107,N,12047.27587649,E,0.055,83.3,170120,5.8,W,D*0C
#HEADINGA,COM2,0,61.0,FINE,2088,455288.200,1350587,17,18;SOL_COMPUTED,NARROW_INT,0.6373,118.7985,23.7562,0.0000,0.4106,0.7602,"999",33,29,29,11,3,01,3,73*337029fa
$GNGGA,062750.30,3039.10493167,N,12047.27587502,E,4,29,0.7,4.1337,M,9.8158,M,09,0*76
$GNRMC,062750.30,A,3039.10493167,N,12047.27587502,E,0.050,295.3,170120,5.8,W,D*37
#HEADINGA,COM2,0,61.0,FINE,2088,455288.300,1350685,17,18;SOL_COMPUTED,NARROW_INT,0.6408,118.7380,23.8670,0.0000,0.4084,0.7546,"999",33,29,29,11,3,01,3,73*df0fdfec
$GNGGA,062750.40,3039.10493163,N,12047.27587528,E,4,29,0.7,4.1338,M,9.8158,M,09,0*72
$GNRMC,062750.40,A,3039.10493163,N,12047.27587528,E,0.008,100.4,170120,5.8,W,D*39
#HEADINGA,COM2,0,61.0,FINE,2088,455288.400,1350785,16,18;SOL_COMPUTED,NARROW_INT,0.6393,118.8849,23.9181,0.0000,0.4099,0.7551,"999",33,29,29,11,3,01,3,73*f7cdf052
$GNGGA,062750.50,3039.10493309,N,12047.27587818,E,4,29,0.7,4.1371,M,9.8158,M,09,0*7E
$GNRMC,062750.50,A,3039.10493309,N,12047.27587818,E,0.104,59.9,170120,5.8,W,D*05
#HEADINGA,COM2,0,61.0,FINE,2088,455288.500,1350885,19,18;SOL_COMPUTED,NARROW_INT,0.6370,118.5628,23.6641,0.0000,0.4096,0.7599,"999",33,29,29,11,3,01,3,73*1c3cd952
$GNGGA,062750.60,3039.10493338,N,12047.27587936,E,4,29,0.7,4.1402,M,9.8158,M,09,0*71
$GNRMC,062750.60,A,3039.10493338,N,12047.27587936,E,0.038,74.0,170120,5.8,W,D*01
#HEADINGA,COM2,0,61.0,FINE,2088,455288.600,1350985,16,18;SOL_COMPUTED,NARROW_INT,0.6349,118.7420,23.6147,0.0000,0.4115,0.7634,"999",33,29,29,11,3,01,3,73*d410bd97
$GNGGA,062750.70,3039.10493465,N,12047.27587904,E,4,29,0.7,4.1392,M,9.8158,M,09,0*70
$GNRMC,062750.70,A,3039.10493465,N,12047.27587904,E,0.047,347.9,170120,5.8,W,D*3C
#HEADINGA,COM2,0,61.0,FINE,2088,455288.700,1351085,16,18;SOL_COMPUTED,NARROW_INT,0.6357,118.8314,23.3932,0.0000,0.4105,0.7642,"999",33,29,29,11,3,01,3,73*a2b370cc
$GNGGA,062750.80,3039.10493407,N,12047.27587774,E,4,29,0.7,4.1446,M,9.8158,M,09,0*7C
$GNRMC,062750.80,A,3039.10493407,N,12047.27587774,E,0.046,242.8,170120,5.8,W,D*3A
#HEADINGA,COM2,0,61.0,FINE,2088,455288.800,1351185,15,18;SOL_COMPUTED,NARROW_INT,0.6370,118.4894,23.4220,0.0000,0.4086,0.7626,"999",33,29,29,11,3,01,3,73*5ccf155e
$GNGGA,062750.90,3039.10493485,N,12047.27587510,E,4,29,0.7,4.1306,M,9.8158,M,09,0*74
$GNRMC,062750.90,A,3039.10493485,N,12047.27587510,E,0.087,288.7,170120,5.8,W,D*35
#HEADINGA,COM2,0,61.0,FINE,2088,455288.900,1351285,16,18;SOL_COMPUTED,NARROW_INT,0.6444,118.7933,23.9268,0.0000,0.4064,0.7501,"999",33,29,29,11,3,01,3,73*7df9126e
#REFSTATIONA,COM2,0,61.0,FINE,2088,455277.000,1350587,802,18;00000000,-2811044.342,4717820.352,3232735.546,0,RTCMV3,"0000"*624ac28d
$GNGGA,062751.00,3039.10493392,N,12047.27587720,E,4,29,0.7,4.1411,M,9.8158,M,10,0*75
$GNRMC,062751.00,A,3039.10493392,N,12047.27587720,E,0.073,117.0,170120,5.8,W,D*34
#HEADINGA,COM2,0,61.0,FINE,2088,455289.000,1351385,21,18;SOL_COMPUTED,NARROW_INT,0.6400,118.7381,23.6131,0.0000,0.4081,0.7577,"999",33,29,29,11,3,01,3,73*d350cdb9
$GNGGA,062751.10,3039.10493350,N,12047.27587688,E,4,29,0.7,4.1343,M,9.8158,M,10,0*79
$GNRMC,062751.10,A,3039.10493350,N,12047.27587688,E,0.018,212.7,170120,5.8,W,D*34
#HEADINGA,COM2,0,61.0,FINE,2088,455289.100,1351485,17,18;SOL_COMPUTED,NARROW_INT,0.6422,118.9904,23.9953,0.0000,0.4086,0.7520,"999",33,29,29,11,3,01,3,73*a3d95ba1
$GNGGA,062751.20,3039.10493413,N,12047.27587872,E,4,29,0.7,4.1381,M,9.8158,M,10,0*7F
$GNRMC,062751.20,A,3039.10493413,N,12047.27587872,E,0.061,68.2,170120,5.8,W,D*08
#HEADINGA,COM2,0,60.0,FINE,2088,455289.200,1351586,17,18;SOL_COMPUTED,NARROW_INT,0.6377,118.8665,23.7808,0.0000,0.4105,0.7598,"999",33,29,29,11,3,01,3,73*811b2a80
$GNGGA,062751.30,3039.10493444,N,12047.27587615,E,4,29,0.7,4.1337,M,9.8158,M,09,0*76
$GNRMC,062751.30,A,3039.10493444,N,12047.27587615,E,0.081,278.0,170120,5.8,W,D*3B
#HEADINGA,COM2,0,60.0,FINE,2088,455289.300,1351685,17,18;SOL_COMPUTED,NARROW_INT,0.6428,118.7667,23.7693,0.0000,0.4069,0.7539,"999",33,29,29,11,3,01,3,73*508f13a7
$GNGGA,062751.40,3039.10493211,N,12047.27587484,E,4,29,0.7,4.1271,M,9.8158,M,09,0*7E
$GNRMC,062751.40,A,3039.10493211,N,12047.27587484,E,0.093,205.8,170120,5.8,W,D*31
#HEADINGA,COM2,0,60.0,FINE,2088,455289.400,1351786,16,18;SOL_COMPUTED,NARROW_INT,0.6430,118.6904,24.0717,0.0000,0.4075,0.7515,"999",33,29,29,11,3,01,3,73*ce441467
$GNGGA,062751.50,3039.10493324,N,12047.27587674,E,4,29,0.7,4.1298,M,9.8158,M,09,0*72
$GNRMC,062751.50,A,3039.10493324,N,12047.27587674,E,0.071,55.4,170120,5.8,W,D*0D
#HEADINGA,COM2,0,60.0,FINE,2088,455289.500,1351885,17,18;SOL_COMPUTED,NARROW_INT,0.6434,118.6613,24.1479,0.0000,0.4074,0.7513,"999",33,29,29,11,3,01,3,73*3268bc11
$GNGGA,062751.60,3039.10493235,N,12047.27587674,E,4,29,0.7,4.1267,M,9.8158,M,09,0*70
$GNRMC,062751.60,A,3039.10493235,N,12047.27587674,E,0.032,179.9,170120,5.8,W,D*3A
#HEADINGA,COM2,0,60.0,FINE,2088,455289.600,1351985,19,18;SOL_COMPUTED,NARROW_INT,0.6373,118.9504,23.5528,0.0000,0.4104,0.7627,"999",33,29,29,11,3,01,3,73*1eb04a00
$GNGGA,062751.70,3039.10493151,N,12047.27587435,E,4,29,0.7,4.1253,M,9.8158,M,09,0*70
$GNRMC,062751.70,A,3039.10493151,N,12047.27587435,E,0.080,248.0,170120,5.8,W,D*3C
#HEADINGA,COM2,0,60.0,FINE,2088,455289.700,1352085,16,18;SOL_COMPUTED,NARROW_INT,0.6422,118.8166,23.9726,0.0000,0.4081,0.7539,"999",33,29,29,11,3,01,3,73*697fde57
$GNGGA,062751.80,3039.10493034,N,12047.27587450,E,4,29,0.7,4.1300,M,9.8158,M,09,0*79
$GNRMC,062751.80,A,3039.10493034,N,12047.27587450,E,0.042,173.7,170120,5.8,W,D*30
#HEADINGA,COM2,0,60.0,FINE,2088,455289.800,1352185,15,18;SOL_COMPUTED,NARROW_INT,0.6419,118.5300,23.8815,0.0000,0.4071,0.7550,"999",33,29,29,11,3,01,3,73*543e0179
$GNGGA,062751.90,3039.10493199,N,12047.27587669,E,4,29,0.7,4.1294,M,9.8158,M,09,0*7A
$GNRMC,062751.90,A,3039.10493199,N,12047.27587669,E,0.090,49.0,170120,5.8,W,D*0F
#HEADINGA,COM2,0,60.0,FINE,2088,455289.900,1352285,15,18;SOL_COMPUTED,NARROW_INT,0.6439,118.7669,24.2935,0.0000,0.4079,0.7495,"999",33,29,29,11,3,01,3,73*f649057d
#REFSTATIONA,COM2,0,60.0,FINE,2088,455277.000,1351586,803,18;00000000,-2811044.342,4717820.352,3232735.546,0,RTCMV3,"0000"*0bc27bc8
$GNGGA,062752.00,3039.10493301,N,12047.27587596,E,4,29,0.7,4.1265,M,9.8158,M,10,0*76
$GNRMC,062752.00,A,3039.10493301,N,12047.27587596,E,0.043,328.1,170120,5.8,W,D*3E
#HEADINGA,COM2,0,60.0,FINE,2088,455290.000,1352385,21,18;SOL_COMPUTED,NARROW_INT,0.6393,118.8531,23.8435,0.0000,0.4097,0.7581,"999",33,29,29,11,3,01,3,73*78399e74
$GNGGA,062752.10,3039.10493346,N,12047.27587505,E,4,29,0.7,4.1265,M,9.8158,M,10,0*7E
$GNRMC,062752.10,A,3039.10493346,N,12047.27587505,E,0.033,300.2,170120,5.8,W,D*38
#HEADINGA,COM2,0,60.0,FINE,2088,455290.100,1352485,17,18;SOL_COMPUTED,NARROW_INT,0.6408,119.0336,23.6937,0.0000,0.4088,0.7573,"999",33,29,29,11,3,01,3,73*ef303ec4
$GNGGA,062752.20,3039.10493342,N,12047.27587398,E,4,29,0.7,4.1239,M,9.8158,M,10,0*72
$GNRMC,062752.20,A,3039.10493342,N,12047.27587398,E,0.033,267.4,170120,5.8,W,D*3B
#HEADINGA,COM2,0,60.0,FINE,2088,455290.200,1352586,18,18;SOL_COMPUTED,NARROW_INT,0.6459,118.8959,24.1113,0.0000,0.4065,0.7485,"999",33,29,29,11,3,01,3,73*2250a7c9
$GNGGA,062752.30,3039.10493378,N,12047.27587472,E,4,29,0.7,4.1286,M,9.8158,M,10,0*7D
$GNRMC,062752.30,A,3039.10493378,N,12047.27587472,E,0.026,60.3,170120,5.8,W,D*06
#HEADINGA,COM2,0,60.0,FINE,2088,455290.300,1352685,17,18;SOL_COMPUTED,NARROW_INT,0.6357,118.2901,23.2723,0.0000,0.4226,0.7835,"999",33,29,29,11,3,01,3,73*37fb9a97
$GNGGA,062752.40,3039.10493313,N,12047.27587594,E,4,29,0.7,4.1284,M,9.8158,M,10,0*7C
$GNRMC,062752.40,A,3039.10493313,N,12047.27587594,E,0.044,121.8,170120,5.8,W,D*3E
#HEADINGA,COM2,0,60.0,FINE,2088,455290.400,1352785,16,18;SOL_COMPUTED,NARROW_INT,0.6342,117.7816,23.8230,0.0000,0.4252,0.7799,"999",33,29,29,11,3,01,3,73*5ab0a391
$GNGGA,062752.50,3039.10493477,N,12047.27587564,E,4,29,0.7,4.1283,M,9.8158,M,10,0*70
$GNRMC,062752.50,A,3039.10493477,N,12047.27587564,E,0.060,351.0,170120,5.8,W,D*3E
#HEADINGA,COM2,0,60.0,FINE,2088,455290.500,1352885,19,18;SOL_COMPUTED,NARROW_INT,0.6395,118.2187,24.1288,0.0000,0.4224,0.7698,"999",33,29,29,11,3,01,3,73*71d52159
$GNGGA,062752.60,3039.10493418,N,12047.27587567,E,4,29,0.7,4.1264,M,9.8158,M,10,0*70
$GNRMC,062752.60,A,3039.10493418,N,12047.27587567,E,0.022,177.1,170120,5.8,W,D*36
#HEADINGA,COM2,0,60.0,FINE,2088,455290.600,1352985,16,18;SOL_COMPUTED,NARROW_INT,0.6360,117.9748,23.8915,0.0000,0.4241,0.7763,"999",33,29,29,11,3,01,3,73*ac01041d
$GNGGA,062752.70,3039.10493432,N,12047.27587549,E,4,29,0.7,4.1301,M,9.8158,M,10,0*77
$GNRMC,062752.70,A,3039.10493432,N,12047.27587549,E,0.008,312.6,170120,5.8,W,D*3D
#HEADINGA,COM2,0,60.0,FINE,2088,455290.700,1353085,15,18;SOL_COMPUTED,NARROW_INT,0.6360,118.1083,23.7029,0.0000,0.4232,0.7770,"999",33,29,29,11,3,01,3,73*81c38b4a
$GNGGA,062752.80,3039.10493402,N,12047.27587579,E,4,29,0.7,4.1309,M,9.8158,M,10,0*70
$GNRMC,062752.80,A,3039.10493402,N,12047.27587579,E,0.014,138.2,170120,5.8,W,D*31
#HEADINGA,COM2,0,60.0,FINE,2088,455290.800,1353185,15,18;SOL_COMPUTED,NARROW_INT,0.6346,117.9912,23.5497,0.0000,0.4235,0.7794,"999",33,29,29,11,3,01,3,73*654c5b43
$GNGGA,062752.90,3039.10493502,N,12047.27587561,E,4,29,0.7,4.1316,M,9.8158,M,10,0*77
$GNRMC,062752.90,A,3039.10493502,N,12047.27587561,E,0.036,350.7,170120,5.8,W,D*31
#HEADINGA,COM2,0,60.0,FINE,2088,455290.900,1353285,16,18;SOL_COMPUTED,NARROW_INT,0.6391,117.9573,23.8603,0.0000,0.4216,0.7712,"999",33,29,29,11,3,01,3,73*728b691a
#REFSTATIONA,COM2,0,60.0,FINE,2088,455277.000,1352586,803,18;00000000,-2811044.342,4717820.352,3232735.546,0,RTCMV3,"0000"*c8e7999b
$GNGGA,062753.00,3039.10493380,N,12047.27587221,E,4,29,0.7,4.1160,M,9.8158,M,11,0*72
$GNRMC,062753.00,A,3039.10493380,N,12047.27587221,E,0.114,247.4,170120,5.8,W,D*33
#HEADINGA,COM2,0,60.0,FINE,2088,455291.000,1353385,21,18;SOL_COMPUTED,NARROW_INT,0.6474,117.6870,24.8992,0.0000,0.4197,0.7526,"999",33,29,29,11,3,01,3,73*45601992
$GNGGA,062753.10,3039.10493269,N,12047.27587657,E,4,29,0.7,4.1319,M,9.8158,M,11,0*7C
$GNRMC,062753.10,A,3039.10493269,N,12047.27587657,E,0.141,106.4,170120,5.8,W,D*37
#HEADINGA,COM2,0,60.0,FINE,2088,455291.100,1353485,16,18;SOL_COMPUTED,NARROW_INT,0.6311,118.0228,23.4745,0.0000,0.4256,0.7842,"999",33,29,29,11,3,01,3,73*d8f16746
$GNGGA,062753.20,3039.10493487,N,12047.27587708,E,4,29,0.7,4.1296,M,9.8158,M,11,0*74
$GNRMC,062753.20,A,3039.10493487,N,12047.27587708,E,0.080,11.3,170120,5.8,W,D*05
#HEADINGA,COM2,0,60.0,FINE,2088,455291.200,1353586,18,18;SOL_COMPUTED,NARROW_INT,0.6354,118.3998,23.8110,0.0000,0.4238,0.7761,"999",33,29,29,11,3,01,3,73*d099f645
$GNGGA,062753.30,3039.10493365,N,12047.27587758,E,4,29,0.7,4.1325,M,9.8158,M,10,0*73
$GNRMC,062753.30,A,3039.10493365,N,12047.27587758,E,0.046,160.4,170120,5.8,W,D*30
#HEADINGA,COM2,0,60.0,FINE,2088,455291.300,1353685,16,18;SOL_COMPUTED,NARROW_INT,0.6366,119.0510,23.6786,0.0000,0.4115,0.7611,"999",33,29,29,11,3,01,3,73*55036858
$GNGGA,062753.40,3039.10493517,N,12047.27587653,E,4,29,0.7,4.1255,M,9.8158,M,10,0*7B
$GNRMC,062753.40,A,3039.10493517,N,12047.27587653,E,0.064,329.2,170120,5.8,W,D*37
#HEADINGA,COM2,0,60.0,FINE,2088,455291.400,1353785,16,18;SOL_COMPUTED,NARROW_INT,0.6404,119.0059,24.1083,0.0000,0.4103,0.7535,"999",33,29,29,11,3,01,3,73*d9b03f2a
$GNGGA,062753.50,3039.10493526,N,12047.27587792,E,4,29,0.7,4.1306,M,9.8158,M,10,0*73
$GNRMC,062753.50,A,3039.10493526,N,12047.27587792,E,0.043,85.7,170120,5.8,W,D*0D
#HEADINGA,COM2,0,60.0,FINE,2088,455291.500,1353885,19,18;SOL_COMPUTED,NARROW_INT,0.6430,119.1320,24.2456,0.0000,0.4095,0.7494,"999",33,29,29,11,3,01,3,73*95e635da
$GNGGA,062753.60,3039.10493340,N,12047.27587880,E,4,29,0.7,4.1368,M,9.8158,M,10,0*72
$GNRMC,062753.60,A,3039.10493340,N,12047.27587880,E,0.072,157.8,170120,5.8,W,D*37
#HEADINGA,COM2,0,60.0,FINE,2088,455291.600,1353985,15,18;SOL_COMPUTED,NARROW_INT,0.6398,118.9257,23.9240,0.0000,0.4099,0.7555,"999",33,29,29,11,3,01,3,73*1c14fea0
$GNGGA,062753.70,3039.10493455,N,12047.27588015,E,4,29,0.7,4.1364,M,9.8158,M,10,0*77
$GNRMC,062753.70,A,3039.10493455,N,12047.27588015,E,0.059,45.1,170120,5.8,W,D*0C
#HEADINGA,COM2,0,60.0,FINE,2088,455291.700,1354085,15,18;SOL_COMPUTED,NARROW_INT,0.6397,119.1911,24.0871,0.0000,0.4111,0.7543,"999",33,29,29,11,3,01,3,73*8c071cbe
$GNGGA,062753.80,3039.10493397,N,12047.27587657,E,4,29,0.7,4.1317,M,9.8158,M,10,0*7A
$GNRMC,062753.80,A,3039.10493397,N,12047.27587657,E,0.113,259.3,170120,5.8,W,D*37
#HEADINGA,COM2,0,60.0,FINE,2088,455291.800,1354185,15,18;SOL_COMPUTED,NARROW_INT,0.6419,119.0802,23.9970,0.0000,0.4092,0.7515,"999",33,29,29,11,3,01,3,73*bf9b8edb
$GNGGA,062753.90,3039.10493422,N,12047.27587890,E,4,29,0.7,4.1373,M,9.8158,M,10,0*75
$GNRMC,062753.90,A,3039.10493422,N,12047.27587890,E,0.073,82.8,170120,5.8,W,D*02
#HEADINGA,COM2,0,60.0,FINE,2088,455291.900,1354284,16,18;SOL_COMPUTED,NARROW_INT,0.6406,118.9086,24.0739,0.0000,0.4096,0.7526,"999",33,29,29,11,3,01,3,73*f305c98e
#REFSTATIONA,COM2,0,60.0,FINE,2088,455277.000,1353586,803,18;00000000,-2811044.342,4717820.352,3232735.546,0,RTCMV3,"0000"*3f2bc595
$GNGGA,062754.00,3039.10493352,N,12047.27587807,E,4,29,0.7,4.1368,M,9.8158,M,11,0*7E
$GNRMC,062754.00,A,3039.10493352,N,12047.27587807,E,0.036,225.7,170120,5.8,W,D*33
#HEADINGA,COM2,0,60.0,FINE,2088,455292.000,1354385,22,18;SOL_COMPUTED,NARROW_INT,0.6377,118.8429,23.5037,0.0000,0.4095,0.7611,"999",33,29,29,11,3,01,3,73*f14353a9
$GNGGA,062754.10,3039.10493318,N,12047.27587989,E,4,29,0.7,4.1417,M,9.8158,M,11,0*79
$GNRMC,062754.10,A,3039.10493318,N,12047.27587989,E,0.058,102.0,170120,5.8,W,D*32
#HEADINGA,COM2,0,60.0,FINE,2088,455292.100,1354485,17,18;SOL_COMPUTED,NARROW_INT,0.6352,118.7447,23.2799,0.0000,0.4097,0.7655,"999",33,29,29,11,3,01,3,73*0e15e21b
$GNGGA,062754.20,3039.10493371,N,12047.27587790,E,4,29,0.7,4.1309,M,9.8158,M,11,0*7B
$GNRMC,062754.20,A,3039.10493371,N,12047.27587790,E,0.065,286.9,170120,5.8,W,D*30
#HEADINGA,COM2,0,60.0,FINE,2088,455292.200,1354586,17,18;SOL_COMPUTED,NARROW_INT,0.6412,118.9694,23.8901,0.0000,0.4085,0.7542,"999",33,29,29,11,3,01,3,73*8477b817
$GNGGA,062754.30,3039.10493394,N,12047.27587957,E,4,29,0.7,4.1385,M,9.8158,M,11,0*70
$GNRMC,062754.30,A,3039.10493394,N,12047.27587957,E,0.053,80.9,170120,5.8,W,D*0E
#HEADINGA,COM2,0,57.0,FINE,2088,455292.300,1354686,16,18;SOL_COMPUTED,NARROW_INT,0.6325,118.9040,23.2945,0.0000,0.4121,0.7690,"999",33,29,29,11,3,01,3,73*fd0bfc60
$GNGGA,062754.40,3039.10493588,N,12047.27587686,E,4,29,0.7,4.1337,M,9.8158,M,11,0*76
$GNRMC,062754.40,A,3039.10493588,N,12047.27587686,E,0.109,309.6,170120,5.8,W,D*32
#HEADINGA,COM2,0,57.0,FINE,2088,455292.400,1354785,17,18;SOL_COMPUTED,NARROW_INT,0.6389,119.0360,23.3679,0.0000,0.4086,0.7607,"999",33,29,29,11,3,01,3,73*4b8e710c
$GNGGA,062754.50,3039.10493349,N,12047.27587748,E,4,29,0.7,4.1396,M,9.8158,M,11,0*74
$GNRMC,062754.50,A,3039.10493349,N,12047.27587748,E,0.088,167.4,170120,5.8,W,D*3B
#HEADINGA,COM2,0,57.0,FINE,2088,455292.500,1354885,19,18;SOL_COMPUTED,NARROW_INT,0.6353,118.7798,23.3099,0.0000,0.4099,0.7656,"999",33,29,29,11,3,01,3,73*88c69b34
$GNGGA,062754.60,3039.10493446,N,12047.27587667,E,4,29,0.7,4.1376,M,9.8158,M,11,0*7D
$GNRMC,062754.60,A,3039.10493446,N,12047.27587667,E,0.043,324.2,170120,5.8,W,D*38
#HEADINGA,COM2,0,57.0,FINE,2088,455292.600,1354985,16,18;SOL_COMPUTED,NARROW_INT,0.6394,119.1018,23.7138,0.0000,0.4095,0.7576,"999",33,29,29,11,3,01,3,73*29c56391
$GNGGA,062754.70,3039.10493377,N,12047.27587774,E,4,29,0.7,4.1401,M,9.8158,M,11,0*7D
$GNRMC,062754.70,A,3039.10493377,N,12047.27587774,E,0.041,126.6,170120,5.8,W,D*39
#HEADINGA,COM2,0,57.0,FINE,2088,455292.700,1355085,15,18;SOL_COMPUTED,NARROW_INT,0.6373,118.9667,23.3970,0.0000,0.4095,0.7624,"999",33,29,29,11,3,01,3,73*ba6818cd
$GNGGA,062754.80,3039.10493407,N,12047.27587621,E,4,29,0.7,4.1435,M,9.8158,M,11,0*74
$GNRMC,062754.80,A,3039.10493407,N,12047.27587621,E,0.049,282.7,170120,5.8,W,D*33
#HEADINGA,COM2,0,57.0,FINE,2088,455292.800,1355184,16,18;SOL_COMPUTED,NARROW_INT,0.6390,119.0346,23.1806,0.0000,0.4079,0.7618,"999",33,29,29,11,3,01,3,73*39f36f06
$GNGGA,062754.90,3039.10493431,N,12047.27587484,E,4,29,0.7,4.1313,M,9.8158,M,11,0*7E
$GNRMC,062754.90,A,3039.10493431,N,12047.27587484,E,0.043,281.4,170120,5.8,W,D*30
#HEADINGA,COM2,0,57.0,FINE,2088,455292.900,1355285,15,18;SOL_COMPUTED,NARROW_INT,0.6420,118.9880,23.9515,0.0000,0.4083,0.7529,"999",33,29,29,11,3,01,3,73*7f9bcd93
#REFSTATIONA,COM2,0,60.0,FINE,2088,455277.000,1353586,1803,18;00000000,-2811044.342,4717820.352,3232735.546,0,RTCMV3,"0000"*0ff92d78
$GNGGA,062755.00,3039.10493393,N,12047.27587604,E,4,29,0.7,4.1305,M,9.8158,M,12,0*77
$GNRMC,062755.00,A,3039.10493393,N,12047.27587604,E,0.040,110.3,170120,5.8,W,D*32
#HEADINGA,COM2,0,57.0,FINE,2088,455293.000,1355385,22,18;SOL_COMPUTED,NARROW_INT,0.6369,119.1106,23.4298,0.0000,0.4102,0.7625,"999",33,29,29,11,3,01,3,73*b4c2fc42
$GNGGA,062755.10,3039.10493556,N,12047.27587350,E,4,29,0.7,4.1283,M,9.8158,M,12,0*72
$GNRMC,062755.10,A,3039.10493556,N,12047.27587350,E,0.098,306.7,170120,5.8,W,D*3C
#HEADINGA,COM2,0,57.0,FINE,2088,455293.100,1355485,17,18;SOL_COMPUTED,NARROW_INT,0.6429,119.1427,23.7035,0.0000,0.4074,0.7535,"999",33,29,29,11,3,01,3,73*f8ee75af
$GNGGA,062755.20,3039.10493266,N,12047.27587433,E,4,29,0.7,4.1270,M,9.8158,M,12,0*7B
$GNRMC,062755.20,A,3039.10493266,N,12047.27587433,E,0.108,166.1,170120,5.8,W,D*33
#HEADINGA,COM2,0,57.0,FINE,2088,455293.200,1355586,17,18;SOL_COMPUTED,NARROW_INT,0.6411,118.7971,23.9248,0.0000,0.4080,0.7534,"999",33,29,29,11,3,01,3,73*a6165d64
$GNGGA,062755.30,3039.10493485,N,12047.27587651,E,4,29,0.7,4.1372,M,9.8158,M,12,0*74
$GNRMC,062755.30,A,3039.10493485,N,12047.27587651,E,0.104,40.7,170120,5.8,W,D*00
#HEADINGA,COM2,0,57.0,FINE,2088,455293.300,1355685,17,18;SOL_COMPUTED,NARROW_INT,0.6383,119.1255,23.3747,0.0000,0.4095,0.7607,"999",33,29,29,11,3,01,3,73*47608b10
$GNGGA,062755.40,3039.10493329,N,12047.27587843,E,4,29,0.7,4.1405,M,9.8158,M,12,0*78
$GNRMC,062755.40,A,3039.10493329,N,12047.27587843,E,0.082,133.1,170120,5.8,W,D*37
#HEADINGA,COM2,0,57.0,FINE,2088,455293.400,1355785,16,18;SOL_COMPUTED,NARROW_INT,0.6357,118.8864,23.3530,0.0000,0.4104,0.7643,"999",33,29,29,11,3,01,3,73*dfc5e1ea
$GNGGA,062755.50,3039.10493276,N,12047.27587802,E,4,29,0.7,4.1391,M,9.8158,M,12,0*7D
$GNRMC,062755.50,A,3039.10493276,N,12047.27587802,E,0.023,214.0,170120,5.8,W,D*34
#HEADINGA,COM2,0,57.0,FINE,2088,455293.500,1355885,19,18;SOL_COMPUTED,NARROW_INT,0.6335,119.1539,23.2435,0.0000,0.4123,0.7675,"999",33,29,29,11,3,01,3,73*04204540
$GNGGA,062755.60,3039.10493330,N,12047.27587451,E,4,29,0.7,4.1310,M,9.8158,M,12,0*7E
$GNRMC,062755.60,A,3039.10493330,N,12047.27587451,E,0.111,280.0,170120,5.8,W,D*33
#HEADINGA,COM2,0,57.0,FINE,2088,455293.600,1355985,16,18;SOL_COMPUTED,NARROW_INT,0.6409,118.9204,23.7572,0.0000,0.4084,0.7550,"999",33,29,29,11,3,01,3,73*65a33cb2
$GNGGA,062755.70,3039.10493304,N,12047.27587524,E,4,29,0.7,4.1355,M,9.8158,M,12,0*7A
$GNRMC,062755.70,A,3039.10493304,N,12047.27587524,E,0.025,111.8,170120,5.8,W,D*33
#HEADINGA,COM2,0,57.0,FINE,2088,455293.700,1356085,16,18;SOL_COMPUTED,NARROW_INT,0.6399,118.7890,23.6466,0.0000,0.4083,0.7570,"999",33,29,29,11,3,01,3,73*eec7e54a
$GNGGA,062755.80,3039.10493359,N,12047.27587839,E,4,29,0.7,4.1381,M,9.8158,M,12,0*75
$GNRMC,062755.80,A,3039.10493359,N,12047.27587839,E,0.100,78.5,170120,5.8,W,D*00
#HEADINGA,COM2,0,57.0,FINE,2088,455293.800,1356185,15,18;SOL_COMPUTED,NARROW_INT,0.6395,118.9641,23.7626,0.0000,0.4094,0.7566,"999",33,29,29,11,3,01,3,73*87092361
$GNGGA,062755.90,3039.10493357,N,12047.27587652,E,4,29,0.7,4.1356,M,9.8158,M,12,0*73
$GNRMC,062755.90,A,3039.10493357,N,12047.27587652,E,0.058,269.2,170120,5.8,W,D*35
#HEADINGA,COM2,0,57.0,FINE,2088,455293.900,1356285,16,18;SOL_COMPUTED,NARROW_INT,0.6414,119.2549,23.9534,0.0000,0.4098,0.7529,"999",33,29,29,11,3,01,3,73*9ece7505
#REFSTATIONA,COM2,0,60.0,FINE,2088,455277.000,1353586,2803,18;00000000,-2811044.342,4717820.352,3232735.546,0,RTCMV3,"0000"*ab87afbd
$GNGGA,062756.00,3039.10493336,N,12047.27587846,E,4,29,0.7,4.1422,M,9.8158,M,13,0*70
$GNRMC,062756.00,A,3039.10493336,N,12047.27587846,E,0.060,97.2,170120,5.8,W,D*0B
#HEADINGA,COM2,0,57.0,FINE,2088,455294.000,1356385,21,18;SOL_COMPUTED,NARROW_INT,0.6370,119.0781,23.4015,0.0000,0.4103,0.7621,"999",33,29,29,11,3,01,3,73*e34507bf
$GNGGA,062756.10,3039.10493261,N,12047.27587814,E,4,29,0.7,4.1388,M,9.8158,M,13,0*72
$GNRMC,062756.10,A,3039.10493261,N,12047.27587814,E,0.029,199.9,170120,5.8,W,D*37
#HEADINGA,COM2,0,57.0,FINE,2088,455294.100,1356485,17,18;SOL_COMPUTED,NARROW_INT,0.6354,118.8993,23.4821,0.0000,0.4107,0.7633,"999",33,29,29,11,3,01,3,73*12b582c9
$GNGGA,062756.20,3039.10493283,N,12047.27587593,E,4,29,0.7,4.1298,M,9.8158,M,13,0*7F
$GNRMC,062756.20,A,3039.10493283,N,12047.27587593,E,0.069,276.4,170120,5.8,W,D*31
#HEADINGA,COM2,0,57.0,FINE,2088,455294.200,1356586,17,18;SOL_COMPUTED,NARROW_INT,0.6436,119.1097,24.1858,0.0000,0.4083,0.7484,"999",33,29,29,11,3,01,3,73*775813b8
$GNGGA,062756.30,3039.10493238,N,12047.27587838,E,4,29,0.7,4.1385,M,9.8158,M,12,0*7E
$GNRMC,062756.30,A,3039.10493238,N,12047.27587838,E,0.078,101.9,170120,5.8,W,D*32
#HEADINGA,COM2,0,57.0,FINE,2088,455294.300,1356685,17,18;SOL_COMPUTED,NARROW_INT,0.6374,119.0433,23.7440,0.0000,0.4110,0.7593,"999",33,29,29,11,3,01,3,73*898ab251
$GNGGA,062756.40,3039.10493384,N,12047.27587586,E,4,29,0.7,4.1357,M,9.8158,M,12,0*78
$GNRMC,062756.40,A,3039.10493384,N,12047.27587586,E,0.094,303.9,170120,5.8,W,D*39
#HEADINGA,COM2,0,57.0,FINE,2088,455294.400,1356785,16,18;SOL_COMPUTED,NARROW_INT,0.6435,118.9262,24.0450,0.0000,0.4076,0.7498,"999",33,29,29,11,3,01,3,73*db6f1185
$GNGGA,062756.50,3039.10493171,N,12047.27587261,E,4,29,0.7,4.1260,M,9.8158,M,12,0*7A
$GNRMC,062756.50,A,3039.10493171,N,12047.27587261,E,0.127,232.8,170120,5.8,W,D*35
#HEADINGA,COM2,0,57.0,FINE,2088,455294.500,1356885,19,18;SOL_COMPUTED,NARROW_INT,0.6403,119.0313,23.7318,0.0000,0.4091,0.7566,"999",33,29,29,11,3,01,3,73*cce6502d
$GNGGA,062756.60,3039.10493209,N,12047.27587445,E,4,29,0.7,4.1370,M,9.8158,M,12,0*75
$GNRMC,062756.60,A,3039.10493209,N,12047.27587445,E,0.059,76.3,170120,5.8,W,D*0B
#HEADINGA,COM2,0,57.0,FINE,2088,455294.600,1356984,16,18;SOL_COMPUTED,NARROW_INT,0.6376,118.9350,23.2912,0.0000,0.4091,0.7623,"999",33,29,29,11,3,01,3,73*acc16923
$GNGGA,062756.70,3039.10493224,N,12047.27587396,E,4,29,0.7,4.1270,M,9.8158,M,12,0*73
$GNRMC,062756.70,A,3039.10493224,N,12047.27587396,E,0.016,288.3,170120,5.8,W,D*34
#HEADINGA,COM2,0,57.0,FINE,2088,455294.700,1357085,15,18;SOL_COMPUTED,NARROW_INT,0.6425,118.8152,23.9879,0.0000,0.4077,0.7515,"999",33,29,29,11,3,01,3,73*a4fb317b
$GNGGA,062756.80,3039.10493181,N,12047.27587441,E,4,29,0.7,4.1309,M,9.8158,M,12,0*72
$GNRMC,062756.80,A,3039.10493181,N,12047.27587441,E,0.021,137.2,170120,5.8,W,D*38
#HEADINGA,COM2,0,57.0,FINE,2088,455294.800,1357185,15,18;SOL_COMPUTED,NARROW_INT,0.6375,119.0926,23.6520,0.0000,0.4104,0.7595,"999",33,29,29,11,3,01,3,73*43eb4ded
$GNGGA,062756.90,3039.10493169,N,12047.27587701,E,4,29,0.7,4.1380,M,9.8158,M,12,0*73
$GNRMC,062756.90,A,3039.10493169,N,12047.27587701,E,0.081,93.1,170120,5.8,W,D*0E
#HEADINGA,COM2,0,57.0,FINE,2088,455294.900,1357285,15,18;SOL_COMPUTED,NARROW_INT,0.6373,118.9258,23.5390,0.0000,0.4100,0.7606,"999",33,29,29,11,3,01,3,73*7bf5bdb0
#REFSTATIONA,COM2,0,57.0,FINE,2088,455277.000,1356586,803,18;00000000,-2811044.342,4717820.352,3232735.546,0,RTCMV3,"0000"*bfee9588
$GNGGA,062757.00,3039.10493319,N,12047.27587612,E,4,29,0.7,4.1299,M,9.8158,M,13,0*75
$GNRMC,062757.00,A,3039.10493319,N,12047.27587612,E,0.060,332.8,170120,5.8,W,D*3E
#HEADINGA,COM2,0,57.0,FINE,2088,455295.000,1357385,21,18;SOL_COMPUTED,NARROW_INT,0.6436,119.0952,24.1446,0.0000,0.4081,0.7485,"999",33,29,29,11,3,01,3,73*561757cd
$GNGGA,062757.10,3039.10493243,N,12047.27587577,E,4,29,0.7,4.1366,M,9.8158,M,13,0*7B
$GNRMC,062757.10,A,3039.10493243,N,12047.27587577,E,0.029,201.8,170120,5.8,W,D*3D
#HEADINGA,COM2,0,57.0,FINE,2088,455295.100,1357485,17,18;SOL_COMPUTED,NARROW_INT,0.6376,119.0831,23.5438,0.0000,0.4100,0.7600,"999",33,29,29,11,3,01,3,73*d46651e6
$GNGGA,062757.20,3039.10493253,N,12047.27587396,E,4,29,0.7,4.1296,M,9.8158,M,13,0*7E
$GNRMC,062757.20,A,3039.10493253,N,12047.27587396,E,0.056,273.4,170120,5.8,W,D*37
#HEADINGA,COM2,0,57.0,FINE,2088,455295.200,1357586,18,18;SOL_COMPUTED,NARROW_INT,0.6373,118.8979,23.5253,0.0000,0.4098,0.7607,"999",33,29,29,11,3,01,3,73*527a5b01
$GNGGA,062757.30,3039.10493156,N,12047.27587398,E,4,29,0.7,4.1308,M,9.8158,M,12,0*70
$GNRMC,062757.30,A,3039.10493156,N,12047.27587398,E,0.035,179.2,170120,5.8,W,D*34
#HEADINGA,COM2,0,57.0,FINE,2088,455295.300,1357685,17,18;SOL_COMPUTED,NARROW_INT,0.6381,118.9455,23.6089,0.0000,0.4098,0.7585,"999",33,29,29,11,3,01,3,73*510ccb6b
$GNGGA,062757.40,3039.10493024,N,12047.27587612,E,4,29,0.7,4.1423,M,9.8158,M,12,0*7A
$GNRMC,062757.40,A,3039.10493024,N,12047.27587612,E,0.082,125.6,170120,5.8,W,D*31
#HEADINGA,COM2,0,57.0,FINE,2088,455295.400,1357785,17,18;SOL_COMPUTED,NARROW_INT,0.6343,119.0046,23.2491,0.0000,0.4113,0.7655,"999",33,29,29,11,3,01,3,73*00ea90ef
$GNGGA,062757.50,3039.10493076,N,12047.27587835,E,4,29,0.7,4.1443,M,9.8158,M,12,0*71
$GNRMC,062757.50,A,3039.10493076,N,12047.27587835,E,0.072,74.8,170120,5.8,W,D*08
#HEADINGA,COM2,0,57.0,FINE,2088,455295.500,1357885,19,18;SOL_COMPUTED,NARROW_INT,0.6373,118.8914,23.6824,0.0000,0.4103,0.7588,"999",33,29,29,11,3,01,3,73*34cb8e38
$GNGGA,062757.60,3039.10493170,N,12047.27587718,E,4,29,0.7,4.1409,M,9.8158,M,12,0*7B
$GNRMC,062757.60,A,3039.10493170,N,12047.27587718,E,0.050,313.1,170120,5.8,W,D*37
#HEADINGA,COM2,0,57.0,FINE,2088,455295.600,1357985,16,18;SOL_COMPUTED,NARROW_INT,0.6387,118.9109,23.5336,0.0000,0.4091,0.7579,"999",33,29,29,11,3,01,3,73*31e2fa3d
$GNGGA,062757.70,3039.10493060,N,12047.27587879,E,4,29,0.7,4.1447,M,9.8158,M,12,0*78
$GNRMC,062757.70,A,3039.10493060,N,12047.27587879,E,0.064,128.2,170120,5.8,W,D*30
#HEADINGA,COM2,0,57.0,FINE,2088,455295.700,1358085,16,18;SOL_COMPUTED,NARROW_INT,0.6308,118.6317,23.2867,0.0000,0.4125,0.7700,"999",33,29,29,11,3,01,3,73*8ea8e8d2
$GNGGA,062757.80,3039.10492996,N,12047.27587804,E,4,29,0.7,4.1400,M,9.8158,M,12,0*7F
$GNRMC,062757.80,A,3039.10492996,N,12047.27587804,E,0.033,225.0,170120,5.8,W,D*3A
#HEADINGA,COM2,0,57.0,FINE,2088,455295.800,1358185,16,18;SOL_COMPUTED,NARROW_INT,0.6375,118.7703,23.8066,0.0000,0.4103,0.7581,"999",33,29,29,11,3,01,3,73*7013389e
$GNGGA,062757.90,3039.10493141,N,12047.27587863,E,4,29,0.7,4.1377,M,9.8158,M,12,0*7B
$GNRMC,062757.90,A,3039.10493141,N,12047.27587863,E,0.055,19.2,170120,5.8,W,D*06
#HEADINGA,COM2,0,57.0,FINE,2088,455295.900,1358285,15,18;SOL_COMPUTED,NARROW_INT,0.6326,118.9385,23.4981,0.0000,0.4130,0.7661,"999",33,29,29,11,3,01,3,73*4bb4fbb6
#REFSTATIONA,COM2,0,57.0,FINE,2088,455277.000,1357586,804,18;00000000,-2811044.342,4717820.352,3232735.546,0,RTCMV3,"0000"*6ecf8c9a
$GNGGA,062758.00,3039.10493144,N,12047.27587918,E,4,29,0.7,4.1413,M,9.8158,M,13,0*71
$GNRMC,062758.00,A,3039.10493144,N,12047.27587918,E,0.017,86.8,170120,5.8,W,D*02
#HEADINGA,COM2,0,57.0,FINE,2088,455296.000,1358385,22,18;SOL_COMPUTED,NARROW_INT,0.6335,118.9730,23.3222,0.0000,0.4121,0.7672,"999",33,29,29,11,3,01,3,73*c45e7bed
$GNGGA,062758.10,3039.10493161,N,12047.27587708,E,4,29,0.7,4.1411,M,9.8158,M,13,0*7A
$GNRMC,062758.10,A,3039.10493161,N,12047.27587708,E,0.065,275.4,170120,5.8,W,D*3C
#HEADINGA,COM2,0,57.0,FINE,2088,455296.100,1358485,17,18;SOL_COMPUTED,NARROW_INT,0.6431,118.7418,23.9019,0.0000,0.4069,0.7516,"999",33,29,29,11,3,01,3,73*0eab3280
$GNGGA,062758.20,3039.10493129,N,12047.27587914,E,4,29,0.7,4.1400,M,9.8158,M,13,0*76
$GNRMC,062758.20,A,3039.10493129,N,12047.27587914,E,0.065,100.2,170120,5.8,W,D*37
#HEADINGA,COM2,0,57.0,FINE,2088,455296.200,1358586,18,18;SOL_COMPUTED,NARROW_INT,0.6407,118.8395,23.9062,0.0000,0.4089,0.7550,"999",33,29,29,11,3,01,3,73*448a9093
$GNGGA,062758.30,3039.10492795,N,12047.27587910,E,4,29,0.7,4.1429,M,9.8158,M,12,0*79
$GNRMC,062758.30,A,3039.10492795,N,12047.27587910,E,0.120,180.7,170120,5.8,W,D*3F
#HEADINGA,COM2,0,57.0,FINE,2088,455296.300,1358685,17,18;SOL_COMPUTED,NARROW_INT,0.6301,118.5952,23.2543,0.0000,0.4130,0.7734,"999",33,29,29,11,3,01,3,73*e80af397
$GNGGA,062758.40,3039.10492918,N,12047.27587761,E,4,29,0.7,4.1414,M,9.8158,M,12,0*73
$GNRMC,062758.40,A,3039.10492918,N,12047.27587761,E,0.064,313.6,170120,5.8,W,D*33
#HEADINGA,COM2,0,57.0,FINE,2088,455296.400,1358785,17,18;SOL_COMPUTED,NARROW_INT,0.6359,118.9308,23.3273,0.0000,0.4104,0.7650,"999",33,29,29,11,3,01,3,73*4e550270
$GNGGA,062758.50,3039.10493200,N,12047.27587636,E,4,29,0.7,4.1350,M,9.8158,M,12,0*75
$GNRMC,062758.50,A,3039.10493200,N,12047.27587636,E,0.108,339.1,170120,5.8,W,D*36
#HEADINGA,COM2,0,57.0,FINE,2088,455296.500,1358885,19,18;SOL_COMPUTED,NARROW_INT,0.6445,119.1253,23.9207,0.0000,0.4074,0.7504,"999",33,29,29,11,3,01,3,73*a6b107d1
$GNGGA,062758.60,3039.10492831,N,12047.27587517,E,4,29,0.7,4.1273,M,9.8158,M,12,0*7F
$GNRMC,062758.60,A,3039.10492831,N,12047.27587517,E,0.137,195.6,170120,5.8,W,D*33
#HEADINGA,COM2,0,57.0,FINE,2088,455296.600,1358985,16,18;SOL_COMPUTED,NARROW_INT,0.6424,118.8177,24.0478,0.0000,0.4082,0.7529,"999",33,29,29,11,3,01,3,73*4ba64e5b
$GNGGA,062758.70,3039.10493117,N,12047.27587732,E,4,29,0.7,4.1388,M,9.8158,M,12,0*72
$GNRMC,062758.70,A,3039.10493117,N,12047.27587732,E,0.122,33.1,170120,5.8,W,D*05
#HEADINGA,COM2,0,57.0,FINE,2088,455296.700,1359085,16,18;SOL_COMPUTED,NARROW_INT,0.6368,118.8809,23.5194,0.0000,0.4102,0.7618,"999",33,29,29,11,3,01,3,73*1099c531
$GNGGA,062758.80,3039.10492983,N,12047.27587898,E,4,29,0.7,4.1398,M,9.8158,M,12,0*77
$GNRMC,062758.80,A,3039.10492983,N,12047.27587898,E,0.070,133.0,170120,5.8,W,D*37
#HEADINGA,COM2,0,57.0,FINE,2088,455296.800,1359185,16,18;SOL_COMPUTED,NARROW_INT,0.6363,118.9501,23.4793,0.0000,0.4107,0.7635,"999",33,29,29,11,3,01,3,73*3f1a39bc
$GNGGA,062758.90,3039.10492828,N,12047.27587649,E,4,29,0.7,4.1365,M,9.8158,M,12,0*76
$GNRMC,062758.90,A,3039.10492828,N,12047.27587649,E,0.095,234.3,170120,5.8,W,D*38
#HEADINGA,COM2,0,57.0,FINE,2088,455296.900,1359285,16,18;SOL_COMPUTED,NARROW_INT,0.6363,118.5691,23.3444,0.0000,0.4091,0.7647,"999",33,29,29,11,3,01,3,73*5eca7982
#REFSTATIONA,COM2,0,57.0,FINE,2088,455277.000,1358586,803,18;00000000,-2811044.342,4717820.352,3232735.546,0,RTCMV3,"0000"*3172ae1b
$GNGGA,062759.00,3039.10492786,N,12047.27587580,E,4,29,0.7,4.1263,M,9.8158,M,13,0*75
$GNRMC,062759.00,A,3039.10492786,N,12047.27587580,E,0.026,234.5,170120,5.8,W,D*33
#HEADINGA,COM2,0,57.0,FINE,2088,455297.000,1359385,21,18;SOL_COMPUTED,NARROW_INT,0.6380,119.0537,23.8321,0.0000,0.4110,0.7589,"999",33,29,29,11,3,01,3,73*9d73af29
$GNGGA,062759.10,3039.10492851,N,12047.27587684,E,4,29,0.7,4.1328,M,9.8158,M,13,0*78
$GNRMC,062759.10,A,3039.10492851,N,12047.27587684,E,0.040,53.9,170120,5.8,W,D*0F
#HEADINGA,COM2,0,57.0,FINE,2088,455297.100,1359485,17,18;SOL_COMPUTED,NARROW_INT,0.6330,118.8943,23.1864,0.0000,0.4117,0.7696,"999",33,29,29,11,3,01,3,73*bf050d92
$GNGGA,062759.20,3039.10492966,N,12047.27587691,E,4,29,0.7,4.1340,M,9.8158,M,13,0*74
$GNRMC,062759.20,A,3039.10492966,N,12047.27587691,E,0.041,3.1,170120,5.8,W,D*31
#HEADINGA,COM2,0,57.0,FINE,2088,455297.200,1359586,18,18;SOL_COMPUTED,NARROW_INT,0.6387,118.7686,23.7654,0.0000,0.4095,0.7590,"999",33,29,29,11,3,01,3,73*d1b06262
$GNGGA,062759.30,3039.10492875,N,12047.27587842,E,4,29,0.7,4.1293,M,9.8158,M,11,0*7B
$GNRMC,062759.30,A,3039.10492875,N,12047.27587842,E,0.057,124.9,170120,5.8,W,D*38
#HEADINGA,COM2,0,57.0,FINE,2088,455297.300,1359686,16,18;SOL_COMPUTED,NARROW_INT,0.6343,118.8555,23.3629,0.0000,0.4113,0.7670,"999",33,29,29,11,3,01,3,73*cb084445
$GNGGA,062759.40,3039.10492952,N,12047.27587453,E,4,29,0.7,4.1312,M,9.8158,M,11,0*7C
$GNRMC,062759.40,A,3039.10492952,N,12047.27587453,E,0.124,282.9,170120,5.8,W,D*3D
#HEADINGA,COM2,0,57.0,FINE,2088,455297.400,1359785,17,18;SOL_COMPUTED,NARROW_INT,0.6423,118.9090,23.7742,0.0000,0.4076,0.7546,"999",33,29,29,11,3,01,3,73*37ba14f1
$GNGGA,062759.50,3039.10493150,N,12047.27588184,E,4,29,0.7,4.1386,M,9.8158,M,11,0*7B
$GNRMC,062759.50,A,3039.10493150,N,12047.27588184,E,0.238,72.6,170120,5.8,W,D*0B
#HEADINGA,COM2,0,57.0,FINE,2088,455297.500,1359885,19,18;SOL_COMPUTED,NARROW_INT,0.6353,119.3227,23.8516,0.0000,0.4137,0.7621,"999",33,29,29,11,3,01,3,73*bbfb5855
$GNGGA,062759.60,3039.10493341,N,12047.27587962,E,4,29,0.7,4.1367,M,9.8158,M,11,0*7A
$GNRMC,062759.60,A,3039.10493341,N,12047.27587962,E,0.097,314.7,170120,5.8,W,D*30
#HEADINGA,COM2,0,57.0,FINE,2088,455297.600,1359985,16,18;SOL_COMPUTED,NARROW_INT,0.6388,118.9628,23.8659,0.0000,0.4103,0.7580,"999",33,29,29,11,3,01,3,73*6e3b7f23
$GNGGA,062759.70,3039.10493140,N,12047.27587875,E,4,29,0.7,4.1380,M,9.8158,M,11,0*76
$GNRMC,062759.70,A,3039.10493140,N,12047.27587875,E,0.077,200.5,170120,5.8,W,D*3D
#HEADINGA,COM2,0,57.0,FINE,2088,455297.700,1360085,16,18;SOL_COMPUTED,NARROW_INT,0.6353,118.6844,23.5357,0.0000,0.4105,0.7647,"999",33,29,29,11,3,01,3,73*892e880c
$GNGGA,062759.80,3039.10493105,N,12047.27588047,E,4,29,0.7,4.1460,M,9.8158,M,11,0*77
$GNRMC,062759.80,A,3039.10493105,N,12047.27588047,E,0.055,103.2,170120,5.8,W,D*32
#HEADINGA,COM2,0,57.0,FINE,2088,455297.800,1360185,15,18;SOL_COMPUTED,NARROW_INT,0.6332,118.9775,23.0320,0.0000,0.4113,0.7707,"999",33,29,29,11,3,01,3,73*7d7d45c1
$GNGGA,062759.90,3039.10493137,N,12047.27587882,E,4,29,0.7,4.1448,M,9.8158,M,11,0*73
$GNRMC,062759.90,A,3039.10493137,N,12047.27587882,E,0.053,282.6,170120,5.8,W,D*34
#HEADINGA,COM2,0,57.0,FINE,2088,455297.900,1360285,16,18;SOL_COMPUTED,NARROW_INT,0.6360,118.9083,23.0621,0.0000,0.4094,0.7661,"999",33,29,29,11,3,01,3,73*fe7aa69f
#REFSTATIONA,COM2,0,57.0,FINE,2088,455277.000,1359586,803,18;00000000,-2811044.342,4717820.352,3232735.546,0,RTCMV3,"0000"*c6bef215
$GNGGA,062800.00,3039.10493232,N,12047.27587992,E,4,29,0.7,4.1391,M,9.8158,M,12,0*7F
$GNRMC,062800.00,A,3039.10493232,N,12047.27587992,E,0.048,45.2,170120,5.8,W,D*0F
#HEADINGA,COM2,0,57.0,FINE,2088,455298.000,1360385,21,18;SOL_COMPUTED,NARROW_INT,0.6366,118.9278,23.6405,0.0000,0.4109,0.7623,"999",33,29,29,11,3,01,3,73*ad356dee
$GNGGA,062800.10,3039.10493205,N,12047.27587819,E,4,29,0.7,4.1369,M,9.8158,M,12,0*7F
$GNRMC,062800.10,A,3039.10493205,N,12047.27587819,E,0.055,259.5,170120,5.8,W,D*3C
#HEADINGA,COM2,0,57.0,FINE,2088,455298.100,1360485,17,18;SOL_COMPUTED,NARROW_INT,0.6412,119.1065,23.8062,0.0000,0.4090,0.7547,"999",33,29,29,11,3,01,3,73*788e7e04
$GNGGA,062800.20,3039.10493270,N,12047.27587714,E,4,29,0.7,4.1293,M,9.8158,M,12,0*78
$GNRMC,062800.20,A,3039.10493270,N,12047.27587714,E,0.040,305.6,170120,5.8,W,D*30
#HEADINGA,COM2,0,57.0,FINE,2088,455298.200,1360586,17,18;SOL_COMPUTED,NARROW_INT,0.6452,119.1111,24.4704,0.0000,0.4086,0.7458,"999",33,29,29,11,3,01,3,73*3f29300c
$GNGGA,062800.30,3039.10493169,N,12047.27587883,E,4,29,0.7,4.1334,M,9.8158,M,10,0*7D
$GNRMC,062800.30,A,3039.10493169,N,12047.27587883,E,0.064,124.7,170120,5.8,W,D*3D
#HEADINGA,COM2,0,56.0,FINE,2088,455298.300,1360686,16,18;SOL_COMPUTED,NARROW_INT,0.6378,119.0431,23.6907,0.0000,0.4107,0.7605,"999",33,29,29,11,3,01,3,73*3314b355
$GNGGA,062800.40,3039.10493350,N,12047.27587847,E,4,29,0.7,4.1327,M,9.8158,M,10,0*78
$GNRMC,062800.40,A,3039.10493350,N,12047.27587847,E,0.066,350.2,170120,5.8,W,D*3C
#HEADINGA,COM2,0,56.0,FINE,2088,455298.400,1360786,16,18;SOL_COMPUTED,NARROW_INT,0.6457,118.8850,24.5265,0.0000,0.4078,0.7448,"999",33,29,29,11,3,01,3,73*967eba26
$GNGGA,062800.50,3039.10493247,N,12047.27588001,E,4,29,0.7,4.1443,M,9.8158,M,10,0*7E
$GNRMC,062800.50,A,3039.10493247,N,12047.27588001,E,0.061,127.6,170120,5.8,W,D*3E
#HEADINGA,COM2,0,56.0,FINE,2088,455298.500,1360885,17,18;SOL_COMPUTED,NARROW_INT,0.6402,118.8314,23.8272,0.0000,0.4091,0.7571,"999",33,29,29,11,3,01,3,73*c7a61eb7
$GNGGA,062800.60,3039.10493242,N,12047.27587505,E,4,29,0.7,4.1231,M,9.8158,M,10,0*75
$GNRMC,062800.60,A,3039.10493242,N,12047.27587505,E,0.154,269.3,170120,5.8,W,D*3D
#HEADINGA,COM2,0,56.0,FINE,2088,455298.600,1360985,19,18;SOL_COMPUTED,NARROW_INT,0.6421,118.9541,24.1045,0.0000,0.4092,0.7529,"999",33,29,29,11,3,01,3,73*26139c73
$GNGGA,062800.70,3039.10493294,N,12047.27587669,E,4,28,0.7,4.1187,M,9.8158,M,10,0*79
$GNRMC,062800.70,A,3039.10493294,N,12047.27587669,E,0.054,69.8,170120,5.8,W,D*06
#HEADINGA,COM2,0,56.0,FINE,2088,455298.700,1361085,16,18;SOL_COMPUTED,NARROW_INT,0.6466,119.0496,24.7730,0.0000,0.4089,0.7435,"999",33,29,29,11,3,01,3,73*6845a32a
$GNGGA,062800.80,3039.10493167,N,12047.27587566,E,4,29,0.7,4.1231,M,9.8158,M,10,0*7A
$GNRMC,062800.80,A,3039.10493167,N,12047.27587566,E,0.056,215.3,170120,5.8,W,D*3A
#HEADINGA,COM2,0,56.0,FINE,2088,455298.800,1361185,15,18;SOL_COMPUTED,NARROW_INT,0.6423,118.8877,24.0558,0.0000,0.4087,0.7537,"999",33,29,29,11,3,01,3,73*68c28087
$GNGGA,062800.90,3039.10493216,N,12047.27587846,E,4,29,0.7,4.1353,M,9.8158,M,10,0*74
$GNRMC,062800.90,A,3039.10493216,N,12047.27587846,E,0.089,78.7,170120,5.8,W,D*0E
#HEADINGA,COM2,0,56.0,FINE,2088,455298.900,1361285,16,18;SOL_COMPUTED,NARROW_INT,0.6367,118.7889,23.6936,0.0000,0.4109,0.7631,"999",33,29,29,11,3,01,3,73*53fc6c26
#REFSTATIONA,COM2,0,57.0,FINE,2088,455277.000,1360586,803,18;00000000,-2811044.342,4717820.352,3232735.546,0,RTCMV3,"0000"*107572c3
$GNGGA,062801.00,3039.10493395,N,12047.27587508,E,4,29,0.7,4.1173,M,9.8158,M,11,0*70
$GNRMC,062801.00,A,3039.10493395,N,12047.27587508,E,0.123,301.5,170120,5.8,W,D*35
#HEADINGA,COM2,0,56.0,FINE,2088,455299.000,1361385,22,18;SOL_COMPUTED,NARROW_INT,0.6488,118.9644,24.6556,0.0000,0.4069,0.7420,"999",33,29,29,11,3,01,3,73*ca720143
$GNGGA,062801.10,3039.10493324,N,12047.27587723,E,4,29,0.7,4.1222,M,9.8158,M,11,0*77
$GNRMC,062801.10,A,3039.10493324,N,12047.27587723,E,0.071,110.9,170120,5.8,W,D*3D
#HEADINGA,COM2,0,56.0,FINE,2088,455299.100,1361485,17,18;SOL_COMPUTED,NARROW_INT,0.6399,119.5474,23.9131,0.0000,0.4119,0.7565,"999",33,29,29,11,3,01,3,73*637e04e7
$GNGGA,062801.20,3039.10493142,N,12047.27588129,E,4,29,0.7,4.1512,M,9.8158,M,11,0*71
$GNRMC,062801.20,A,3039.10493142,N,12047.27588129,E,0.142,117.5,170120,5.8,W,D*35
#HEADINGA,COM2,0,56.0,FINE,2088,455299.200,1361586,17,18;SOL_COMPUTED,NARROW_INT,0.6382,119.0855,23.6180,0.0000,0.4106,0.7609,"999",33,29,29,11,3,01,3,73*62d098c6
$GNGGA,062801.30,3039.10492967,N,12047.27587743,E,4,28,0.7,4.1403,M,9.8158,M,11,0*7B
$GNRMC,062801.30,A,3039.10492967,N,12047.27587743,E,0.135,242.4,170120,5.8,W,D*3D
#HEADINGA,COM2,0,56.0,FINE,2088,455299.300,1361686,16,18;SOL_COMPUTED,NARROW_INT,0.6443,119.1360,24.1094,0.0000,0.4082,0.7491,"999",33,29,29,11,3,01,3,73*4db030e6
$GNGGA,062801.40,3039.10493058,N,12047.27587840,E,4,29,0.7,4.1362,M,9.8158,M,11,0*75
$GNRMC,062801.40,A,3039.10493058,N,12047.27587840,E,0.044,43.0,170120,5.8,W,D*02
#HEADINGA,COM2,0,56.0,FINE,2088,455299.400,1361786,16,18;SOL_COMPUTED,NARROW_INT,0.6415,119.1741,24.3486,0.0000,0.4109,0.7506,"999",33,29,29,11,3,01,3,73*0f68ea88
$GNGGA,062801.50,3039.10492915,N,12047.27587199,E,4,29,0.7,4.1088,M,9.8158,M,11,0*7F
$GNRMC,062801.50,A,3039.10492915,N,12047.27587199,E,0.206,255.6,170120,5.8,W,D*38
#HEADINGA,COM2,0,56.0,FINE,2088,455299.500,1361885,17,18;SOL_COMPUTED,NARROW_INT,0.6360,119.0020,23.4095,0.0000,0.4115,0.7641,"999",33,29,29,11,3,01,3,73*d45f7d52
$GNGGA,062801.60,3039.10493004,N,12047.27587844,E,4,29,0.7,4.1389,M,9.8158,M,11,0*7F
$GNRMC,062801.60,A,3039.10493004,N,12047.27587844,E,0.203,80.9,170120,5.8,W,D*0A
#HEADINGA,COM2,0,56.0,FINE,2088,455299.600,1361985,20,18;SOL_COMPUTED,NARROW_INT,0.6390,119.0360,23.8951,0.0000,0.4111,0.7569,"999",33,29,29,11,3,01,3,73*b5a7a3ee
$GNGGA,062801.70,3039.10493085,N,12047.27587629,E,4,28,0.7,4.1305,M,9.8158,M,11,0*77
$GNRMC,062801.70,A,3039.10493085,N,12047.27587629,E,0.073,293.4,170120,5.8,W,D*3F
#HEADINGA,COM2,0,56.0,FINE,2088,455299.700,1362085,16,18;SOL_COMPUTED,NARROW_INT,0.6456,118.9541,24.2897,0.0000,0.4073,0.7463,"999",33,29,29,11,3,01,3,73*a07a8f0c
$GNGGA,062801.80,3039.10493418,N,12047.27586922,E,4,29,0.7,4.1014,M,9.8158,M,11,0*7F
$GNRMC,062801.80,A,3039.10493418,N,12047.27586922,E,0.250,298.6,170120,5.8,W,D*3F
#HEADINGA,COM2,0,56.0,FINE,2088,455299.800,1362185,15,18;SOL_COMPUTED,NARROW_INT,0.6455,119.0466,23.9911,0.0000,0.4068,0.7477,"999",33,29,29,11,3,01,3,73*83472286
$GNGGA,062801.90,3039.10493262,N,12047.27587031,E,4,28,0.7,4.1018,M,9.8158,M,11,0*72
$GNRMC,062801.90,A,3039.10493262,N,12047.27587031,E,0.065,149.0,170120,5.8,W,D*32
#HEADINGA,COM2,0,56.0,FINE,2088,455299.900,1362285,16,18;SOL_COMPUTED,NARROW_INT,0.6410,118.9046,23.8069,0.0000,0.4081,0.7537,"999",33,29,29,11,3,01,3,73*f8e4458e
#REFSTATIONA,COM2,0,56.0,FINE,2088,455277.000,1361586,803,18;00000000,-2811044.342,4717820.352,3232735.546,0,RTCMV3,"0000"*69725ef2
$GNGGA,062802.00,3039.10493338,N,12047.27586772,E,4,29,0.7,4.0902,M,9.8158,M,12,0*76
$GNRMC,062802.00,A,3039.10493338,N,12047.27586772,E,0.085,288.9,170120,5.8,W,D*3E
#HEADINGA,COM2,0,56.0,FINE,2088,455300.000,1362385,22,18;SOL_COMPUTED,NARROW_INT,0.6433,118.8579,24.1835,0.0000,0.4078,0.7485,"999",33,29,29,11,3,01,3,73*40a3339c
$GNGGA,062802.10,3039.10493305,N,12047.27587087,E,4,29,0.7,4.1015,M,9.8158,M,12,0*7B
$GNRMC,062802.10,A,3039.10493305,N,12047.27587087,E,0.099,97.0,170120,5.8,W,D*05
#HEADINGA,COM2,0,56.0,FINE,2088,455300.100,1362485,17,18;SOL_COMPUTED,NARROW_INT,0.6408,118.9554,23.7230,0.0000,0.4083,0.7546,"999",33,29,29,11,3,01,3,73*6d7131a3
$GNGGA,062802.20,3039.10493484,N,12047.27586868,E,4,29,0.7,4.0979,M,9.8158,M,12,0*7C
$GNRMC,062802.20,A,3039.10493484,N,12047.27586868,E,0.094,313.4,170120,5.8,W,D*36
#HEADINGA,COM2,0,56.0,FINE,2088,455300.200,1362586,17,18;SOL_COMPUTED,NARROW_INT,0.6432,118.6805,23.8304,0.0000,0.4061,0.7511,"999",33,29,29,11,3,01,3,73*9910578d
$GNGGA,062802.30,3039.10493293,N,12047.27587065,E,4,29,0.7,4.0953,M,9.8158,M,12,0*71
$GNRMC,062802.30,A,3039.10493293,N,12047.27587065,E,0.092,138.2,170120,5.8,W,D*38
#HEADINGA,COM2,0,56.0,FINE,2088,455300.300,1362685,17,18;SOL_COMPUTED,NARROW_INT,0.6438,118.9312,24.4293,0.0000,0.4082,0.7467,"999",33,29,29,11,3,01,3,73*05d7f72f
$GNGGA,062802.40,3039.10493330,N,12047.27587104,E,4,29,0.7,4.0905,M,9.8158,M,12,0*7B
$GNRMC,062802.40,A,3039.10493330,N,12047.27587104,E,0.018,43.3,170120,5.8,W,D*0F
#HEADINGA,COM2,0,56.0,FINE,2088,455300.400,1362785,16,18;SOL_COMPUTED,NARROW_INT,0.6458,119.1024,24.5937,0.0000,0.4080,0.7437,"999",32,29,29,11,3,01,3,73*3d3c5b21
$GNGGA,062802.50,3039.10493421,N,12047.27586895,E,4,29,0.7,4.0901,M,9.8158,M,12,0*79
$GNRMC,062802.50,A,3039.10493421,N,12047.27586895,E,0.073,296.8,170120,5.8,W,D*35
#HEADINGA,COM2,0,56.0,FINE,2088,455300.500,1362885,16,18;SOL_COMPUTED,NARROW_INT,0.6467,119.0575,24.5538,0.0000,0.4071,0.7429,"999",32,29,29,11,3,01,3,73*af120abf
$GNGGA,062802.60,3039.10493257,N,12047.27587861,E,4,29,0.7,4.1265,M,9.8158,M,12,0*7F
$GNRMC,062802.60,A,3039.10493257,N,12047.27587861,E,0.306,101.1,170120,5.8,W,D*3E
#HEADINGA,COM2,0,56.0,FINE,2088,455300.600,1362985,19,18;SOL_COMPUTED,NARROW_INT,0.6419,118.8945,24.2262,0.0000,0.4088,0.7517,"999",32,29,29,11,3,01,3,73*88ec4e98
$GNGGA,062802.70,3039.10493306,N,12047.27587910,E,4,29,0.7,4.1261,M,9.8158,M,12,0*78
$GNRMC,062802.70,A,3039.10493306,N,12047.27587910,E,0.023,41.0,170120,5.8,W,D*0D
#HEADINGA,COM2,0,56.0,FINE,2088,455300.700,1363085,16,18;SOL_COMPUTED,NARROW_INT,0.6426,118.7895,24.1472,0.0000,0.4076,0.7515,"999",32,29,29,11,3,01,3,73*e811ff87
$GNGGA,062802.80,3039.10493354,N,12047.27587953,E,4,29,0.7,4.1283,M,9.8158,M,12,0*7B
$GNRMC,062802.80,A,3039.10493354,N,12047.27587953,E,0.022,37.8,170120,5.8,W,D*0A
#HEADINGA,COM2,0,56.0,FINE,2088,455300.800,1363185,16,18;SOL_COMPUTED,NARROW_INT,0.6437,119.0836,24.1041,0.0000,0.4077,0.7499,"999",32,29,29,11,3,01,3,73*6894bb51
$GNGGA,062802.90,3039.10493286,N,12047.27588042,E,4,29,0.7,4.1343,M,9.8158,M,12,0*7F
$GNRMC,062802.90,A,3039.10493286,N,12047.27588042,E,0.037,131.4,170120,5.8,W,D*3C
#HEADINGA,COM2,0,56.0,FINE,2088,455300.900,1363285,15,18;SOL_COMPUTED,NARROW_INT,0.6378,118.8741,23.7050,0.0000,0.4096,0.7606,"999",32,29,29,11,3,01,3,73*bdb91e6b
#REFSTATIONA,COM2,0,56.0,FINE,2088,455277.000,1362586,803,18;00000000,-2811044.342,4717820.352,3232735.546,0,RTCMV3,"0000"*aa57bca1
$GNGGA,062803.00,3039.10493407,N,12047.27588004,E,4,29,0.7,4.1347,M,9.8158,M,13,0*7F
$GNRMC,062803.00,A,3039.10493407,N,12047.27588004,E,0.045,344.7,170120,5.8,W,D*3F
#HEADINGA,COM2,0,56.0,FINE,2088,455301.000,1363385,21,18;SOL_COMPUTED,NARROW_INT,0.6392,118.8294,23.5973,0.0000,0.4082,0.7588,"999",32,29,29,11,3,01,3,73*1659bbc7
$GNGGA,062803.10,3039.10493293,N,12047.27587527,E,4,29,0.7,4.1175,M,9.8158,M,13,0*7D
$GNRMC,062803.10,A,3039.10493293,N,12047.27587527,E,0.154,254.7,170120,5.8,W,D*3F
#HEADINGA,COM2,0,56.0,FINE,2088,455301.100,1363485,16,18;SOL_COMPUTED,NARROW_INT,0.6473,118.8063,24.5829,0.0000,0.4061,0.7422,"999",32,29,29,11,3,01,3,73*a77cf766
$GNGGA,062803.20,3039.10493250,N,12047.27587649,E,4,29,0.7,4.1235,M,9.8158,M,13,0*7D
$GNRMC,062803.20,A,3039.10493250,N,12047.27587649,E,0.041,112.2,170120,5.8,W,D*39
#HEADINGA,COM2,0,56.0,FINE,2088,455301.200,1363585,17,18;SOL_COMPUTED,NARROW_INT,0.6454,119.0052,24.0778,0.0000,0.4065,0.7481,"999",32,29,29,11,3,01,3,73*91de9cec
$GNGGA,062803.30,3039.10493461,N,12047.27587913,E,4,29,0.7,4.1245,M,9.8158,M,13,0*7F
$GNRMC,062803.30,A,3039.10493461,N,12047.27587913,E,0.112,47.4,170120,5.8,W,D*0C
#HEADINGA,COM2,0,56.0,FINE,2088,455301.300,1363685,17,18;SOL_COMPUTED,NARROW_INT,0.6401,119.1336,24.0475,0.0000,0.4105,0.7547,"999",32,29,29,11,3,01,3,73*f2b28b44
$GNGGA,062803.40,3039.10493209,N,12047.27587775,E,4,29,0.7,4.1263,M,9.8158,M,13,0*7A
$GNRMC,062803.40,A,3039.10493209,N,12047.27587775,E,0.100,205.4,170120,5.8,W,D*3A
#HEADINGA,COM2,0,49.0,FINE,2088,455301.400,1363786,17,18;SOL_COMPUTED,NARROW_INT,0.6400,119.0271,23.8732,0.0000,0.4099,0.7565,"999",32,29,29,11,3,01,3,73*88c5fbbb
$GNGGA,062803.50,3039.10493534,N,12047.27587889,E,4,29,0.7,4.1314,M,9.8158,M,13,0*7F
$GNRMC,062803.50,A,3039.10493534,N,12047.27587889,E,0.122,16.9,170120,5.8,W,D*03
#HEADINGA,COM2,0,49.0,FINE,2088,455301.500,1363885,17,18;SOL_COMPUTED,NARROW_INT,0.6385,118.9503,23.4737,0.0000,0.4095,0.7614,"999",32,29,29,11,3,01,3,73*7c84fd64
$GNGGA,062803.60,3039.10493200,N,12047.27587605,E,4,29,0.7,4.1274,M,9.8158,M,13,0*71
$GNRMC,062803.60,A,3039.10493200,N,12047.27587605,E,0.149,216.3,170120,5.8,W,D*3F
#HEADINGA,COM2,0,49.0,FINE,2088,455301.600,1363985,19,18;SOL_COMPUTED,NARROW_INT,0.6436,118.9346,24.1758,0.0000,0.4084,0.7502,"999",32,29,29,11,3,01,3,73*84585ff3
$GNGGA,062803.70,3039.10493415,N,12047.27587550,E,4,29,0.7,4.1263,M,9.8158,M,13,0*77
$GNRMC,062803.70,A,3039.10493415,N,12047.27587550,E,0.079,347.5,170120,5.8,W,D*3E
#HEADINGA,COM2,0,49.0,FINE,2088,455301.700,1364085,15,18;SOL_COMPUTED,NARROW_INT,0.6451,119.1699,23.9861,0.0000,0.4074,0.7492,"999",32,29,29,11,3,01,3,73*f3bef8e5
$GNGGA,062803.80,3039.10493390,N,12047.27587717,E,4,29,0.7,4.1320,M,9.8158,M,13,0*75
$GNRMC,062803.80,A,3039.10493390,N,12047.27587717,E,0.053,99.7,170120,5.8,W,D*00
#HEADINGA,COM2,0,49.0,FINE,2088,455301.800,1364185,15,18;SOL_COMPUTED,NARROW_INT,0.6416,119.3060,23.5895,0.0000,0.4085,0.7565,"999",32,29,29,11,3,01,3,73*b2b52e97
$GNGGA,062803.90,3039.10493198,N,12047.27587574,E,4,29,0.7,4.1311,M,9.8158,M,13,0*7B
$GNRMC,062803.90,A,3039.10493198,N,12047.27587574,E,0.082,212.8,170120,5.8,W,D*3E
#HEADINGA,COM2,0,49.0,FINE,2088,455301.900,1364285,15,18;SOL_COMPUTED,NARROW_INT,0.6421,119.0466,23.6881,0.0000,0.4077,0.7553,"999",32,29,29,11,3,01,3,73*60d3ceaa
#REFSTATIONA,COM2,0,56.0,FINE,2088,455277.000,1362586,1803,18;00000000,-2811044.342,4717820.352,3232735.546,0,RTCMV3,"0000"*2ed8a5b4
$GNGGA,062804.00,3039.10493258,N,12047.27587587,E,4,29,0.7,4.1238,M,9.8158,M,14,0*7B
$GNRMC,062804.00,A,3039.10493258,N,12047.27587587,E,0.022,10.7,170120,5.8,W,D*06
#HEADINGA,COM2,0,49.0,FINE,2088,455302.000,1364385,22,18;SOL_COMPUTED,NARROW_INT,0.6448,119.3019,24.0885,0.0000,0.4084,0.7494,"999",32,29,29,11,3,01,3,73*b0431085
$GNGGA,062804.10,3039.10493395,N,12047.27587525,E,4,29,0.7,4.1225,M,9.8158,M,14,0*7E
$GNRMC,062804.10,A,3039.10493395,N,12047.27587525,E,0.053,338.6,170120,5.8,W,D*31
#HEADINGA,COM2,0,49.0,FINE,2088,455302.100,1364485,17,18;SOL_COMPUTED,NARROW_INT,0.6421,119.0754,23.8173,0.0000,0.4086,0.7555,"999",32,29,29,11,3,01,3,73*7fe3406a
$GNGGA,062804.20,3039.10493291,N,12047.27587558,E,4,28,0.7,4.1279,M,9.8158,M,14,0*7A
$GNRMC,062804.20,A,3039.10493291,N,12047.27587558,E,0.039,164.8,170120,5.8,W,D*34
#HEADINGA,COM2,0,49.0,FINE,2088,455302.200,1364586,17,18;SOL_COMPUTED,NARROW_INT,0.6446,118.7819,23.9245,0.0000,0.4064,0.7520,"999",32,29,29,11,3,01,3,73*02625fe0
$GNGGA,062804.30,3039.10493547,N,12047.27586988,E,4,29,0.7,4.0910,M,9.8158,M,14,0*73
$GNRMC,062804.30,A,3039.10493547,N,12047.27586988,E,0.199,297.4,170120,5.8,W,D*31
