
$GNGGA,065907.40,3039.10569394,N,12047.28099975,E,4,33,0.6,4.5099,M,9.8161,M,01,0*72
$GNRMC,065907.40,A,3039.10569394,N,12047.28099975,E,0.024,358.3,170120,5.8,W,D*3B
#HEADINGA,COM2,0,47.0,FINE,2088,457165.400,3227786,17,18;SOL_COMPUTED,NARROW_INT,0.4333,161.6350,-14.0657,0.0000,0.5812,1.2727,"999",37,33,33,17,3,01,3,f3*53da4295
$GNGGA,065907.50,3039.10569292,N,12047.28100056,E,4,33,0.6,4.5133,M,9.8161,M,01,0*7C
$GNRMC,065907.50,A,3039.10569292,N,12047.28100056,E,0.044,145.7,170120,5.8,W,D*38
#HEADINGA,COM2,0,47.0,FINE,2088,457165.500,3227886,17,18;SOL_COMPUTED,NARROW_INT,0.4318,161.8178,-15.1684,0.0000,0.5859,1.2765,"999",37,33,33,17,3,01,3,f3*0b649c27
$GNGGA,065907.60,3039.10569433,N,12047.28099855,E,4,33,0.6,4.5090,M,9.8161,M,01,0*70
$GNRMC,065907.60,A,3039.10569433,N,12047.28099855,E,0.080,309.0,170120,5.8,W,D*39
#HEADINGA,COM2,0,47.0,FINE,2088,457165.600,3227985,18,18;SOL_COMPUTED,NARROW_INT,0.4323,161.7283,-13.6608,0.0000,0.5822,1.2759,"999",37,33,33,17,3,01,3,f3*0bb29ca7
$GNGGA,065907.70,3039.10569399,N,12047.28099862,E,4,33,0.6,4.5057,M,9.8161,M,01,0*79
$GNRMC,065907.70,A,3039.10569399,N,12047.28099862,E,0.012,168.6,170120,5.8,W,D*33
#HEADINGA,COM2,0,47.0,FINE,2088,457165.700,3228085,17,18;SOL_COMPUTED,NARROW_INT,0.4319,161.4680,-13.3673,0.0000,0.5821,1.2772,"999",37,33,33,17,3,01,3,f3*7054c941
$GNGGA,065907.80,3039.10569505,N,12047.28100173,E,4,33,0.6,4.5033,M,9.8161,M,01,0*7F
$GNRMC,065907.80,A,3039.10569505,N,12047.28100173,E,0.104,68.6,170120,5.8,W,D*00
#HEADINGA,COM2,0,47.0,FINE,2088,457165.800,3228185,20,18;SOL_COMPUTED,NARROW_INT,0.4322,161.7045,-14.4067,0.0000,0.5840,1.2760,"999",37,33,33,17,3,01,3,f3*5841b2c6
$GNGGA,065907.90,3039.10569411,N,12047.28100013,E,4,33,0.6,4.5073,M,9.8161,M,01,0*79
$GNRMC,065907.90,A,3039.10569411,N,12047.28100013,E,0.060,235.9,170120,5.8,W,D*34
#HEADINGA,COM2,0,47.0,FINE,2088,457165.900,3228285,17,18;SOL_COMPUTED,NARROW_INT,0.4325,161.4823,-14.2522,0.0000,0.5836,1.2754,"999",37,33,33,17,3,01,3,f3*f9b0fb1a
#REFSTATIONA,COM2,0,47.0,FINE,2088,457164.000,3227586,803,18;00000000,-2811044.342,4717820.352,3232735.546,0,RTCMV3,"0000"*63b7890a
$GNGGA,065908.00,3039.10569407,N,12047.28100025,E,4,33,0.6,4.5061,M,9.8161,M,02,0*7D
$GNRMC,065908.00,A,3039.10569407,N,12047.28100025,E,0.004,112.6,170120,5.8,W,D*3B
#HEADINGA,COM2,0,47.0,FINE,2088,457166.000,3228385,23,18;SOL_COMPUTED,NARROW_INT,0.4316,161.7258,-13.9289,0.0000,0.5829,1.2776,"999",37,33,33,17,3,01,3,f3*05f93789
$GNGGA,065908.10,3039.10569255,N,12047.28100097,E,4,33,0.6,4.5185,M,9.8161,M,02,0*7F
$GNRMC,065908.10,A,3039.10569255,N,12047.28100097,E,0.059,157.6,170120,5.8,W,D*3B
#HEADINGA,COM2,0,47.0,FINE,2088,457166.100,3228486,17,18;SOL_COMPUTED,NARROW_INT,0.4318,161.5001,-14.1743,0.0000,0.5831,1.2771,"999",37,33,33,17,3,01,3,f3*25c8a771
$GNGGA,065908.20,3039.10569429,N,12047.28100001,E,4,33,0.6,4.5107,M,9.8161,M,02,0*74
$GNRMC,065908.20,A,3039.10569429,N,12047.28100001,E,0.069,334.6,170120,5.8,W,D*3E
#HEADINGA,COM2,0,47.0,FINE,2088,457166.200,3228586,18,18;SOL_COMPUTED,NARROW_INT,0.4309,161.5014,-13.9168,0.0000,0.5834,1.2792,"999",37,33,33,17,3,01,3,f3*900d4212
$GNGGA,065908.30,3039.10569384,N,12047.28099961,E,4,33,0.6,4.5120,M,9.8161,M,02,0*7E
$GNRMC,065908.30,A,3039.10569384,N,12047.28099961,E,0.020,218.4,170120,5.8,W,D*31
#HEADINGA,COM2,0,47.0,FINE,2088,457166.300,3228685,17,18;SOL_COMPUTED,NARROW_INT,0.4331,161.4782,-14.1486,0.0000,0.5808,1.2720,"999",37,33,33,17,3,01,3,f3*70fd1f47
$GNGGA,065908.40,3039.10569293,N,12047.28100145,E,4,33,0.6,4.5125,M,9.8161,M,02,0*74
$GNRMC,065908.40,A,3039.10569293,N,12047.28100145,E,0.066,119.9,170120,5.8,W,D*33
#HEADINGA,COM2,0,47.0,FINE,2088,457166.400,3228785,17,18;SOL_COMPUTED,NARROW_INT,0.4333,161.5653,-14.4174,0.0000,0.5811,1.2713,"999",37,33,33,17,3,01,3,f3*1bf3f4e5
$GNGGA,065908.50,3039.10569383,N,12047.28100574,E,4,33,0.6,4.5200,M,9.8161,M,02,0*77
$GNRMC,065908.50,A,3039.10569383,N,12047.28100574,E,0.137,76.3,170120,5.8,W,D*03
#HEADINGA,COM2,0,47.0,FINE,2088,457166.500,3228885,20,18;SOL_COMPUTED,NARROW_INT,0.4335,162.2147,-14.5266,0.0000,0.5807,1.2712,"999",37,33,33,17,3,01,3,f3*31f00a9a
$GNGGA,065908.60,3039.10569420,N,12047.28100463,E,4,33,0.6,4.5196,M,9.8161,M,02,0*71
$GNRMC,065908.60,A,3039.10569420,N,12047.28100463,E,0.037,291.2,170120,5.8,W,D*32
#HEADINGA,COM2,0,47.0,FINE,2088,457166.600,3228985,16,18;SOL_COMPUTED,NARROW_INT,0.4338,161.4310,-14.1624,0.0000,0.5802,1.2707,"999",37,33,33,17,3,01,3,f3*8b0f344c
$GNGGA,065908.70,3039.10569424,N,12047.28100431,E,4,33,0.6,4.5116,M,9.8161,M,02,0*7B
$GNRMC,065908.70,A,3039.10569424,N,12047.28100431,E,0.010,276.7,170120,5.8,W,D*39
#HEADINGA,COM2,0,47.0,FINE,2088,457166.700,3229085,16,18;SOL_COMPUTED,NARROW_INT,0.4330,161.6789,-13.3351,0.0000,0.5789,1.2727,"999",37,33,33,17,3,01,3,f3*5b4ec019
$GNGGA,065908.80,3039.10569462,N,12047.28100411,E,4,33,0.6,4.5148,M,9.8161,M,02,0*7F
$GNRMC,065908.80,A,3039.10569462,N,12047.28100411,E,0.015,335.3,170120,5.8,W,D*31
#HEADINGA,COM2,0,47.0,FINE,2088,457166.800,3229185,16,18;SOL_COMPUTED,NARROW_INT,0.4337,161.9227,-14.3238,0.0000,0.5803,1.2712,"999",37,33,33,17,3,01,3,f3*9583559e
$GNGGA,065908.90,3039.10569292,N,12047.28100568,E,4,33,0.6,4.5231,M,9.8161,M,02,0*75
$GNRMC,065908.90,A,3039.10569292,N,12047.28100568,E,0.078,141.4,170120,5.8,W,D*3B
#HEADINGA,COM2,0,47.0,FINE,2088,457166.900,3229285,16,18;SOL_COMPUTED,NARROW_INT,0.4293,161.3995,-14.8893,0.0000,0.5941,1.2923,"999",37,32,32,17,3,01,3,f3*99a550f3
#REFSTATIONA,COM2,0,47.0,FINE,2088,457164.000,3227586,1804,18;00000000,-2811044.342,4717820.352,3232735.546,0,RTCMV3,"0000"*49f87afd
$GNGGA,065909.00,3039.10569422,N,12047.28100385,E,4,33,0.6,4.5179,M,9.8161,M,03,0*7B
$GNRMC,065909.00,A,3039.10569422,N,12047.28100385,E,0.074,309.5,170120,5.8,W,D*38
#HEADINGA,COM2,0,47.0,FINE,2088,457167.000,3229386,23,18;SOL_COMPUTED,NARROW_INT,0.4330,161.4053,-14.4052,0.0000,0.5878,1.2831,"999",37,32,32,17,3,01,3,f3*9c5ce0cb
$GNGGA,065909.10,3039.10569354,N,12047.28100317,E,4,33,0.6,4.5157,M,9.8161,M,03,0*7B
$GNRMC,065909.10,A,3039.10569354,N,12047.28100317,E,0.032,220.6,170120,5.8,W,D*3F
#HEADINGA,COM2,0,47.0,FINE,2088,457167.100,3229485,18,18;SOL_COMPUTED,NARROW_INT,0.4316,161.4420,-13.4922,0.0000,0.5874,1.2877,"999",37,32,32,17,3,01,3,f3*f62d701e
$GNGGA,065909.20,3039.10569438,N,12047.28100336,E,4,33,0.6,4.5116,M,9.8161,M,03,0*73
$GNRMC,065909.20,A,3039.10569438,N,12047.28100336,E,0.031,11.1,170120,5.8,W,D*06
#HEADINGA,COM2,0,47.0,FINE,2088,457167.200,3229587,17,18;SOL_COMPUTED,NARROW_INT,0.4298,161.6090,-13.7647,0.0000,0.5904,1.2926,"999",37,32,32,17,3,01,3,f3*3c6e96b6
$GNGGA,065909.30,3039.10569373,N,12047.28100356,E,4,33,0.6,4.5097,M,9.8161,M,03,0*74
$GNRMC,065909.30,A,3039.10569373,N,12047.28100356,E,0.024,165.0,170120,5.8,W,D*3E
#HEADINGA,COM2,0,47.0,FINE,2088,457167.300,3229686,17,18;SOL_COMPUTED,NARROW_INT,0.4315,161.4403,-13.5669,0.0000,0.5875,1.2876,"999",37,32,32,17,3,01,3,f3*9a1c6aa8
$GNGGA,065909.40,3039.10569512,N,12047.28100295,E,4,33,0.6,4.5143,M,9.8161,M,03,0*74
$GNRMC,065909.40,A,3039.10569512,N,12047.28100295,E,0.054,339.3,170120,5.8,W,D*39
#HEADINGA,COM2,0,47.0,FINE,2088,457167.400,3229785,18,18;SOL_COMPUTED,NARROW_INT,0.4345,161.4746,-13.6364,0.0000,0.5835,1.2767,"999",37,32,32,17,3,01,3,f3*b744a57e
$GNGGA,065909.50,3039.10569495,N,12047.28100264,E,4,33,0.6,4.5068,M,9.8161,M,03,0*7D
$GNRMC,065909.50,A,3039.10569495,N,12047.28100264,E,0.012,237.4,170120,5.8,W,D*32
#HEADINGA,COM2,0,47.0,FINE,2088,457167.500,3229885,20,18;SOL_COMPUTED,NARROW_INT,0.4353,161.6027,-13.6025,0.0000,0.5822,1.2761,"999",37,32,32,17,3,01,3,f3*148c6542
$GNGGA,065909.60,3039.10569521,N,12047.28100379,E,4,33,0.6,4.5019,M,9.8161,M,03,0*7B
$GNRMC,065909.60,A,3039.10569521,N,12047.28100379,E,0.037,75.1,170120,5.8,W,D*04
#HEADINGA,COM2,0,47.0,FINE,2088,457167.600,3229986,16,18;SOL_COMPUTED,NARROW_INT,0.4326,161.9436,-14.0176,0.0000,0.5864,1.2835,"999",37,32,32,17,3,01,3,f3*eacfb63e
$GNGGA,065909.70,3039.10569527,N,12047.28100243,E,4,33,0.6,4.4947,M,9.8161,M,03,0*77
$GNRMC,065909.70,A,3039.10569527,N,12047.28100243,E,0.042,272.7,170120,5.8,W,D*3A
#HEADINGA,COM2,0,47.0,FINE,2088,457167.700,3230085,16,18;SOL_COMPUTED,NARROW_INT,0.4328,161.7155,-13.9725,0.0000,0.5866,1.2844,"999",37,32,32,17,3,01,3,f3*479eb57d
$GNGGA,065909.80,3039.10569446,N,12047.28100237,E,4,33,0.6,4.5083,M,9.8161,M,03,0*7D
$GNRMC,065909.80,A,3039.10569446,N,12047.28100237,E,0.029,183.7,170120,5.8,W,D*30
#HEADINGA,COM2,0,42.0,FINE,2088,457167.800,3230185,17,18;SOL_COMPUTED,NARROW_INT,0.4321,161.4423,-14.5361,0.0000,0.5890,1.2860,"999",37,32,32,17,3,01,3,f3*124e0ea0
$GNGGA,065909.90,3039.10569506,N,12047.28100299,E,4,33,0.6,4.5012,M,9.8161,M,03,0*75
$GNRMC,065909.90,A,3039.10569506,N,12047.28100299,E,0.029,41.9,170120,5.8,W,D*01
#HEADINGA,COM2,0,42.0,FINE,2088,457167.900,3230285,17,18;SOL_COMPUTED,NARROW_INT,0.4346,161.8773,-13.4210,0.0000,0.5827,1.2771,"999",37,32,32,17,3,01,3,f3*80ff0cec
#REFSTATIONA,COM2,0,47.0,FINE,2088,457164.000,3227586,2804,18;00000000,-2811044.342,4717820.352,3232735.546,0,RTCMV3,"0000"*ed86f838
$GNGGA,065910.00,3039.10569414,N,12047.28100242,E,4,33,0.6,4.5045,M,9.8161,M,04,0*75
$GNRMC,065910.00,A,3039.10569414,N,12047.28100242,E,0.037,208.1,170120,5.8,W,D*3C
#HEADINGA,COM2,0,42.0,FINE,2088,457168.000,3230385,24,18;SOL_COMPUTED,NARROW_INT,0.4333,161.7033,-14.3828,0.0000,0.5870,1.2807,"999",37,32,32,17,3,01,3,f3*ee7468d6
$GNGGA,065910.10,3039.10569399,N,12047.28100401,E,4,33,0.6,4.5096,M,9.8161,M,04,0*79
$GNRMC,065910.10,A,3039.10569399,N,12047.28100401,E,0.050,96.2,170120,5.8,W,D*09
#HEADINGA,COM2,0,42.0,FINE,2088,457168.100,3230486,17,18;SOL_COMPUTED,NARROW_INT,0.4306,162.1635,-13.6210,0.0000,0.5879,1.2881,"999",37,32,32,17,3,01,3,f3*1000687e
$GNGGA,065910.20,3039.10569453,N,12047.28100191,E,4,33,0.6,4.5065,M,9.8161,M,04,0*7B
$GNRMC,065910.20,A,3039.10569453,N,12047.28100191,E,0.068,286.5,170120,5.8,W,D*38
#HEADINGA,COM2,0,42.0,FINE,2088,457168.200,3230587,18,18;SOL_COMPUTED,NARROW_INT,0.4343,162.1198,-12.8627,0.0000,0.5811,1.2766,"999",37,32,32,17,3,01,3,f3*dfeb3e61
$GNGGA,065910.30,3039.10569589,N,12047.28100176,E,4,33,0.6,4.4981,M,9.8161,M,03,0*70
$GNRMC,065910.30,A,3039.10569589,N,12047.28100176,E,0.049,354.6,170120,5.8,W,D*38
#HEADINGA,COM2,0,42.0,FINE,2088,457168.300,3230686,18,18;SOL_COMPUTED,NARROW_INT,0.4336,161.6260,-14.1640,0.0000,0.5797,1.2707,"999",37,33,33,17,3,01,3,f3*d4ac9c4d
$GNGGA,065910.40,3039.10569467,N,12047.28100398,E,4,33,0.6,4.5004,M,9.8161,M,03,0*71
$GNRMC,065910.40,A,3039.10569467,N,12047.28100398,E,0.082,122.3,170120,5.8,W,D*3D
#HEADINGA,COM2,0,42.0,FINE,2088,457168.400,3230786,17,18;SOL_COMPUTED,NARROW_INT,0.4309,161.7038,-13.6768,0.0000,0.5824,1.2789,"999",37,33,33,17,3,01,3,f3*69cdc900
$GNGGA,065910.50,3039.10569376,N,12047.28100211,E,4,33,0.6,4.5020,M,9.8161,M,03,0*71
$GNRMC,065910.50,A,3039.10569376,N,12047.28100211,E,0.067,240.7,170120,5.8,W,D*33
#HEADINGA,COM2,0,42.0,FINE,2088,457168.500,3230886,20,18;SOL_COMPUTED,NARROW_INT,0.4315,161.3148,-13.7026,0.0000,0.5816,1.2767,"999",37,33,33,17,3,01,3,f3*52fbecba
$GNGGA,065910.60,3039.10569300,N,12047.28100260,E,4,33,0.6,4.5084,M,9.8161,M,03,0*7B
$GNRMC,065910.60,A,3039.10569300,N,12047.28100260,E,0.032,151.0,170120,5.8,W,D*33
#HEADINGA,COM2,0,42.0,FINE,2088,457168.600,3230985,17,18;SOL_COMPUTED,NARROW_INT,0.4309,161.7358,-14.1128,0.0000,0.5831,1.2781,"999",37,33,33,17,3,01,3,f3*efa5744a
$GNGGA,065910.70,3039.10569430,N,12047.28100286,E,4,33,0.6,4.5010,M,9.8161,M,03,0*7B
$GNRMC,065910.70,A,3039.10569430,N,12047.28100286,E,0.048,9.7,170120,5.8,W,D*38
#HEADINGA,COM2,0,42.0,FINE,2088,457168.700,3231085,17,18;SOL_COMPUTED,NARROW_INT,0.4340,161.7051,-14.3589,0.0000,0.5796,1.2687,"999",37,33,33,17,3,01,3,f3*b35326c4
$GNGGA,065910.80,3039.10569386,N,12047.28100195,E,4,33,0.6,4.5027,M,9.8161,M,03,0*7B
$GNRMC,065910.80,A,3039.10569386,N,12047.28100195,E,0.032,241.1,170120,5.8,W,D*39
#HEADINGA,COM2,0,42.0,FINE,2088,457168.800,3231185,17,18;SOL_COMPUTED,NARROW_INT,0.4306,161.4474,-14.1231,0.0000,0.5842,1.2797,"999",37,33,33,17,3,01,3,f3*bb2a08e6
$GNGGA,065910.90,3039.10569352,N,12047.28100262,E,4,33,0.6,4.5011,M,9.8161,M,03,0*7D
$GNRMC,065910.90,A,3039.10569352,N,12047.28100262,E,0.024,120.9,170120,5.8,W,D*31
#HEADINGA,COM2,0,42.0,FINE,2088,457168.900,3231285,17,18;SOL_COMPUTED,NARROW_INT,0.4322,161.4727,-13.8256,0.0000,0.5810,1.2748,"999",37,33,33,17,3,01,3,f3*fb9f1740
#REFSTATIONA,COM2,0,42.0,FINE,2088,457164.000,3230587,802,18;00000000,-2811044.342,4717820.352,3232735.546,0,RTCMV3,"0000"*e6f4d9cc
$GNGGA,065911.00,3039.10569472,N,12047.28100261,E,4,33,0.6,4.5020,M,9.8161,M,04,0*76
$GNRMC,065911.00,A,3039.10569472,N,12047.28100261,E,0.043,359.4,170120,5.8,W,D*3F
#HEADINGA,COM2,0,42.0,FINE,2088,457169.000,3231385,23,18;SOL_COMPUTED,NARROW_INT,0.4310,161.7434,-14.1011,0.0000,0.5833,1.2783,"999",37,33,33,17,3,01,3,f3*d96964af
$GNGGA,065911.10,3039.10569345,N,12047.28100298,E,4,33,0.6,4.5078,M,9.8161,M,04,0*7F
$GNRMC,065911.10,A,3039.10569345,N,12047.28100298,E,0.047,165.6,170120,5.8,W,D*30
#HEADINGA,COM2,0,42.0,FINE,2088,457169.100,3231485,18,18;SOL_COMPUTED,NARROW_INT,0.4324,161.5367,-14.9717,0.0000,0.5840,1.2750,"999",37,33,33,17,3,01,3,f3*0f489436
$GNGGA,065911.20,3039.10569412,N,12047.28100240,E,4,33,0.6,4.5054,M,9.8161,M,04,0*72
$GNRMC,065911.20,A,3039.10569412,N,12047.28100240,E,0.030,322.7,170120,5.8,W,D*33
#HEADINGA,COM2,0,42.0,FINE,2088,457169.200,3231587,18,18;SOL_COMPUTED,NARROW_INT,0.4336,161.7847,-13.4306,0.0000,0.5782,1.2710,"999",37,33,33,17,3,01,3,f3*0333eaa0
$GNGGA,065911.30,3039.10569343,N,12047.28100215,E,4,33,0.6,4.4993,M,9.8161,M,03,0*74
$GNRMC,065911.30,A,3039.10569343,N,12047.28100215,E,0.026,197.2,170120,5.8,W,D*3F
#HEADINGA,COM2,0,42.0,FINE,2088,457169.300,3231686,17,18;SOL_COMPUTED,NARROW_INT,0.4326,161.7121,-14.0874,0.0000,0.5810,1.2734,"999",37,33,33,17,3,01,3,f3*bd92a2fb
$GNGGA,065911.40,3039.10569309,N,12047.28100203,E,4,33,0.6,4.5004,M,9.8161,M,03,0*7C
$GNRMC,065911.40,A,3039.10569309,N,12047.28100203,E,0.013,197.3,170120,5.8,W,D*36
#HEADINGA,COM2,0,42.0,FINE,2088,457169.400,3231786,17,18;SOL_COMPUTED,NARROW_INT,0.4334,161.7845,-13.7184,0.0000,0.5790,1.2713,"999",37,33,33,17,3,01,3,f3*a9f555c1
$GNGGA,065911.50,3039.10569292,N,12047.28100296,E,4,33,0.6,4.5048,M,9.8161,M,03,0*7A
$GNRMC,065911.50,A,3039.10569292,N,12047.28100296,E,0.029,101.7,170120,5.8,W,D*3A
#HEADINGA,COM2,0,42.0,FINE,2088,457169.500,3231885,18,18;SOL_COMPUTED,NARROW_INT,0.4336,161.7545,-14.3336,0.0000,0.5804,1.2707,"999",37,33,33,17,3,01,3,f3*c6efe478
$GNGGA,065911.60,3039.10569363,N,12047.28100191,E,4,33,0.6,4.4945,M,9.8161,M,03,0*77
$GNRMC,065911.60,A,3039.10569363,N,12047.28100191,E,0.041,308.3,170120,5.8,W,D*33
#HEADINGA,COM2,0,42.0,FINE,2088,457169.600,3231985,20,18;SOL_COMPUTED,NARROW_INT,0.4328,161.9792,-14.0823,0.0000,0.5807,1.2732,"999",37,33,33,17,3,01,3,f3*f9e73559
$GNGGA,065911.70,3039.10569264,N,12047.28100222,E,4,33,0.6,4.5021,M,9.8161,M,03,0*71
$GNRMC,065911.70,A,3039.10569264,N,12047.28100222,E,0.037,165.1,170120,5.8,W,D*35
#HEADINGA,COM2,0,42.0,FINE,2088,457169.700,3232085,17,18;SOL_COMPUTED,NARROW_INT,0.4330,161.4674,-14.0201,0.0000,0.5809,1.2730,"999",37,33,33,17,3,01,3,f3*4c47e374
$GNGGA,065911.80,3039.10569222,N,12047.28100333,E,4,33,0.6,4.5039,M,9.8161,M,03,0*74
$GNRMC,065911.80,A,3039.10569222,N,12047.28100333,E,0.038,113.6,170120,5.8,W,D*30
#HEADINGA,COM2,0,42.0,FINE,2088,457169.800,3232185,17,18;SOL_COMPUTED,NARROW_INT,0.4330,161.9443,-13.9670,0.0000,0.5803,1.2730,"999",37,33,33,17,3,01,3,f3*d69c714f
$GNGGA,065911.90,3039.10569294,N,12047.28100202,E,4,33,0.6,4.5017,M,9.8161,M,03,0*77
$GNRMC,065911.90,A,3039.10569294,N,12047.28100202,E,0.048,302.3,170120,5.8,W,D*3F
#HEADINGA,COM2,0,42.0,FINE,2088,457169.900,3232285,17,18;SOL_COMPUTED,NARROW_INT,0.4356,161.5871,-14.3411,0.0000,0.5779,1.2647,"999",37,33,33,17,3,01,3,f3*e64c8bf9
#REFSTATIONA,COM2,0,42.0,FINE,2088,457164.000,3231587,803,18;00000000,-2811044.342,4717820.352,3232735.546,0,RTCMV3,"0000"*58d128dd
$GNGGA,065912.00,3039.10569244,N,12047.28100273,E,4,33,0.6,4.5023,M,9.8161,M,04,0*76
$GNRMC,065912.00,A,3039.10569244,N,12047.28100273,E,0.028,128.9,170120,5.8,W,D*38
#HEADINGA,COM2,0,42.0,FINE,2088,457170.000,3232385,23,18;SOL_COMPUTED,NARROW_INT,0.4327,162.1032,-13.0456,0.0000,0.5838,1.2832,"999",37,32,32,17,3,01,3,f3*384ab4e8
$GNGGA,065912.10,3039.10569235,N,12047.28100233,E,4,33,0.6,4.5055,M,9.8161,M,04,0*74
$GNRMC,065912.10,A,3039.10569235,N,12047.28100233,E,0.013,255.6,170120,5.8,W,D*35
#HEADINGA,COM2,0,42.0,FINE,2088,457170.100,3232485,18,18;SOL_COMPUTED,NARROW_INT,0.4334,161.7137,-14.4662,0.0000,0.5865,1.2790,"999",37,32,32,17,3,01,3,f3*8bb63a91
$GNGGA,065912.20,3039.10569208,N,12047.28100008,E,4,33,0.6,4.4977,M,9.8161,M,04,0*7B
$GNRMC,065912.20,A,3039.10569208,N,12047.28100008,E,0.071,261.9,170120,5.8,W,D*3E
#HEADINGA,COM2,0,42.0,FINE,2088,457170.200,3232587,18,18;SOL_COMPUTED,NARROW_INT,0.4334,162.0898,-14.4753,0.0000,0.5865,1.2815,"999",37,32,32,17,3,01,3,f3*19f273f7
$GNGGA,065912.30,3039.10569186,N,12047.28100241,E,4,33,0.6,4.5024,M,9.8161,M,04,0*7E
$GNRMC,065912.30,A,3039.10569186,N,12047.28100241,E,0.073,96.2,170120,5.8,W,D*06
#HEADINGA,COM2,0,42.0,FINE,2088,457170.300,3232686,17,18;SOL_COMPUTED,NARROW_INT,0.4315,161.9425,-14.1592,0.0000,0.5895,1.2900,"999",37,32,32,17,3,01,3,f3*72c7e644
$GNGGA,065912.40,3039.10569155,N,12047.28100218,E,4,33,0.6,4.5041,M,9.8161,M,04,0*78
$GNRMC,065912.40,A,3039.10569155,N,12047.28100218,E,0.013,213.2,170120,5.8,W,D*3A
#HEADINGA,COM2,0,42.0,FINE,2088,457170.400,3232786,16,18;SOL_COMPUTED,NARROW_INT,0.4300,161.5472,-14.0629,0.0000,0.5910,1.2930,"999",37,32,32,17,3,01,3,f3*4bdf1364
$GNGGA,065912.50,3039.10569392,N,12047.28100107,E,4,33,0.6,4.5026,M,9.8161,M,04,0*7C
$GNRMC,065912.50,A,3039.10569392,N,12047.28100107,E,0.092,337.9,170120,5.8,W,D*3A
#HEADINGA,COM2,0,42.0,FINE,2088,457170.500,3232885,21,18;SOL_COMPUTED,NARROW_INT,0.4324,161.4492,-13.3517,0.0000,0.5862,1.2845,"999",37,32,32,17,3,01,3,f3*31cd93cf
$GNGGA,065912.60,3039.10569215,N,12047.28100060,E,4,33,0.6,4.5043,M,9.8161,M,04,0*72
$GNRMC,065912.60,A,3039.10569215,N,12047.28100060,E,0.065,193.0,170120,5.8,W,D*3A
#HEADINGA,COM2,0,42.0,FINE,2088,457170.600,3232986,16,18;SOL_COMPUTED,NARROW_INT,0.4305,161.5161,-13.4162,0.0000,0.5887,1.2896,"999",37,32,32,17,3,01,3,f3*bc7c33ab
$GNGGA,065912.70,3039.10569322,N,12047.28100188,E,4,33,0.6,4.5076,M,9.8161,M,04,0*77
$GNRMC,065912.70,A,3039.10569322,N,12047.28100188,E,0.055,46.1,170120,5.8,W,D*02
#HEADINGA,COM2,0,42.0,FINE,2088,457170.700,3233085,17,18;SOL_COMPUTED,NARROW_INT,0.4335,161.8353,-14.0794,0.0000,0.5863,1.2813,"999",37,32,32,17,3,01,3,f3*f9f1c401
$GNGGA,065912.80,3039.10569224,N,12047.28100137,E,4,33,0.6,4.5041,M,9.8161,M,04,0*7F
$GNRMC,065912.80,A,3039.10569224,N,12047.28100137,E,0.039,204.0,170120,5.8,W,D*31
#HEADINGA,COM2,0,42.0,FINE,2088,457170.800,3233185,17,18;SOL_COMPUTED,NARROW_INT,0.4335,161.9598,-14.5341,0.0000,0.5872,1.2806,"999",37,32,32,17,3,01,3,f3*f6c7df2f
$GNGGA,065912.90,3039.10569136,N,12047.28100188,E,4,33,0.6,4.5160,M,9.8161,M,04,0*78
$GNRMC,065912.90,A,3039.10569136,N,12047.28100188,E,0.035,153.8,170120,5.8,W,D*31
#HEADINGA,COM2,0,51.0,FINE,2088,457170.900,3233285,17,18;SOL_COMPUTED,NARROW_INT,0.4313,161.5938,-14.5542,0.0000,0.5905,1.2869,"999",37,32,32,17,3,01,3,f3*6d1c8937
#REFSTATIONA,COM2,0,42.0,FINE,2088,457164.000,3232587,803,18;00000000,-2811044.342,4717820.352,3232735.546,0,RTCMV3,"0000"*9bf4ca8e
$GNGGA,065913.00,3039.10569205,N,12047.28100306,E,4,33,0.6,4.5146,M,9.8161,M,05,0*72
$GNRMC,065913.00,A,3039.10569205,N,12047.28100306,E,0.044,55.7,170120,5.8,W,D*00
#HEADINGA,COM2,0,51.0,FINE,2088,457171.000,3233386,22,18;SOL_COMPUTED,NARROW_INT,0.4313,161.7479,-14.6684,0.0000,0.5907,1.2871,"999",38,32,32,17,3,01,3,f3*a9c55197
$GNGGA,065913.10,3039.10569283,N,12047.28100277,E,4,33,0.6,4.5109,M,9.8161,M,05,0*71
$GNRMC,065913.10,A,3039.10569283,N,12047.28100277,E,0.029,342.2,170120,5.8,W,D*33
#HEADINGA,COM2,0,51.0,FINE,2088,457171.100,3233485,18,18;SOL_COMPUTED,NARROW_INT,0.4317,162.3796,-12.6702,0.0000,0.5845,1.2858,"999",38,32,32,17,3,01,3,f3*344c1fd7
$GNGGA,065913.20,3039.10569209,N,12047.28100194,E,4,33,0.6,4.5141,M,9.8161,M,05,0*72
$GNRMC,065913.20,A,3039.10569209,N,12047.28100194,E,0.037,224.3,170120,5.8,W,D*33
#HEADINGA,COM2,0,51.0,FINE,2088,457171.200,3233587,18,18;SOL_COMPUTED,NARROW_INT,0.4335,162.0857,-14.4737,0.0000,0.5868,1.2804,"999",38,32,32,17,3,01,3,f3*f3d12055
$GNGGA,065913.30,3039.10569157,N,12047.28100184,E,4,33,0.6,4.5112,M,9.8161,M,05,0*7C
$GNRMC,065913.30,A,3039.10569157,N,12047.28100184,E,0.019,188.7,170120,5.8,W,D*36
#HEADINGA,COM2,0,51.0,FINE,2088,457171.300,3233685,18,18;SOL_COMPUTED,NARROW_INT,0.4316,161.4769,-13.5845,0.0000,0.5873,1.2857,"999",38,32,32,17,3,01,3,f3*81fb9ca3
$GNGGA,065913.40,3039.10569139,N,12047.28100187,E,4,33,0.6,4.5106,M,9.8161,M,05,0*75
$GNRMC,065913.40,A,3039.10569139,N,12047.28100187,E,0.006,172.7,170120,5.8,W,D*31
#HEADINGA,COM2,0,51.0,FINE,2088,457171.400,3233786,20,18;SOL_COMPUTED,NARROW_INT,0.4326,162.0535,-13.5393,0.0000,0.5858,1.2835,"999",38,32,32,17,3,01,3,f3*68c75355
$GNGGA,065913.50,3039.10569102,N,12047.28100240,E,4,33,0.6,4.5079,M,9.8161,M,05,0*7D
$GNRMC,065913.50,A,3039.10569102,N,12047.28100240,E,0.021,128.9,170120,5.8,W,D*34
#HEADINGA,COM2,0,51.0,FINE,2088,457171.500,3233885,17,18;SOL_COMPUTED,NARROW_INT,0.4318,162.1308,-13.9875,0.0000,0.5876,1.2849,"999",38,32,32,17,3,01,3,f3*4d5cbb51
$GNGGA,065913.60,3039.10569045,N,12047.28100148,E,4,33,0.6,4.5088,M,9.8161,M,05,0*79
$GNRMC,065913.60,A,3039.10569045,N,12047.28100148,E,0.035,234.6,170120,5.8,W,D*3A
#HEADINGA,COM2,0,51.0,FINE,2088,457171.600,3233985,17,18;SOL_COMPUTED,NARROW_INT,0.4323,161.5136,-14.0114,0.0000,0.5878,1.2841,"999",38,32,32,17,3,01,3,f3*897927d3
$GNGGA,065913.70,3039.10569018,N,12047.28100160,E,4,33,0.6,4.5117,M,9.8161,M,05,0*7D
$GNRMC,065913.70,A,3039.10569018,N,12047.28100160,E,0.010,158.8,170120,5.8,W,D*39
#HEADINGA,COM2,0,51.0,FINE,2088,457171.700,3234085,17,18;SOL_COMPUTED,NARROW_INT,0.4317,161.7466,-14.8592,0.0000,0.5906,1.2856,"999",38,32,32,17,3,01,3,f3*0ebdaf92
$GNGGA,065913.80,3039.10569063,N,12047.28100016,E,4,33,0.6,4.5107,M,9.8161,M,05,0*7F
$GNRMC,065913.80,A,3039.10569063,N,12047.28100016,E,0.048,289.8,170120,5.8,W,D*38
#HEADINGA,COM2,0,51.0,FINE,2088,457171.800,3234185,17,18;SOL_COMPUTED,NARROW_INT,0.4342,161.3408,-13.9893,0.0000,0.5852,1.2786,"999",38,32,32,17,3,01,3,f3*0c85af9e
$GNGGA,065913.90,3039.10568972,N,12047.28099992,E,4,33,0.6,4.5101,M,9.8161,M,05,0*74
$GNRMC,065913.90,A,3039.10568972,N,12047.28099992,E,0.034,192.6,170120,5.8,W,D*39
#HEADINGA,COM2,0,51.0,FINE,2088,457171.900,3234285,17,18;SOL_COMPUTED,NARROW_INT,0.4336,161.5485,-14.0804,0.0000,0.5859,1.2799,"999",38,32,32,17,3,01,3,f3*26cda469
#REFSTATIONA,COM2,0,42.0,FINE,2088,457164.000,3232587,1802,18;00000000,-2811044.342,4717820.352,3232735.546,0,RTCMV3,"0000"*ccd19684
$GNGGA,065914.00,3039.10569015,N,12047.28100193,E,4,33,0.6,4.5159,M,9.8161,M,06,0*75
$GNRMC,065914.00,A,3039.10569015,N,12047.28100193,E,0.064,76.2,170120,5.8,W,D*0C
#HEADINGA,COM2,0,51.0,FINE,2088,457172.000,3234385,23,18;SOL_COMPUTED,NARROW_INT,0.4346,161.9632,-14.2081,0.0000,0.5848,1.2772,"999",38,32,32,17,3,01,3,f3*7c1d1886
$GNGGA,065914.10,3039.10568949,N,12047.28100188,E,4,33,0.6,4.5136,M,9.8161,M,06,0*76
$GNRMC,065914.10,A,3039.10568949,N,12047.28100188,E,0.024,184.2,170120,5.8,W,D*3E
#HEADINGA,COM2,0,51.0,FINE,2088,457172.100,3234486,17,18;SOL_COMPUTED,NARROW_INT,0.4339,161.4701,-13.5441,0.0000,0.5845,1.2793,"999",38,32,32,17,3,01,3,f3*ae2f952f
$GNGGA,065914.20,3039.10569094,N,12047.28100093,E,4,33,0.6,4.5074,M,9.8161,M,06,0*71
$GNRMC,065914.20,A,3039.10569094,N,12047.28100093,E,0.060,330.5,170120,5.8,W,D*34
#HEADINGA,COM2,0,51.0,FINE,2088,457172.200,3234587,18,18;SOL_COMPUTED,NARROW_INT,0.4329,161.4977,-13.8375,0.0000,0.5866,1.2823,"999",38,32,32,17,3,01,3,f3*a042dbe9
$GNGGA,065914.30,3039.10568994,N,12047.28100038,E,4,33,0.6,4.5087,M,9.8161,M,05,0*76
$GNRMC,065914.30,A,3039.10568994,N,12047.28100038,E,0.040,205.5,170120,5.8,W,D*39
#HEADINGA,COM2,0,51.0,FINE,2088,457172.300,3234686,17,18;SOL_COMPUTED,NARROW_INT,0.4326,161.5898,-14.4644,0.0000,0.5826,1.2754,"999",38,33,33,17,3,01,3,f3*be79106d
$GNGGA,065914.40,3039.10569050,N,12047.28099986,E,4,33,0.6,4.5000,M,9.8161,M,05,0*73
$GNRMC,065914.40,A,3039.10569050,N,12047.28099986,E,0.026,321.0,170120,5.8,W,D*31
#HEADINGA,COM2,0,51.0,FINE,2088,457172.400,3234785,18,18;SOL_COMPUTED,NARROW_INT,0.4320,161.8377,-13.2013,0.0000,0.5800,1.2765,"999",38,33,33,17,3,01,3,f3*676869fc
$GNGGA,065914.50,3039.10569159,N,12047.28099831,E,4,33,0.6,4.5002,M,9.8161,M,05,0*75
$GNRMC,065914.50,A,3039.10569159,N,12047.28099831,E,0.062,309.2,170120,5.8,W,D*3D
#HEADINGA,COM2,0,51.0,FINE,2088,457172.500,3234885,20,18;SOL_COMPUTED,NARROW_INT,0.4314,161.5656,-14.1951,0.0000,0.5893,1.2864,"999",38,32,32,17,3,01,3,f3*5f538da7
$GNGGA,065914.60,3039.10569082,N,12047.28099829,E,4,33,0.6,4.5046,M,9.8161,M,05,0*78
$GNRMC,065914.60,A,3039.10569082,N,12047.28099829,E,0.028,181.1,170120,5.8,W,D*3F
#HEADINGA,COM2,0,51.0,FINE,2088,457172.600,3234985,17,18;SOL_COMPUTED,NARROW_INT,0.4305,161.6149,-14.1144,0.0000,0.5905,1.2896,"999",38,32,32,17,3,01,3,f3*034c3f83
$GNGGA,065914.70,3039.10569262,N,12047.28099926,E,4,33,0.6,4.4998,M,9.8161,M,05,0*70
$GNRMC,065914.70,A,3039.10569262,N,12047.28099926,E,0.071,24.9,170120,5.8,W,D*06
#HEADINGA,COM2,0,51.0,FINE,2088,457172.700,3235085,16,18;SOL_COMPUTED,NARROW_INT,0.4323,161.9759,-13.6973,0.0000,0.5866,1.2850,"999",38,32,32,17,3,01,3,f3*d9949e2a
$GNGGA,065914.80,3039.10569215,N,12047.28099870,E,4,33,0.6,4.4995,M,9.8161,M,05,0*70
$GNRMC,065914.80,A,3039.10569215,N,12047.28099870,E,0.024,225.7,170120,5.8,W,D*36
#HEADINGA,COM2,0,51.0,FINE,2088,457172.800,3235185,16,18;SOL_COMPUTED,NARROW_INT,0.4325,161.3682,-14.0344,0.0000,0.5875,1.2838,"999",38,32,32,17,3,01,3,f3*83354889
$GNGGA,065914.90,3039.10569158,N,12047.28099827,E,4,33,0.6,4.5005,M,9.8161,M,05,0*78
$GNRMC,065914.90,A,3039.10569158,N,12047.28099827,E,0.024,213.3,170120,5.8,W,D*3E
#HEADINGA,COM2,0,51.0,FINE,2088,457172.900,3235285,16,18;SOL_COMPUTED,NARROW_INT,0.4305,161.4247,-13.1135,0.0000,0.5876,1.2887,"999",38,32,32,17,3,01,3,f3*11c384bf
#REFSTATIONA,COM2,0,51.0,FINE,2088,457164.000,3234587,802,18;00000000,-2811044.342,4717820.352,3232735.546,0,RTCMV3,"0000"*71e3d53b
$GNGGA,065915.00,3039.10569306,N,12047.28099911,E,4,33,0.6,4.4997,M,9.8161,M,06,0*7D
$GNRMC,065915.00,A,3039.10569306,N,12047.28099911,E,0.059,26.0,170120,5.8,W,D*06
#HEADINGA,COM2,0,51.0,FINE,2088,457173.000,3235385,23,18;SOL_COMPUTED,NARROW_INT,0.4331,161.2722,-14.7041,0.0000,0.5862,1.2771,"999",38,32,32,16,3,01,3,f3*acb3daad
$GNGGA,065915.10,3039.10569174,N,12047.28099904,E,4,33,0.6,4.4990,M,9.8161,M,06,0*78
$GNRMC,065915.10,A,3039.10569174,N,12047.28099904,E,0.048,182.4,170120,5.8,W,D*3F
#HEADINGA,COM2,0,51.0,FINE,2088,457173.100,3235485,17,18;SOL_COMPUTED,NARROW_INT,0.4308,161.6631,-14.4045,0.0000,0.5883,1.2842,"999",37,32,32,16,3,01,3,f3*6f292071
$GNGGA,065915.20,3039.10569269,N,12047.28099833,E,4,33,0.6,4.4972,M,9.8161,M,06,0*7D
$GNRMC,065915.20,A,3039.10569269,N,12047.28099833,E,0.041,327.2,170120,5.8,W,D*34
#HEADINGA,COM2,0,51.0,FINE,2088,457173.200,3235587,18,18;SOL_COMPUTED,NARROW_INT,0.4324,161.8889,-13.7100,0.0000,0.5842,1.2797,"999",37,32,32,16,3,01,3,f3*556662e5
$GNGGA,065915.30,3039.10569151,N,12047.28099886,E,4,33,0.6,4.5045,M,9.8161,M,05,0*75
$GNRMC,065915.30,A,3039.10569151,N,12047.28099886,E,0.046,158.7,170120,5.8,W,D*3B
#HEADINGA,COM2,0,51.0,FINE,2088,457173.300,3235686,17,18;SOL_COMPUTED,NARROW_INT,0.4329,160.9897,-14.6930,0.0000,0.5871,1.2839,"999",37,32,32,16,3,01,3,f3*e6f1677b
$GNGGA,065915.40,3039.10569220,N,12047.28099744,E,4,33,0.6,4.5006,M,9.8161,M,05,0*71
$GNRMC,065915.40,A,3039.10569220,N,12047.28099744,E,0.051,299.5,170120,5.8,W,D*32
#HEADINGA,COM2,0,51.0,FINE,2088,457173.400,3235786,17,18;SOL_COMPUTED,NARROW_INT,0.4340,161.5397,-13.0727,0.0000,0.5814,1.3461,"999",37,31,31,16,3,01,3,f3*e33e9ad3
$GNGGA,065915.50,3039.10569186,N,12047.28099880,E,4,33,0.6,4.5042,M,9.8161,M,05,0*78
$GNRMC,065915.50,A,3039.10569186,N,12047.28099880,E,0.044,106.4,170120,5.8,W,D*3B
#HEADINGA,COM2,0,51.0,FINE,2088,457173.500,3235885,17,18;SOL_COMPUTED,NARROW_INT,0.4332,161.6612,-14.1602,0.0000,0.5851,1.3485,"999",37,31,31,16,3,01,3,f3*0dbb3c31
$GNGGA,065915.60,3039.10569045,N,12047.28099884,E,4,33,0.6,4.5049,M,9.8161,M,05,0*7A
$GNRMC,065915.60,A,3039.10569045,N,12047.28099884,E,0.051,178.8,170120,5.8,W,D*33
#HEADINGA,COM2,0,51.0,FINE,2088,457173.600,3235985,20,18;SOL_COMPUTED,NARROW_INT,0.4328,161.6672,-14.4299,0.0000,0.5871,1.3509,"999",37,31,31,16,3,01,3,f3*c54f1700
$GNGGA,065915.70,3039.10568878,N,12047.28099946,E,4,33,0.6,4.5008,M,9.8161,M,05,0*76
$GNRMC,065915.70,A,3039.10568878,N,12047.28099946,E,0.063,162.1,170120,5.8,W,D*39
#HEADINGA,COM2,0,51.0,FINE,2088,457173.700,3236085,17,18;SOL_COMPUTED,NARROW_INT,0.4333,161.8782,-14.0521,0.0000,0.5848,1.3484,"999",37,31,31,16,3,01,3,f3*1ddd4380
$GNGGA,065915.80,3039.10568894,N,12047.28099752,E,4,33,0.6,4.5004,M,9.8161,M,05,0*7C
$GNRMC,065915.80,A,3039.10568894,N,12047.28099752,E,0.061,275.5,170120,5.8,W,D*3C
#HEADINGA,COM2,0,51.0,FINE,2088,457173.800,3236185,17,18;SOL_COMPUTED,NARROW_INT,0.4327,161.4164,-14.4652,0.0000,0.5877,1.3532,"999",37,31,31,16,3,01,3,f3*a8335832
$GNGGA,065915.90,3039.10568723,N,12047.28099905,E,4,33,0.6,4.5090,M,9.8161,M,05,0*7F
$GNRMC,065915.90,A,3039.10568723,N,12047.28099905,E,0.078,142.2,170120,5.8,W,D*3A
#HEADINGA,COM2,0,52.0,FINE,2088,457173.900,3236285,17,18;SOL_COMPUTED,NARROW_INT,0.4340,161.3978,-15.3431,0.0000,0.5883,1.3474,"999",37,31,31,16,3,01,3,f3*ddae1256
#REFSTATIONA,COM2,0,51.0,FINE,2088,457164.000,3235587,802,18;00000000,-2811044.342,4717820.352,3232735.546,0,RTCMV3,"0000"*862f8935
$GNGGA,065916.00,3039.10568844,N,12047.28099949,E,4,33,0.6,4.5072,M,9.8161,M,06,0*7C
$GNRMC,065916.00,A,3039.10568844,N,12047.28099949,E,0.046,17.6,170120,5.8,W,D*0E
#HEADINGA,COM2,0,52.0,FINE,2088,457174.000,3236385,22,18;SOL_COMPUTED,NARROW_INT,0.4330,161.6215,-14.5194,0.0000,0.5869,1.3499,"999",37,31,31,16,3,01,3,f3*907e0459
$GNGGA,065916.10,3039.10568826,N,12047.28100011,E,4,33,0.6,4.5114,M,9.8161,M,06,0*7D
$GNRMC,065916.10,A,3039.10568826,N,12047.28100011,E,0.020,108.7,170120,5.8,W,D*30
#HEADINGA,COM2,0,52.0,FINE,2088,457174.100,3236486,17,18;SOL_COMPUTED,NARROW_INT,0.4315,161.5192,-15.2958,0.0000,0.5915,1.3554,"999",37,31,31,16,3,01,3,f3*a98ff57a
$GNGGA,065916.20,3039.10568920,N,12047.28099871,E,4,33,0.6,4.5060,M,9.8161,M,06,0*74
$GNRMC,065916.20,A,3039.10568920,N,12047.28099871,E,0.055,307.6,170120,5.8,W,D*35
#HEADINGA,COM2,0,52.0,FINE,2088,457174.200,3236587,17,18;SOL_COMPUTED,NARROW_INT,0.4333,161.0970,-14.2027,0.0000,0.5864,1.3503,"999",37,31,31,16,3,01,3,f3*d1cfc82e
$GNGGA,065916.30,3039.10568870,N,12047.28099961,E,4,33,0.6,4.5086,M,9.8161,M,06,0*79
$GNRMC,065916.30,A,3039.10568870,N,12047.28099961,E,0.033,122.4,170120,5.8,W,D*37
#HEADINGA,COM2,0,52.0,FINE,2088,457174.300,3236686,17,18;SOL_COMPUTED,NARROW_INT,0.4331,161.9137,-13.8485,0.0000,0.5818,1.3466,"999",37,32,32,17,3,01,3,f3*3fe5fafc
$GNGGA,065916.40,3039.10568843,N,12047.28099913,E,4,33,0.6,4.5074,M,9.8161,M,06,0*76
$GNRMC,065916.40,A,3039.10568843,N,12047.28099913,E,0.018,237.1,170120,5.8,W,D*3E
#HEADINGA,COM2,0,52.0,FINE,2088,457174.400,3236786,17,18;SOL_COMPUTED,NARROW_INT,0.4343,161.6134,-14.9129,0.0000,0.5834,1.3444,"999",37,32,32,17,3,01,3,f3*dea14251
$GNGGA,065916.50,3039.10568741,N,12047.28099851,E,4,33,0.6,4.5039,M,9.8161,M,06,0*74
$GNRMC,065916.50,A,3039.10568741,N,12047.28099851,E,0.042,207.8,170120,5.8,W,D*30
#HEADINGA,COM2,0,52.0,FINE,2088,457174.500,3236885,18,18;SOL_COMPUTED,NARROW_INT,0.4323,161.7894,-14.3870,0.0000,0.5843,1.3493,"999",37,32,32,17,3,01,3,f3*b728ba97
$GNGGA,065916.60,3039.10568855,N,12047.28099813,E,4,33,0.6,4.5099,M,9.8161,M,06,0*71
$GNRMC,065916.60,A,3039.10568855,N,12047.28099813,E,0.043,343.7,170120,5.8,W,D*30
#HEADINGA,COM2,0,52.0,FINE,2088,457174.600,3236985,20,18;SOL_COMPUTED,NARROW_INT,0.4309,161.5955,-14.3599,0.0000,0.5860,1.3524,"999",37,32,32,17,3,01,3,f3*fbdd01f2
$GNGGA,065916.70,3039.10568809,N,12047.28099742,E,4,33,0.6,4.5084,M,9.8161,M,06,0*7E
$GNRMC,065916.70,A,3039.10568809,N,12047.28099742,E,0.027,233.2,170120,5.8,W,D*32
#HEADINGA,COM2,0,52.0,FINE,2088,457174.700,3237085,17,18;SOL_COMPUTED,NARROW_INT,0.4317,161.6439,-14.1527,0.0000,0.5843,1.3499,"999",37,32,32,17,3,01,3,f3*c11bf625
$GNGGA,065916.80,3039.10568813,N,12047.28099986,E,4,33,0.6,4.5179,M,9.8161,M,06,0*7F
$GNRMC,065916.80,A,3039.10568813,N,12047.28099986,E,0.076,89.0,170120,5.8,W,D*05
#HEADINGA,COM2,0,52.0,FINE,2088,457174.800,3237185,17,18;SOL_COMPUTED,NARROW_INT,0.4347,161.8353,-15.0802,0.0000,0.5824,1.3405,"999",37,32,32,17,3,01,3,f3*20e742cd
$GNGGA,065916.90,3039.10568871,N,12047.28099797,E,4,33,0.6,4.5101,M,9.8161,M,06,0*7B
$GNRMC,065916.90,A,3039.10568871,N,12047.28099797,E,0.062,289.7,170120,5.8,W,D*3E
#HEADINGA,COM2,0,52.0,FINE,2088,457174.900,3237285,16,18;SOL_COMPUTED,NARROW_INT,0.4328,161.4462,-13.2410,0.0000,0.5808,1.3464,"999",37,32,32,17,3,01,3,f3*6528fe7f
#REFSTATIONA,COM2,0,51.0,FINE,2088,457164.000,3235587,1802,18;00000000,-2811044.342,4717820.352,3232735.546,0,RTCMV3,"0000"*1d3ec39b
$GNGGA,065917.00,3039.10568877,N,12047.28099842,E,4,33,0.6,4.5101,M,9.8161,M,07,0*73
$GNRMC,065917.00,A,3039.10568877,N,12047.28099842,E,0.014,82.3,170120,5.8,W,D*0B
#HEADINGA,COM2,0,52.0,FINE,2088,457175.000,3237385,23,18;SOL_COMPUTED,NARROW_INT,0.4361,161.4468,-14.5272,0.0000,0.5800,1.3374,"999",37,32,32,17,3,01,3,f3*106ac5ac
$GNGGA,065917.10,3039.10568823,N,12047.28099908,E,4,33,0.6,4.5132,M,9.8161,M,07,0*7C
$GNRMC,065917.10,A,3039.10568823,N,12047.28099908,E,0.028,132.8,170120,5.8,W,D*3A
#HEADINGA,COM2,0,52.0,FINE,2088,457175.100,3237485,18,18;SOL_COMPUTED,NARROW_INT,0.4327,161.6355,-14.4199,0.0000,0.5839,1.3477,"999",37,32,32,17,3,01,3,f3*8cfb0b9c
$GNGGA,065917.20,3039.10568774,N,12047.28099891,E,4,33,0.6,4.5083,M,9.8161,M,07,0*78
$GNRMC,065917.20,A,3039.10568774,N,12047.28099891,E,0.018,197.1,170120,5.8,W,D*30
#HEADINGA,COM2,0,52.0,FINE,2088,457175.200,3237587,17,18;SOL_COMPUTED,NARROW_INT,0.4298,161.3652,-14.6560,0.0000,0.5888,1.3570,"999",37,32,32,17,3,01,3,f3*8f2c04b9
$GNGGA,065917.30,3039.10568690,N,12047.28099800,E,4,32,0.6,4.5151,M,9.8161,M,06,0*74
$GNRMC,065917.30,A,3039.10568690,N,12047.28099800,E,0.041,223.3,170120,5.8,W,D*30
#HEADINGA,COM2,0,52.0,FINE,2088,457175.300,3237686,17,18;SOL_COMPUTED,NARROW_INT,0.4320,161.2620,-14.6425,0.0000,0.5858,1.3517,"999",37,32,32,17,3,01,3,f3*9e97f2b0
$GNGGA,065917.40,3039.10568749,N,12047.28099844,E,4,32,0.6,4.5140,M,9.8161,M,06,0*76
$GNRMC,065917.40,A,3039.10568749,N,12047.28099844,E,0.025,33.4,170120,5.8,W,D*04
#HEADINGA,COM2,0,52.0,FINE,2088,457175.400,3237786,17,18;SOL_COMPUTED,NARROW_INT,0.4332,161.9547,-14.6021,0.0000,0.5835,1.3476,"999",37,32,32,17,3,01,3,f3*787e49cf
$GNGGA,065917.50,3039.10568749,N,12047.28099748,E,4,32,0.6,4.5099,M,9.8161,M,06,0*71
$GNRMC,065917.50,A,3039.10568749,N,12047.28099748,E,0.030,270.0,170120,5.8,W,D*33
#HEADINGA,COM2,0,52.0,FINE,2088,457175.500,3237886,17,18;SOL_COMPUTED,NARROW_INT,0.4340,161.3118,-14.5538,0.0000,0.5830,1.3454,"999",37,32,32,17,3,01,3,f3*97b4f1f2
$GNGGA,065917.60,3039.10568717,N,12047.28099680,E,4,32,0.6,4.5110,M,9.8161,M,06,0*7C
$GNRMC,065917.60,A,3039.10568717,N,12047.28099680,E,0.024,241.8,170120,5.8,W,D*31
#HEADINGA,COM2,0,52.0,FINE,2088,457175.600,3237986,17,18;SOL_COMPUTED,NARROW_INT,0.4323,161.3216,-14.7100,0.0000,0.5855,1.3505,"999",37,32,32,17,3,01,3,f3*b9dd7e98
$GNGGA,065917.70,3039.10568631,N,12047.28099870,E,4,32,0.6,4.5108,M,9.8161,M,06,0*70
$GNRMC,065917.70,A,3039.10568631,N,12047.28099870,E,0.067,117.5,170120,5.8,W,D*3E
#HEADINGA,COM2,0,52.0,FINE,2088,457175.700,3238085,18,18;SOL_COMPUTED,NARROW_INT,0.4335,161.4741,-14.5867,0.0000,0.5835,1.3459,"999",37,32,32,17,3,01,3,f3*dc1b79cb
$GNGGA,065917.80,3039.10568674,N,12047.28099783,E,4,32,0.6,4.5117,M,9.8161,M,06,0*73
$GNRMC,065917.80,A,3039.10568674,N,12047.28099783,E,0.031,299.3,170120,5.8,W,D*33
#HEADINGA,COM2,0,52.0,FINE,2088,457175.800,3238185,18,18;SOL_COMPUTED,NARROW_INT,0.4335,161.5777,-15.3226,0.0000,0.5853,1.3463,"999",37,32,32,17,3,01,3,f3*fc1ae9ad
$GNGGA,065917.90,3039.10568881,N,12047.28099617,E,4,32,0.6,4.4969,M,9.8161,M,06,0*7A
$GNRMC,065917.90,A,3039.10568881,N,12047.28099617,E,0.090,325.2,170120,5.8,W,D*36
#HEADINGA,COM2,0,52.0,FINE,2088,457175.900,3238285,20,18;SOL_COMPUTED,NARROW_INT,0.4325,161.2324,-14.2899,0.0000,0.5843,1.3501,"999",37,32,32,17,3,01,3,f3*7e270904
#REFSTATIONA,COM2,0,52.0,FINE,2088,457164.000,3237587,803,18;00000000,-2811044.342,4717820.352,3232735.546,0,RTCMV3,"0000"*b3030c77
$GNGGA,065918.00,3039.10568802,N,12047.28099753,E,4,33,0.6,4.5028,M,9.8161,M,07,0*7B
$GNRMC,065918.00,A,3039.10568802,N,12047.28099753,E,0.051,123.8,170120,5.8,W,D*39
#HEADINGA,COM2,0,52.0,FINE,2088,457176.000,3238385,23,18;SOL_COMPUTED,NARROW_INT,0.4309,161.6733,-14.8954,0.0000,0.5877,1.3549,"999",37,32,32,17,3,01,3,f3*82e607c9
$GNGGA,065918.10,3039.10568738,N,12047.28099802,E,4,33,0.6,4.5050,M,9.8161,M,07,0*78
$GNRMC,065918.10,A,3039.10568738,N,12047.28099802,E,0.027,146.7,170120,5.8,W,D*38
#HEADINGA,COM2,0,52.0,FINE,2088,457176.100,3238486,17,18;SOL_COMPUTED,NARROW_INT,0.4347,161.6263,-15.0729,0.0000,0.5836,1.3442,"999",37,32,32,17,3,01,3,f3*f24196bd
$GNGGA,065918.20,3039.10568749,N,12047.28099760,E,4,33,0.6,4.5055,M,9.8161,M,07,0*73
$GNRMC,065918.20,A,3039.10568749,N,12047.28099760,E,0.014,287.5,170120,5.8,W,D*3A
#HEADINGA,COM2,0,52.0,FINE,2088,457176.200,3238587,17,18;SOL_COMPUTED,NARROW_INT,0.4324,161.4966,-14.7959,0.0000,0.5863,1.3521,"999",37,32,32,17,3,01,3,f3*41abd704
$GNGGA,065918.30,3039.10568776,N,12047.28099748,E,4,33,0.6,4.5143,M,9.8161,M,06,0*73
$GNRMC,065918.30,A,3039.10568776,N,12047.28099748,E,0.010,339.1,170120,5.8,W,D*39
#HEADINGA,COM2,0,52.0,FINE,2088,457176.300,3238686,17,18;SOL_COMPUTED,NARROW_INT,0.4339,161.4777,-15.0893,0.0000,0.5845,1.3460,"999",37,32,32,17,3,01,3,f3*6d399abf
$GNGGA,065918.40,3039.10568753,N,12047.28099760,E,4,33,0.6,4.5059,M,9.8161,M,06,0*73
$GNRMC,065918.40,A,3039.10568753,N,12047.28099760,E,0.009,156.8,170120,5.8,W,D*39
#HEADINGA,COM2,0,52.0,FINE,2088,457176.400,3238786,17,18;SOL_COMPUTED,NARROW_INT,0.4300,161.5167,-14.1420,0.0000,0.5878,1.3593,"999",37,32,32,17,3,01,3,f3*80799e37
$GNGGA,065918.50,3039.10568820,N,12047.28099712,E,4,33,0.6,4.5065,M,9.8161,M,06,0*73
$GNRMC,065918.50,A,3039.10568820,N,12047.28099712,E,0.028,328.4,170120,5.8,W,D*32
#HEADINGA,COM2,0,52.0,FINE,2088,457176.500,3238886,17,18;SOL_COMPUTED,NARROW_INT,0.4328,161.4852,-14.4258,0.0000,0.5842,1.3554,"999",37,32,32,17,3,01,3,f3*897fa8de
$GNGGA,065918.60,3039.10568750,N,12047.28099782,E,4,33,0.6,4.5056,M,9.8161,M,06,0*71
$GNRMC,065918.60,A,3039.10568750,N,12047.28099782,E,0.033,139.2,170120,5.8,W,D*3E
#HEADINGA,COM2,0,52.0,FINE,2088,457176.600,3238985,18,18;SOL_COMPUTED,NARROW_INT,0.4333,161.8403,-14.3647,0.0000,0.5836,1.3547,"999",37,32,32,17,3,01,3,f3*498f307b
$GNGGA,065918.70,3039.10568726,N,12047.28099747,E,4,33,0.6,4.5095,M,9.8161,M,06,0*77
$GNRMC,065918.70,A,3039.10568726,N,12047.28099747,E,0.014,230.6,170120,5.8,W,D*3C
#HEADINGA,COM2,0,52.0,FINE,2088,457176.700,3239085,18,18;SOL_COMPUTED,NARROW_INT,0.4343,161.5817,-14.5424,0.0000,0.5830,1.3456,"999",37,32,32,17,3,01,3,f3*f264f6c2
$GNGGA,065918.80,3039.10568754,N,12047.28099818,E,4,33,0.6,4.5120,M,9.8161,M,06,0*77
$GNRMC,065918.80,A,3039.10568754,N,12047.28099818,E,0.024,64.9,170120,5.8,W,D*0C
#HEADINGA,COM2,0,52.0,FINE,2088,457176.800,3239185,20,18;SOL_COMPUTED,NARROW_INT,0.4327,161.8887,-14.7643,0.0000,0.5852,1.3563,"999",37,32,32,17,3,01,3,f3*d690f030
$GNGGA,065918.90,3039.10568886,N,12047.28099809,E,4,33,0.6,4.5085,M,9.8161,M,06,0*78
$GNRMC,065918.90,A,3039.10568886,N,12047.28099809,E,0.047,356.6,170120,5.8,W,D*35
#HEADINGA,COM2,0,29.0,FINE,2088,457176.900,3239285,17,18;SOL_COMPUTED,NARROW_INT,0.4341,161.7739,-13.5061,0.0000,0.5802,1.3518,"999",37,32,32,17,3,01,3,f3*90f1b572
#REFSTATIONA,COM2,0,52.0,FINE,2088,457164.000,3238587,802,18;00000000,-2811044.342,4717820.352,3232735.546,0,RTCMV3,"0000"*83bac6f5
$GNGGA,065919.00,3039.10568692,N,12047.28099990,E,4,33,0.6,4.5173,M,9.8161,M,07,0*73
$GNRMC,065919.00,A,3039.10568692,N,12047.28099990,E,0.089,140.9,170120,5.8,W,D*3F
#HEADINGA,COM2,0,29.0,FINE,2088,457177.000,3239385,23,18;SOL_COMPUTED,NARROW_INT,0.4329,161.9885,-15.3556,0.0000,0.5870,1.3564,"999",37,32,32,17,3,01,3,f3*69cb759d
$GNGGA,065919.10,3039.10568774,N,12047.28099830,E,4,33,0.6,4.5103,M,9.8161,M,07,0*77
$GNRMC,065919.10,A,3039.10568774,N,12047.28099830,E,0.058,300.6,170120,5.8,W,D*39
#HEADINGA,COM2,0,29.0,FINE,2088,457177.100,3239485,17,18;SOL_COMPUTED,NARROW_INT,0.4328,161.6664,-14.0956,0.0000,0.5834,1.3558,"999",37,32,32,17,3,01,3,f3*f65e18bd
$GNGGA,065919.20,3039.10568782,N,12047.28099807,E,4,33,0.6,4.5071,M,9.8161,M,07,0*7D
$GNRMC,065919.20,A,3039.10568782,N,12047.28099807,E,0.008,292.7,170120,5.8,W,D*39
#HEADINGA,COM2,0,29.0,FINE,2088,457177.200,3239586,18,18;SOL_COMPUTED,NARROW_INT,0.4333,161.5718,-13.9545,0.0000,0.5825,1.3531,"999",37,32,32,17,3,01,3,f3*563f4c9a
$GNGGA,065919.30,3039.10568807,N,12047.28099863,E,4,33,0.6,4.5091,M,9.8161,M,05,0*70
$GNRMC,065919.30,A,3039.10568807,N,12047.28099863,E,0.020,63.3,170120,5.8,W,D*0A
#HEADINGA,COM2,0,29.0,FINE,2088,457177.300,3239685,17,18;SOL_COMPUTED,NARROW_INT,0.4328,161.6733,-14.7949,0.0000,0.5860,1.3550,"999",37,32,32,17,3,01,3,f3*d2d49908
$GNGGA,065919.40,3039.10568816,N,12047.28099857,E,4,33,0.6,4.5068,M,9.8161,M,05,0*76
$GNRMC,065919.40,A,3039.10568816,N,12047.28099857,E,0.004,332.9,170120,5.8,W,D*31
#HEADINGA,COM2,0,29.0,FINE,2088,457177.400,3239785,17,18;SOL_COMPUTED,NARROW_INT,0.4312,161.6276,-14.0597,0.0000,0.5864,1.3605,"999",37,32,32,17,3,01,3,f3*be38b4e5
$GNGGA,065919.50,3039.10568790,N,12047.28099876,E,4,33,0.6,4.5108,M,9.8161,M,05,0*72
$GNRMC,065919.50,A,3039.10568790,N,12047.28099876,E,0.011,148.4,170120,5.8,W,D*34
#HEADINGA,COM2,0,29.0,FINE,2088,457177.500,3239885,16,18;SOL_COMPUTED,NARROW_INT,0.4299,161.5096,-14.5400,0.0000,0.5895,1.3647,"999",37,32,32,17,3,01,3,f3*dbe0181a
$GNGGA,065919.60,3039.10568808,N,12047.28099875,E,4,33,0.6,4.5115,M,9.8161,M,05,0*70
$GNRMC,065919.60,A,3039.10568808,N,12047.28099875,E,0.007,357.1,170120,5.8,W,D*34
#HEADINGA,COM2,0,29.0,FINE,2088,457177.600,3239985,17,18;SOL_COMPUTED,NARROW_INT,0.4328,161.7923,-14.3526,0.0000,0.5847,1.3552,"999",37,32,32,17,3,01,3,f3*0422dcc8
$GNGGA,065919.70,3039.10568736,N,12047.28099826,E,4,33,0.6,4.5136,M,9.8161,M,05,0*74
$GNRMC,065919.70,A,3039.10568736,N,12047.28099826,E,0.030,210.3,170120,5.8,W,D*35
#HEADINGA,COM2,0,29.0,FINE,2088,457177.700,3240085,16,18;SOL_COMPUTED,NARROW_INT,0.4349,161.3210,-15.2365,0.0000,0.5845,1.3481,"999",37,32,32,17,3,01,3,f3*a8428426
$GNGGA,065919.80,3039.10568690,N,12047.28099859,E,4,34,0.6,4.5188,M,9.8161,M,05,0*7C
$GNRMC,065919.80,A,3039.10568690,N,12047.28099859,E,0.020,147.8,170120,5.8,W,D*34
#HEADINGA,COM2,0,29.0,FINE,2088,457177.800,3240185,16,18;SOL_COMPUTED,NARROW_INT,0.4330,161.8488,-14.8817,0.0000,0.5854,1.3534,"999",37,32,32,17,3,01,3,f3*c30cf270
$GNGGA,065919.90,3039.10568685,N,12047.28099903,E,4,33,0.6,4.5140,M,9.8161,M,05,0*74
$GNRMC,065919.90,A,3039.10568685,N,12047.28099903,E,0.014,98.0,170120,5.8,W,D*03
#HEADINGA,COM2,0,29.0,FINE,2088,457177.900,3240285,16,18;SOL_COMPUTED,NARROW_INT,0.4333,161.7640,-14.2187,0.0000,0.5832,1.3524,"999",37,32,32,17,3,01,3,f3*db0317ee
#REFSTATIONA,COM2,0,29.0,FINE,2088,457164.000,3239586,803,18;00000000,-2811044.342,4717820.352,3232735.546,0,RTCMV3,"0000"*37d0b290
$GNGGA,065920.00,3039.10568781,N,12047.28100012,E,4,33,0.6,4.5172,M,9.8161,M,06,0*78
$GNRMC,065920.00,A,3039.10568781,N,12047.28100012,E,0.048,44.3,170120,5.8,W,D*06
#HEADINGA,COM2,0,29.0,FINE,2088,457178.000,3240385,22,18;SOL_COMPUTED,NARROW_INT,0.4316,161.7334,-14.7150,0.0000,0.5876,1.3590,"999",37,32,32,17,3,01,3,f3*5bbc281f
$GNGGA,065920.10,3039.10568877,N,12047.28100007,E,4,33,0.6,4.5084,M,9.8161,M,06,0*73
$GNRMC,065920.10,A,3039.10568877,N,12047.28100007,E,0.034,357.4,170120,5.8,W,D*38
#HEADINGA,COM2,0,29.0,FINE,2088,457178.100,3240485,17,18;SOL_COMPUTED,NARROW_INT,0.4331,161.8694,-13.8422,0.0000,0.5832,1.3542,"999",37,32,32,17,3,01,3,f3*d7bcdde9
$GNGGA,065920.20,3039.10568855,N,12047.28099809,E,4,33,0.6,4.5031,M,9.8161,M,06,0*79
$GNRMC,065920.20,A,3039.10568855,N,12047.28099809,E,0.062,262.7,170120,5.8,W,D*3B
#HEADINGA,COM2,0,29.0,FINE,2088,457178.200,3240586,17,18;SOL_COMPUTED,NARROW_INT,0.4328,161.4986,-14.9895,0.0000,0.5869,1.3549,"999",37,32,32,17,3,01,3,f3*81807251
$GNGGA,065920.30,3039.10568773,N,12047.28099886,E,4,33,0.6,4.5096,M,9.8161,M,06,0*79
$GNRMC,065920.30,A,3039.10568773,N,12047.28099886,E,0.038,140.8,170120,5.8,W,D*35
#HEADINGA,COM2,0,29.0,FINE,2088,457178.300,3240685,17,18;SOL_COMPUTED,NARROW_INT,0.4316,161.5515,-14.5360,0.0000,0.5867,1.3600,"999",37,32,32,17,3,01,3,f3*ec9ac8f8
$GNGGA,065920.40,3039.10568827,N,12047.28099859,E,4,33,0.6,4.5088,M,9.8161,M,06,0*7D
$GNRMC,065920.40,A,3039.10568827,N,12047.28099859,E,0.021,336.2,170120,5.8,W,D*3F
#HEADINGA,COM2,0,29.0,FINE,2088,457178.400,3240785,17,18;SOL_COMPUTED,NARROW_INT,0.4321,161.3664,-14.5800,0.0000,0.5863,1.3586,"999",37,32,32,17,3,01,3,f3*19885b7a
$GNGGA,065920.50,3039.10568796,N,12047.28099852,E,4,33,0.6,4.5094,M,9.8161,M,06,0*7F
$GNRMC,065920.50,A,3039.10568796,N,12047.28099852,E,0.011,190.2,170120,5.8,W,D*3D
#HEADINGA,COM2,0,29.0,FINE,2088,457178.500,3240885,17,18;SOL_COMPUTED,NARROW_INT,0.4343,161.7872,-15.1894,0.0000,0.5846,1.3511,"999",37,32,32,17,3,01,3,f3*d85706c7
$GNGGA,065920.60,3039.10568734,N,12047.28099805,E,4,33,0.6,4.5115,M,9.8161,M,06,0*7E
$GNRMC,065920.60,A,3039.10568734,N,12047.28099805,E,0.027,213.6,170120,5.8,W,D*3D
#HEADINGA,COM2,0,29.0,FINE,2088,457178.600,3240985,17,18;SOL_COMPUTED,NARROW_INT,0.4312,161.5257,-14.3157,0.0000,0.5862,1.3605,"999",37,32,32,17,3,01,3,f3*be5377ea
$GNGGA,065920.70,3039.10568817,N,12047.28099916,E,4,33,0.6,4.5092,M,9.8161,M,06,0*7C
$GNRMC,065920.70,A,3039.10568817,N,12047.28099916,E,0.046,49.1,170120,5.8,W,D*0C
#HEADINGA,COM2,0,29.0,FINE,2088,457178.700,3241085,17,18;SOL_COMPUTED,NARROW_INT,0.4340,161.5992,-13.7685,0.0000,0.5813,1.3526,"999",37,32,32,17,3,01,3,f3*6e49c08d
$GNGGA,065920.80,3039.10568662,N,12047.28099745,E,4,33,0.6,4.5120,M,9.8161,M,06,0*7F
$GNRMC,065920.80,A,3039.10568662,N,12047.28099745,E,0.077,223.6,170120,5.8,W,D*3C
#HEADINGA,COM2,0,29.0,FINE,2088,457178.800,3241185,17,18;SOL_COMPUTED,NARROW_INT,0.4318,161.4951,-14.8344,0.0000,0.5867,1.3581,"999",37,32,32,17,3,01,3,f3*ccdcf284
$GNGGA,065920.90,3039.10568710,N,12047.28099867,E,4,33,0.6,4.5120,M,9.8161,M,06,0*75
$GNRMC,065920.90,A,3039.10568710,N,12047.28099867,E,0.042,65.3,170120,5.8,W,D*05
#HEADINGA,COM2,0,29.0,FINE,2088,457178.900,3241285,17,18;SOL_COMPUTED,NARROW_INT,0.4351,161.6616,-15.1229,0.0000,0.5828,1.3469,"999",37,32,32,17,3,01,3,f3*b461847b
#REFSTATIONA,COM2,0,29.0,FINE,2088,457164.000,3239586,1803,18;00000000,-2811044.342,4717820.352,3232735.546,0,RTCMV3,"0000"*7f9b2280
$GNGGA,065921.00,3039.10568782,N,12047.28099987,E,4,33,0.6,4.5060,M,9.8161,M,07,0*7D
$GNRMC,065921.00,A,3039.10568782,N,12047.28099987,E,0.045,55.5,170120,5.8,W,D*0B
#HEADINGA,COM2,0,29.0,FINE,2088,457179.000,3241385,24,18;SOL_COMPUTED,NARROW_INT,0.4293,161.9046,-13.9720,0.0000,0.5872,1.3594,"999",37,32,32,17,3,01,3,f3*09e18f84
$GNGGA,065921.10,3039.10568841,N,12047.28099988,E,4,33,0.6,4.5047,M,9.8161,M,07,0*76
$GNRMC,065921.10,A,3039.10568841,N,12047.28099988,E,0.021,1.3,170120,5.8,W,D*30
#HEADINGA,COM2,0,29.0,FINE,2088,457179.100,3241485,18,18;SOL_COMPUTED,NARROW_INT,0.4338,162.6721,-14.3310,0.0000,0.5811,1.3448,"999",37,32,32,17,3,01,3,f3*d7baf008
$GNGGA,065921.20,3039.10568770,N,12047.28099790,E,4,33,0.6,4.5019,M,9.8161,M,07,0*74
$GNRMC,065921.20,A,3039.10568770,N,12047.28099790,E,0.067,247.4,170120,5.8,W,D*3C
#HEADINGA,COM2,0,29.0,FINE,2088,457179.200,3241586,18,18;SOL_COMPUTED,NARROW_INT,0.4332,161.9545,-14.2750,0.0000,0.5829,1.3473,"999",37,32,32,17,3,01,3,f3*58d7b97a
$GNGGA,065921.30,3039.10568640,N,12047.28100100,E,4,33,0.6,4.5156,M,9.8161,M,07,0*73
$GNRMC,065921.30,A,3039.10568640,N,12047.28100100,E,0.107,115.9,170120,5.8,W,D*3F
#HEADINGA,COM2,0,29.0,FINE,2088,457179.300,3241685,17,18;SOL_COMPUTED,NARROW_INT,0.4303,162.1516,-14.7535,0.0000,0.5768,1.2438,"999",37,33,33,17,3,01,3,f3*517a2d29
$GNGGA,065921.40,3039.10568678,N,12047.28099951,E,4,33,0.6,4.5066,M,9.8161,M,07,0*70
$GNRMC,065921.40,A,3039.10568678,N,12047.28099951,E,0.048,286.5,170120,5.8,W,D*31
#HEADINGA,COM2,0,29.0,FINE,2088,457179.400,3241785,17,18;SOL_COMPUTED,NARROW_INT,0.4297,161.5581,-14.0643,0.0000,0.5767,1.2459,"999",37,33,33,17,3,01,3,f3*a2a7ef6b
$GNGGA,065921.50,3039.10568772,N,12047.28099867,E,4,33,0.6,4.5013,M,9.8161,M,07,0*7C
$GNRMC,065921.50,A,3039.10568772,N,12047.28099867,E,0.043,322.3,170120,5.8,W,D*3D
#HEADINGA,COM2,0,29.0,FINE,2088,457179.500,3241885,17,18;SOL_COMPUTED,NARROW_INT,0.4313,161.4468,-14.4322,0.0000,0.5753,1.2371,"999",37,33,33,17,3,01,3,f3*2cc30ca6
$GNGGA,065921.60,3039.10568691,N,12047.28100001,E,4,33,0.6,4.5075,M,9.8161,M,07,0*7A
$GNRMC,065921.60,A,3039.10568691,N,12047.28100001,E,0.051,124.8,170120,5.8,W,D*37
#HEADINGA,COM2,0,29.0,FINE,2088,457179.600,3241985,16,18;SOL_COMPUTED,NARROW_INT,0.4338,161.8971,-13.5932,0.0000,0.5695,1.2297,"999",37,33,33,17,3,01,3,f3*a2aeb363
$GNGGA,065921.70,3039.10568628,N,12047.28099875,E,4,33,0.6,4.5105,M,9.8161,M,07,0*75
$GNRMC,065921.70,A,3039.10568628,N,12047.28099875,E,0.045,239.9,170120,5.8,W,D*35
#HEADINGA,COM2,0,29.0,FINE,2088,457179.700,3242084,17,18;SOL_COMPUTED,NARROW_INT,0.4336,161.8525,-14.0690,0.0000,0.5712,1.2357,"999",37,33,33,17,3,01,3,f3*7b88c646
$GNGGA,065921.80,3039.10568594,N,12047.28099910,E,4,33,0.6,4.5134,M,9.8161,M,07,0*7E
$GNRMC,065921.80,A,3039.10568594,N,12047.28099910,E,0.016,138.5,170120,5.8,W,D*34
#HEADINGA,COM2,0,29.0,FINE,2088,457179.800,3242185,16,18;SOL_COMPUTED,NARROW_INT,0.4323,161.3990,-14.4031,0.0000,0.5747,1.2397,"999",37,33,33,17,3,01,3,f3*52b21bc4
$GNGGA,065921.90,3039.10568637,N,12047.28099929,E,4,33,0.6,4.5132,M,9.8161,M,07,0*79
$GNRMC,065921.90,A,3039.10568637,N,12047.28099929,E,0.016,20.4,170120,5.8,W,D*0C
#HEADINGA,COM2,0,29.0,FINE,2088,457179.900,3242285,16,18;SOL_COMPUTED,NARROW_INT,0.4334,161.5073,-14.3692,0.0000,0.5729,1.2363,"999",37,33,33,17,3,01,3,f3*6567cecb
#REFSTATIONA,COM2,0,29.0,FINE,2088,457164.000,3239586,2803,18;00000000,-2811044.342,4717820.352,3232735.546,0,RTCMV3,"0000"*dbe5a045
$GNGGA,065922.00,3039.10568580,N,12047.28099918,E,4,33,0.6,4.5036,M,9.8161,M,08,0*74
$GNRMC,065922.00,A,3039.10568580,N,12047.28099918,E,0.021,189.1,170120,5.8,W,D*38
#HEADINGA,COM2,0,62.0,FINE,2088,457180.000,3242385,22,18;SOL_COMPUTED,NARROW_INT,0.4310,161.9093,-14.8541,0.0000,0.5769,1.2448,"999",37,33,33,17,3,01,3,f3*db7d6b22
$GNGGA,065922.10,3039.10568680,N,12047.28099725,E,4,33,0.6,4.5064,M,9.8161,M,08,0*71
$GNRMC,065922.10,A,3039.10568680,N,12047.28099725,E,0.070,300.9,170120,5.8,W,D*35
#HEADINGA,COM2,0,62.0,FINE,2088,457180.100,3242485,17,18;SOL_COMPUTED,NARROW_INT,0.4320,161.6426,-13.2051,0.0000,0.5717,1.2414,"999",37,33,33,17,3,01,3,f3*42fdb0d2
$GNGGA,065922.20,3039.10568507,N,12047.28099986,E,4,33,0.6,4.5138,M,9.8161,M,08,0*71
$GNRMC,065922.20,A,3039.10568507,N,12047.28099986,E,0.102,127.6,170120,5.8,W,D*31
#HEADINGA,COM2,0,62.0,FINE,2088,457180.200,3242586,18,18;SOL_COMPUTED,NARROW_INT,0.4329,161.5143,-14.2155,0.0000,0.5732,1.2376,"999",37,33,33,17,3,01,3,f3*fc560b95
$GNGGA,065922.30,3039.10568516,N,12047.28099906,E,4,33,0.6,4.5064,M,9.8161,M,07,0*7F
$GNRMC,065922.30,A,3039.10568516,N,12047.28099906,E,0.025,277.4,170120,5.8,W,D*38
#HEADINGA,COM2,0,62.0,FINE,2088,457180.300,3242685,17,18;SOL_COMPUTED,NARROW_INT,0.4310,161.7282,-13.5848,0.0000,0.5734,1.2424,"999",37,33,33,17,3,01,3,f3*486b6e2c
$GNGGA,065922.40,3039.10568517,N,12047.28100030,E,4,33,0.6,4.5134,M,9.8161,M,07,0*70
$GNRMC,065922.40,A,3039.10568517,N,12047.28100030,E,0.038,89.4,170120,5.8,W,D*0C
#HEADINGA,COM2,0,62.0,FINE,2088,457180.400,3242785,18,18;SOL_COMPUTED,NARROW_INT,0.4331,161.7390,-15.4658,0.0000,0.5754,1.2364,"999",37,33,33,17,3,01,3,f3*2e8bba77
$GNGGA,065922.50,3039.10568632,N,12047.28100041,E,4,33,0.6,4.5100,M,9.8161,M,07,0*74
$GNRMC,065922.50,A,3039.10568632,N,12047.28100041,E,0.042,4.6,170120,5.8,W,D*35
#HEADINGA,COM2,0,62.0,FINE,2088,457180.500,3242885,18,18;SOL_COMPUTED,NARROW_INT,0.4298,161.7038,-13.8089,0.0000,0.5758,1.2465,"999",37,33,33,17,3,01,3,f3*16913837
$GNGGA,065922.60,3039.10568488,N,12047.28099842,E,4,33,0.6,4.5104,M,9.8161,M,07,0*7A
$GNRMC,065922.60,A,3039.10568488,N,12047.28099842,E,0.081,230.0,170120,5.8,W,D*33
#HEADINGA,COM2,0,62.0,FINE,2088,457180.600,3242985,17,18;SOL_COMPUTED,NARROW_INT,0.4321,161.7624,-14.3156,0.0000,0.5739,1.2445,"999",37,33,33,17,3,01,3,f3*6ce667d2
$GNGGA,065922.70,3039.10568498,N,12047.28099848,E,4,33,0.6,4.5096,M,9.8161,M,07,0*7A
$GNRMC,065922.70,A,3039.10568498,N,12047.28099848,E,0.004,27.6,170120,5.8,W,D*06
#HEADINGA,COM2,0,62.0,FINE,2088,457180.700,3243085,17,18;SOL_COMPUTED,NARROW_INT,0.4313,161.6941,-14.2710,0.0000,0.5749,1.2466,"999",37,33,33,17,3,01,3,f3*14ae1307
$GNGGA,065922.80,3039.10568485,N,12047.28099918,E,4,33,0.6,4.5033,M,9.8161,M,07,0*72
$GNRMC,065922.80,A,3039.10568485,N,12047.28099918,E,0.022,101.7,170120,5.8,W,D*31
#HEADINGA,COM2,0,62.0,FINE,2088,457180.800,3243185,17,18;SOL_COMPUTED,NARROW_INT,0.4299,162.0280,-13.2284,0.0000,0.5734,1.2465,"999",37,33,33,17,3,01,3,f3*429733a3
$GNGGA,065922.90,3039.10568474,N,12047.28099921,E,4,33,0.6,4.5154,M,9.8161,M,07,0*77
$GNRMC,065922.90,A,3039.10568474,N,12047.28099921,E,0.004,169.9,170120,5.8,W,D*30
#HEADINGA,COM2,0,62.0,FINE,2088,457180.900,3243284,20,18;SOL_COMPUTED,NARROW_INT,0.4315,162.1795,-14.6585,0.0000,0.5748,1.2457,"999",37,33,33,17,3,01,3,f3*65666a99
#REFSTATIONA,COM2,0,62.0,FINE,2088,457164.000,3242586,803,18;00000000,-2811044.342,4717820.352,3232735.546,0,RTCMV3,"0000"*ad4e947c
$GNGGA,065923.00,3039.10568526,N,12047.28099765,E,4,33,0.6,4.5124,M,9.8161,M,08,0*7F
$GNRMC,065923.00,A,3039.10568526,N,12047.28099765,E,0.052,290.9,170120,5.8,W,D*36
#HEADINGA,COM2,0,62.0,FINE,2088,457181.000,3243385,22,18;SOL_COMPUTED,NARROW_INT,0.4346,161.7122,-14.9778,0.0000,0.5722,1.2374,"999",37,33,33,17,3,01,3,f3*7a2d7890
$GNGGA,065923.10,3039.10568465,N,12047.28099803,E,4,33,0.6,4.5117,M,9.8161,M,08,0*77
$GNRMC,065923.10,A,3039.10568465,N,12047.28099803,E,0.025,151.7,170120,5.8,W,D*3E
#HEADINGA,COM2,0,62.0,FINE,2088,457181.100,3243485,17,18;SOL_COMPUTED,NARROW_INT,0.4304,161.6255,-13.8708,0.0000,0.5750,1.2493,"999",37,33,33,17,3,01,3,f3*c8f2932a
$GNGGA,065923.20,3039.10568333,N,12047.28099713,E,4,33,0.6,4.5153,M,9.8161,M,08,0*7E
$GNRMC,065923.20,A,3039.10568333,N,12047.28099713,E,0.055,210.6,170120,5.8,W,D*37
#HEADINGA,COM2,0,62.0,FINE,2088,457181.200,3243586,19,18;SOL_COMPUTED,NARROW_INT,0.4304,161.3612,-14.0603,0.0000,0.5755,1.2455,"999",37,33,33,17,3,01,3,f3*acb896e9
$GNGGA,065923.30,3039.10568449,N,12047.28099712,E,4,33,0.6,4.5130,M,9.8161,M,07,0*7E
$GNRMC,065923.30,A,3039.10568449,N,12047.28099712,E,0.042,359.4,170120,5.8,W,D*35
#HEADINGA,COM2,0,62.0,FINE,2088,457181.300,3243685,17,18;SOL_COMPUTED,NARROW_INT,0.4303,161.5543,-14.0456,0.0000,0.5756,1.2494,"999",37,33,33,17,3,01,3,f3*c0791ced
$GNGGA,065923.40,3039.10568449,N,12047.28099591,E,4,33,0.6,4.5101,M,9.8161,M,07,0*72
$GNRMC,065923.40,A,3039.10568449,N,12047.28099591,E,0.038,269.9,170120,5.8,W,D*39
#HEADINGA,COM2,0,62.0,FINE,2088,457181.400,3243785,17,18;SOL_COMPUTED,NARROW_INT,0.4324,161.3943,-14.2749,0.0000,0.5736,1.2429,"999",37,33,33,17,3,01,3,f3*7c1b86f1
$GNGGA,065923.50,3039.10568422,N,12047.28099715,E,4,33,0.6,4.5087,M,9.8161,M,07,0*7F
$GNRMC,065923.50,A,3039.10568422,N,12047.28099715,E,0.040,103.9,170120,5.8,W,D*3B
#HEADINGA,COM2,0,62.0,FINE,2088,457181.500,3243885,17,18;SOL_COMPUTED,NARROW_INT,0.4340,161.8634,-14.4725,0.0000,0.5714,1.2388,"999",37,33,33,17,3,01,3,f3*835843df
$GNGGA,065923.60,3039.10568398,N,12047.28099654,E,4,33,0.6,4.5124,M,9.8161,M,07,0*76
$GNRMC,065923.60,A,3039.10568398,N,12047.28099654,E,0.021,245.3,170120,5.8,W,D*36
#HEADINGA,COM2,0,62.0,FINE,2088,457181.600,3243985,17,18;SOL_COMPUTED,NARROW_INT,0.4339,161.4321,-14.5633,0.0000,0.5722,1.2390,"999",37,33,33,17,3,01,3,f3*47932651
$GNGGA,065923.70,3039.10568342,N,12047.28099686,E,4,33,0.6,4.5124,M,9.8161,M,07,0*7F
$GNRMC,065923.70,A,3039.10568342,N,12047.28099686,E,0.023,153.5,170120,5.8,W,D*3F
#HEADINGA,COM2,0,62.0,FINE,2088,457181.700,3244084,18,18;SOL_COMPUTED,NARROW_INT,0.4349,161.2892,-13.8909,0.0000,0.5695,1.2368,"999",37,33,33,17,3,01,3,f3*ade623e8
$GNGGA,065923.80,3039.10568330,N,12047.28099670,E,4,33,0.6,4.5053,M,9.8161,M,07,0*7D
$GNRMC,065923.80,A,3039.10568330,N,12047.28099670,E,0.007,230.0,170120,5.8,W,D*39
#HEADINGA,COM2,0,62.0,FINE,2088,457181.800,3244185,19,18;SOL_COMPUTED,NARROW_INT,0.4322,161.6540,-14.2533,0.0000,0.5734,1.2444,"999",37,33,33,17,3,01,3,f3*52b27261
$GNGGA,065923.90,3039.10568219,N,12047.28099607,E,4,33,0.6,4.5097,M,9.8161,M,07,0*7E
$GNRMC,065923.90,A,3039.10568219,N,12047.28099607,E,0.044,206.2,170120,5.8,W,D*32
#HEADINGA,COM2,0,62.0,FINE,2088,457181.900,3244284,17,18;SOL_COMPUTED,NARROW_INT,0.4318,161.3910,-15.4240,0.0000,0.5770,1.2401,"999",37,33,33,17,3,01,3,f3*85b0025e
#REFSTATIONA,COM2,0,62.0,FINE,2088,457164.000,3243586,803,18;00000000,-2811044.342,4717820.352,3232735.546,0,RTCMV3,"0000"*5a82c872
$GNGGA,065924.00,3039.10568200,N,12047.28099600,E,4,33,0.6,4.5092,M,9.8161,M,08,0*75
$GNRMC,065924.00,A,3039.10568200,N,12047.28099600,E,0.007,198.1,170120,5.8,W,D*33
#HEADINGA,COM2,0,62.0,FINE,2088,457182.000,3244385,22,18;SOL_COMPUTED,NARROW_INT,0.4316,161.7713,-14.8213,0.0000,0.5754,1.2412,"999",37,33,33,17,3,01,3,f3*bb8669d3
$GNGGA,065924.10,3039.10568235,N,12047.28099661,E,4,33,0.6,4.5166,M,9.8161,M,08,0*7F
$GNRMC,065924.10,A,3039.10568235,N,12047.28099661,E,0.023,56.2,170120,5.8,W,D*05
#HEADINGA,COM2,0,62.0,FINE,2088,457182.100,3244485,17,18;SOL_COMPUTED,NARROW_INT,0.4331,161.9173,-15.1867,0.0000,0.5738,1.2359,"999",37,33,33,17,3,01,3,f3*b0795ff5
$GNGGA,065924.20,3039.10568111,N,12047.28099669,E,4,33,0.6,4.5165,M,9.8161,M,08,0*72
$GNRMC,065924.20,A,3039.10568111,N,12047.28099669,E,0.045,176.8,170120,5.8,W,D*32
#HEADINGA,COM2,0,62.0,FINE,2088,457182.200,3244586,17,18;SOL_COMPUTED,NARROW_INT,0.4318,161.7183,-14.4668,0.0000,0.5742,1.2401,"999",37,33,33,17,3,01,3,f3*4ecdc510
$GNGGA,065924.30,3039.10568157,N,12047.28099665,E,4,33,0.6,4.5109,M,9.8161,M,08,0*77
$GNRMC,065924.30,A,3039.10568157,N,12047.28099665,E,0.017,355.5,170120,5.8,W,D*34
#HEADINGA,COM2,0,62.0,FINE,2088,457182.300,3244685,18,18;SOL_COMPUTED,NARROW_INT,0.4309,161.6861,-14.8437,0.0000,0.5768,1.2460,"999",37,33,33,17,3,01,3,f3*3a291237
$GNGGA,065924.40,3039.10567740,N,12047.28099717,E,4,33,0.6,4.5044,M,9.8161,M,08,0*73
$GNRMC,065924.40,A,3039.10567740,N,12047.28099717,E,0.151,173.8,170120,5.8,W,D*30
#HEADINGA,COM2,0,62.0,FINE,2088,457182.400,3244785,17,18;SOL_COMPUTED,NARROW_INT,0.4296,161.6681,-15.0695,0.0000,0.5792,1.2498,"999",37,33,33,17,3,01,3,f3*beb50149
$GNGGA,065924.50,3039.10566855,N,12047.28100018,E,4,33,0.6,4.4998,M,9.8161,M,08,0*78
$GNRMC,065924.50,A,3039.10566855,N,12047.28100018,E,0.331,163.6,170120,5.8,W,D*39
#HEADINGA,COM2,0,62.0,FINE,2088,457182.500,3244885,17,18;SOL_COMPUTED,NARROW_INT,0.4289,161.8877,-14.1927,0.0000,0.5777,1.2509,"999",37,33,33,17,3,01,3,f3*14a893c6
$GNGGA,065924.60,3039.10565189,N,12047.28100566,E,4,33,0.6,4.5005,M,9.8161,M,08,0*70
$GNRMC,065924.60,A,3039.10565189,N,12047.28100566,E,0.622,164.1,170120,5.8,W,D*3A
#HEADINGA,COM2,0,62.0,FINE,2088,457182.600,3244985,17,18;SOL_COMPUTED,NARROW_INT,0.4333,161.9522,-13.8828,0.0000,0.5712,1.2393,"999",37,33,33,17,3,01,3,f3*e4870c05
$GNGGA,065924.70,3039.10562987,N,12047.28101229,E,4,33,0.6,4.5081,M,9.8161,M,08,0*71
$GNRMC,065924.70,A,3039.10562987,N,12047.28101229,E,0.817,165.4,170120,5.8,W,D*3B
#HEADINGA,COM2,0,62.0,FINE,2088,457182.700,3245084,18,18;SOL_COMPUTED,NARROW_INT,0.4312,161.8950,-14.5505,0.0000,0.5753,1.2418,"999",37,33,33,17,3,01,3,f3*09f8559f
$GNGGA,065924.80,3039.10560355,N,12047.28102057,E,4,33,0.6,4.5066,M,9.8161,M,08,0*78
$GNRMC,065924.80,A,3039.10560355,N,12047.28102057,E,0.980,164.8,170120,5.8,W,D*39
