
$GNGGA,061912.40,3039.10777970,N,12047.27940142,E,1,28,0.8,4.6111,M,9.8160,M,,*42
$GNRMC,061912.40,A,3039.10777970,N,12047.27940142,E,0.007,339.0,170120,5.8,W,A*38
#HEADINGA,COM2,0,59.0,FINE,2088,454770.400,832785,28,18;SOL_COMPUTED,NARROW_INT,0.4313,158.2988,-16.8070,0.0000,0.6435,1.1485,"999",34,33,33,19,3,01,3,f3*90d36d1e
$GNGGA,061912.50,3039.10778049,N,12047.27940189,E,1,28,0.8,4.6066,M,9.8160,M,,*49
$GNRMC,061912.50,A,3039.10778049,N,12047.27940189,E,0.022,24.0,170120,5.8,W,A*0A
#HEADINGA,COM2,0,59.0,FINE,2088,454770.500,832885,28,18;SOL_COMPUTED,NARROW_INT,0.4334,158.4727,-16.3712,0.0000,0.6392,1.1433,"999",34,33,33,19,3,01,3,f3*9739db94
$GNGGA,061912.60,3039.10778125,N,12047.27940221,E,1,28,0.8,4.6002,M,9.8160,M,,*42
$GNRMC,061912.60,A,3039.10778125,N,12047.27940221,E,0.022,17.5,170120,5.8,W,A*06
#HEADINGA,COM2,0,59.0,FINE,2088,454770.600,832985,28,18;SOL_COMPUTED,NARROW_INT,0.4305,158.2803,-16.3976,0.0000,0.6430,1.1512,"999",34,33,33,19,3,01,3,f3*5d1efd87
$GNGGA,061912.70,3039.10778169,N,12047.27940229,E,1,28,0.8,4.5950,M,9.8160,M,,*4E
$GNRMC,061912.70,A,3039.10778169,N,12047.27940229,E,0.014,17.9,170120,5.8,W,A*0E
#HEADINGA,COM2,0,59.0,FINE,2088,454770.700,833085,28,18;SOL_COMPUTED,NARROW_INT,0.4269,158.3723,-16.1501,0.0000,0.6475,1.1609,"999",34,33,33,19,3,01,3,f3*41e3e956
$GNGGA,061912.80,3039.10778163,N,12047.27940165,E,1,28,0.8,4.5914,M,9.8160,M,,*40
$GNRMC,061912.80,A,3039.10778163,N,12047.27940165,E,0.013,251.7,170120,5.8,W,A*39
#HEADINGA,COM2,0,59.0,FINE,2088,454770.800,833185,28,18;SOL_COMPUTED,NARROW_INT,0.4255,157.9940,-16.6835,0.0000,0.6514,1.1626,"999",34,33,33,19,3,01,3,f3*f33715dc
$GNGGA,061912.90,3039.10778130,N,12047.27940155,E,1,28,0.8,4.5873,M,9.8160,M,,*44
$GNRMC,061912.90,A,3039.10778130,N,12047.27940155,E,0.014,193.4,170120,5.8,W,A*34
#HEADINGA,COM2,0,59.0,FINE,2088,454770.900,833285,28,18;SOL_COMPUTED,NARROW_INT,0.4308,158.6871,-16.4148,0.0000,0.6425,1.1494,"999",34,33,33,19,3,01,3,f3*20e53f69
#REFSTATIONA,COM2,0,90.0,UNKNOWN,0,0.000,0,833389,0;00000001,0.000,0.000,0.000,0,NONE,""*5b324c3f
$GNGGA,061913.00,3039.10778129,N,12047.27940173,E,1,28,0.8,4.5832,M,9.8160,M,,*45
$GNRMC,061913.00,A,3039.10778129,N,12047.27940173,E,0.006,135.8,170120,5.8,W,A*33
#HEADINGA,COM2,0,59.0,FINE,2088,454771.000,833385,34,18;SOL_COMPUTED,NARROW_INT,0.4282,158.8082,-15.9055,0.0000,0.6448,1.1583,"999",34,33,33,19,3,01,3,f3*9d514315
$GNGGA,061913.10,3039.10778126,N,12047.27940160,E,1,28,0.8,4.5788,M,9.8160,M,,*47
$GNRMC,061913.10,A,3039.10778126,N,12047.27940160,E,0.004,210.3,170120,5.8,W,A*32
#HEADINGA,COM2,0,57.0,FINE,2088,454771.100,833485,29,18;SOL_COMPUTED,NARROW_INT,0.4315,158.1410,-16.4072,0.0000,0.6410,1.1468,"999",34,33,33,19,3,01,3,f3*5ba2128c
$GNGGA,061913.20,3039.10778118,N,12047.27940128,E,1,28,0.8,4.5751,M,9.8160,M,,*41
$GNRMC,061913.20,A,3039.10778118,N,12047.27940128,E,0.008,232.5,170120,5.8,W,A*3A
#HEADINGA,COM2,0,57.0,FINE,2088,454771.200,833586,29,18;SOL_COMPUTED,NARROW_INT,0.4293,158.6629,-15.9730,0.0000,0.6429,1.1544,"999",34,33,33,19,3,01,3,f3*783eef5c
$GNGGA,061913.30,3039.10778127,N,12047.27940109,E,1,28,0.8,4.5711,M,9.8160,M,,*4B
$GNRMC,061913.30,A,3039.10778127,N,12047.27940109,E,0.006,263.3,170120,5.8,W,A*38
#HEADINGA,COM2,0,57.0,FINE,2088,454771.300,833685,29,18;SOL_COMPUTED,NARROW_INT,0.4265,158.3246,-16.6243,0.0000,0.6492,1.1593,"999",34,33,33,19,3,01,3,f3*2535bb6e
$GNGGA,061913.40,3039.10778159,N,12047.27940168,E,1,28,0.8,4.5669,M,9.8160,M,,*4C
$GNRMC,061913.40,A,3039.10778159,N,12047.27940168,E,0.017,74.7,170120,5.8,W,A*01
#HEADINGA,COM2,0,57.0,FINE,2088,454771.400,833785,29,18;SOL_COMPUTED,NARROW_INT,0.4299,158.2447,-17.3215,0.0000,0.6464,1.1475,"999",34,33,33,19,3,01,3,f3*cb12f0cf
$GNGGA,061913.50,3039.10778212,N,12047.27940245,E,1,28,0.8,4.5620,M,9.8160,M,,*40
$GNRMC,061913.50,A,3039.10778212,N,12047.27940245,E,0.022,55.7,170120,5.8,W,A*05
#HEADINGA,COM2,0,57.0,FINE,2088,454771.500,833885,29,18;SOL_COMPUTED,NARROW_INT,0.4335,157.4688,-17.4835,0.0000,0.7407,1.1993,"999",34,31,31,19,3,01,3,f3*0daf13a2
$GNGGA,061913.60,3039.10778234,N,12047.27940299,E,1,28,0.8,4.5591,M,9.8160,M,,*4F
$GNRMC,061913.60,A,3039.10778234,N,12047.27940299,E,0.021,69.8,170120,5.8,W,A*00
#HEADINGA,COM2,0,57.0,FINE,2088,454771.600,833985,29,18;SOL_COMPUTED,NARROW_INT,0.4332,157.0911,-18.5928,0.0000,0.7466,1.1947,"999",34,31,31,19,3,01,3,f3*a9e04d78
$GNGGA,061913.70,3039.10778295,N,12047.27940321,E,1,28,0.8,4.5543,M,9.8160,M,,*48
$GNRMC,061913.70,A,3039.10778295,N,12047.27940321,E,0.016,32.4,170120,5.8,W,A*0E
#HEADINGA,COM2,0,57.0,FINE,2088,454771.700,834085,28,18;SOL_COMPUTED,NARROW_INT,0.4329,157.9034,-16.9553,0.0000,0.7408,1.2046,"999",34,31,31,19,3,01,3,f3*50395009
$GNGGA,061913.80,3039.10778282,N,12047.27940355,E,1,28,0.8,4.5495,M,9.8160,M,,*48
$GNRMC,061913.80,A,3039.10778282,N,12047.27940355,E,0.010,122.1,170120,5.8,W,A*37
#HEADINGA,COM2,0,57.0,FINE,2088,454771.800,834185,28,18;SOL_COMPUTED,NARROW_INT,0.4321,157.1288,-17.5675,0.0000,0.7443,1.2034,"999",34,31,31,19,3,01,3,f3*d3789075
$GNGGA,061913.90,3039.10778298,N,12047.27940384,E,1,28,0.8,4.5447,M,9.8160,M,,*41
$GNRMC,061913.90,A,3039.10778298,N,12047.27940384,E,0.006,87.8,170120,5.8,W,A*01
#HEADINGA,COM2,0,57.0,FINE,2088,454771.900,834285,28,18;SOL_COMPUTED,NARROW_INT,0.4371,157.2217,-17.5714,0.0000,0.7358,1.1913,"999",34,31,31,19,3,01,3,f3*c676545f
#REFSTATIONA,COM2,0,90.0,UNKNOWN,0,0.000,0,834389,0;00000001,0.000,0.000,0.000,0,NONE,""*55388a9f
$GNGGA,061914.00,3039.10778319,N,12047.27940410,E,1,28,0.8,4.5416,M,9.8160,M,,*49
$GNRMC,061914.00,A,3039.10778319,N,12047.27940410,E,0.008,57.2,170120,5.8,W,A*04
#HEADINGA,COM2,0,57.0,FINE,2088,454772.000,834385,34,18;SOL_COMPUTED,NARROW_INT,0.4329,157.2336,-17.5427,0.0000,0.7433,1.2030,"999",34,31,31,19,3,01,3,f3*f2da897e
$GNGGA,061914.10,3039.10778367,N,12047.27940465,E,1,28,0.8,4.5379,M,9.8160,M,,*4D
$GNRMC,061914.10,A,3039.10778367,N,12047.27940465,E,0.018,50.4,170120,5.8,W,A*0E
#HEADINGA,COM2,0,57.0,FINE,2088,454772.100,834486,29,18;SOL_COMPUTED,NARROW_INT,0.4325,157.3918,-17.5668,0.0000,0.7441,1.2032,"999",34,31,31,19,3,01,3,f3*c7a3360f
$GNGGA,061914.20,3039.10778374,N,12047.27940446,E,1,28,0.8,4.5341,M,9.8160,M,,*46
$GNRMC,061914.20,A,3039.10778374,N,12047.27940446,E,0.003,278.5,170120,5.8,W,A*3D
#HEADINGA,COM2,0,57.0,FINE,2088,454772.200,834586,29,18;SOL_COMPUTED,NARROW_INT,0.4347,156.7364,-18.7184,0.0000,0.7451,1.1919,"999",34,31,31,19,3,01,3,f3*b4b9617a
$GNGGA,061914.30,3039.10778403,N,12047.27940482,E,1,28,0.8,4.5280,M,9.8160,M,,*44
$GNRMC,061914.30,A,3039.10778403,N,12047.27940482,E,0.007,102.1,170120,5.8,W,A*3D
#HEADINGA,COM2,0,57.0,FINE,2088,454772.300,834685,29,18;SOL_COMPUTED,NARROW_INT,0.4270,158.5091,-16.4451,0.0000,0.6820,1.1709,"999",34,32,32,19,3,01,3,f3*d6c4236d
$GNGGA,061914.40,3039.10778453,N,12047.27940507,E,1,28,0.8,4.5216,M,9.8160,M,,*45
$GNRMC,061914.40,A,3039.10778453,N,12047.27940507,E,0.012,13.9,170120,5.8,W,A*0E
#HEADINGA,COM2,0,57.0,FINE,2088,454772.400,834785,28,18;SOL_COMPUTED,NARROW_INT,0.4275,158.6009,-15.4526,0.0000,0.6779,1.1733,"999",34,32,32,19,3,01,3,f3*c260cec0
$GNGGA,061914.50,3039.10778464,N,12047.27940566,E,1,28,0.8,4.5163,M,9.8160,M,,*46
$GNRMC,061914.50,A,3039.10778464,N,12047.27940566,E,0.013,67.6,170120,5.8,W,A*01
#HEADINGA,COM2,0,57.0,FINE,2088,454772.500,834885,28,18;SOL_COMPUTED,NARROW_INT,0.4275,158.0267,-16.5554,0.0000,0.6818,1.1692,"999",34,32,32,19,3,01,3,f3*ef3b89ef
$GNGGA,061914.60,3039.10778421,N,12047.27940625,E,1,28,0.8,4.5140,M,9.8160,M,,*41
$GNRMC,061914.60,A,3039.10778421,N,12047.27940625,E,0.014,95.8,170120,5.8,W,A*03
#HEADINGA,COM2,0,57.0,FINE,2088,454772.600,834985,29,18;SOL_COMPUTED,NARROW_INT,0.4266,158.5912,-16.4791,0.0000,0.6829,1.1721,"999",34,32,32,19,3,01,3,f3*01498c87
$GNGGA,061914.70,3039.10778450,N,12047.27940678,E,1,28,0.8,4.5118,M,9.8160,M,,*43
$GNRMC,061914.70,A,3039.10778450,N,12047.27940678,E,0.015,52.2,170120,5.8,W,A*0C
#HEADINGA,COM2,0,57.0,FINE,2088,454772.700,835085,28,18;SOL_COMPUTED,NARROW_INT,0.4293,158.6904,-16.1112,0.0000,0.6764,1.1654,"999",34,32,32,19,3,01,3,f3*dd625f22
$GNGGA,061914.80,3039.10778407,N,12047.27940725,E,1,28,0.8,4.5112,M,9.8160,M,,*4D
$GNRMC,061914.80,A,3039.10778407,N,12047.27940725,E,0.008,99.1,170120,5.8,W,A*00
#HEADINGA,COM2,0,57.0,FINE,2088,454772.800,835185,28,18;SOL_COMPUTED,NARROW_INT,0.4316,158.2984,-17.4758,0.0000,0.6784,1.1540,"999",34,32,32,19,3,01,3,f3*30a68294
$GNGGA,061914.90,3039.10778389,N,12047.27940727,E,1,28,0.8,4.5093,M,9.8160,M,,*47
$GNRMC,061914.90,A,3039.10778389,N,12047.27940727,E,0.009,306.2,170120,5.8,W,A*35
#HEADINGA,COM2,0,57.0,FINE,2088,454772.900,835285,28,18;SOL_COMPUTED,NARROW_INT,0.4270,157.9575,-16.4137,0.0000,0.6820,1.1706,"999",34,32,32,19,3,01,3,f3*49ca9191
#REFSTATIONA,COM2,0,90.0,UNKNOWN,0,0.000,0,835389,0;00000001,0.000,0.000,0.000,0,NONE,""*122b7c64
$GNGGA,061915.00,3039.10778395,N,12047.27940791,E,1,28,0.8,4.5044,M,9.8160,M,,*45
$GNRMC,061915.00,A,3039.10778395,N,12047.27940791,E,0.006,102.9,170120,5.8,W,A*3F
#HEADINGA,COM2,0,57.0,FINE,2088,454773.000,835385,35,18;SOL_COMPUTED,NARROW_INT,0.4270,158.6113,-15.9995,0.0000,0.6806,1.1728,"999",34,32,32,19,3,01,3,f3*c8b1963b
$GNGGA,061915.10,3039.10778379,N,12047.27940871,E,1,28,0.8,4.5008,M,9.8160,M,,*4F
$GNRMC,061915.10,A,3039.10778379,N,12047.27940871,E,0.017,110.2,170120,5.8,W,A*35
#HEADINGA,COM2,0,57.0,FINE,2088,454773.100,835485,29,18;SOL_COMPUTED,NARROW_INT,0.4296,158.5411,-16.2172,0.0000,0.6769,1.1646,"999",34,32,32,19,3,01,3,f3*fccfcb20
$GNGGA,061915.20,3039.10778344,N,12047.27940998,E,1,28,0.8,4.4988,M,9.8160,M,,*44
$GNRMC,061915.20,A,3039.10778344,N,12047.27940998,E,0.028,92.9,170120,5.8,W,A*02
#HEADINGA,COM2,0,57.0,FINE,2088,454773.200,835586,29,18;SOL_COMPUTED,NARROW_INT,0.4271,158.5931,-16.8625,0.0000,0.6836,1.1697,"999",34,32,32,19,3,01,3,f3*5ab8fab8
$GNGGA,061915.30,3039.10778336,N,12047.27941041,E,1,28,0.8,4.4964,M,9.8160,M,,*4E
$GNRMC,061915.30,A,3039.10778336,N,12047.27941041,E,0.012,27.9,170120,5.8,W,A*0D
#HEADINGA,COM2,0,57.0,FINE,2088,454773.300,835686,29,18;SOL_COMPUTED,NARROW_INT,0.4280,158.5605,-15.6510,0.0000,0.6780,1.1727,"999",35,32,32,19,3,01,3,f3*1f88c4c3
$GNGGA,061915.40,3039.10778358,N,12047.27941072,E,1,28,0.8,4.4936,M,9.8160,M,,*46
$GNRMC,061915.40,A,3039.10778358,N,12047.27941072,E,0.018,6.9,170120,5.8,W,A*3B
#HEADINGA,COM2,0,57.0,FINE,2088,454773.400,835785,30,18;SOL_COMPUTED,NARROW_INT,0.4290,158.6689,-16.1727,0.0000,0.6782,1.1672,"999",35,32,32,19,3,01,3,f3*409195b2
$GNGGA,061915.50,3039.10778340,N,12047.27941107,E,1,28,0.8,4.4917,M,9.8160,M,,*4E
$GNRMC,061915.50,A,3039.10778340,N,12047.27941107,E,0.009,49.4,170120,5.8,W,A*06
#HEADINGA,COM2,0,57.0,FINE,2088,454773.500,835885,29,18;SOL_COMPUTED,NARROW_INT,0.4271,158.7273,-16.3195,0.0000,0.6480,1.1606,"999",35,33,33,19,3,01,3,f3*61ae168a
$GNGGA,061915.60,3039.10778328,N,12047.27941149,E,1,28,0.8,4.4916,M,9.8160,M,,*48
$GNRMC,061915.60,A,3039.10778328,N,12047.27941149,E,0.014,51.6,170120,5.8,W,A*06
#HEADINGA,COM2,0,57.0,FINE,2088,454773.600,835985,29,18;SOL_COMPUTED,NARROW_INT,0.4278,159.3649,-15.5248,0.0000,0.6440,1.1613,"999",35,33,33,19,3,01,3,f3*e8bdd40f
$GNGGA,061915.70,3039.10778324,N,12047.27941183,E,1,28,0.8,4.4897,M,9.8160,M,,*4B
$GNRMC,061915.70,A,3039.10778324,N,12047.27941183,E,0.009,29.1,170120,5.8,W,A*09
#HEADINGA,COM2,0,57.0,FINE,2088,454773.700,836085,28,18;SOL_COMPUTED,NARROW_INT,0.4276,158.8611,-15.5522,0.0000,0.6442,1.1611,"999",35,33,33,19,3,01,3,f3*2c7137e8
$GNGGA,061915.80,3039.10778294,N,12047.27941188,E,1,28,0.8,4.4881,M,9.8160,M,,*42
$GNRMC,061915.80,A,3039.10778294,N,12047.27941188,E,0.002,113.6,170120,5.8,W,A*33
#HEADINGA,COM2,0,57.0,FINE,2088,454773.800,836185,28,18;SOL_COMPUTED,NARROW_INT,0.4297,158.4931,-16.0786,0.0000,0.6426,1.1538,"999",35,33,33,19,3,01,3,f3*c82e4bb9
$GNGGA,061915.90,3039.10778286,N,12047.27941188,E,1,28,0.8,4.4862,M,9.8160,M,,*4D
$GNRMC,061915.90,A,3039.10778286,N,12047.27941188,E,0.006,320.7,170120,5.8,W,A*36
#HEADINGA,COM2,0,57.0,FINE,2088,454773.900,836285,28,18;SOL_COMPUTED,NARROW_INT,0.4306,158.5020,-16.3635,0.0000,0.6422,1.1497,"999",35,33,33,19,3,01,3,f3*4e4e28b9
#REFSTATIONA,COM2,0,90.0,UNKNOWN,0,0.000,0,836389,0;00000001,0.000,0.000,0.000,0,NONE,""*db1f6769
$GNGGA,061916.00,3039.10778294,N,12047.27941162,E,1,28,0.8,4.4827,M,9.8160,M,,*41
$GNRMC,061916.00,A,3039.10778294,N,12047.27941162,E,0.005,268.8,170120,5.8,W,A*3A
#HEADINGA,COM2,0,57.0,FINE,2088,454774.000,836385,34,18;SOL_COMPUTED,NARROW_INT,0.4291,158.9262,-15.6797,0.0000,0.6423,1.1571,"999",35,33,33,19,3,01,3,f3*6fc3f295
$GNGGA,061916.10,3039.10778308,N,12047.27941234,E,1,28,0.8,4.4787,M,9.8160,M,,*41
$GNRMC,061916.10,A,3039.10778308,N,12047.27941234,E,0.027,98.5,170120,5.8,W,A*0F
#HEADINGA,COM2,0,56.0,FINE,2088,454774.100,836486,29,18;SOL_COMPUTED,NARROW_INT,0.4307,158.1247,-17.3159,0.0000,0.6454,1.1474,"999",35,33,33,19,3,01,3,f3*df979d1f
$GNGGA,061916.20,3039.10778318,N,12047.27941328,E,1,28,0.8,4.4761,M,9.8160,M,,*47
$GNRMC,061916.20,A,3039.10778318,N,12047.27941328,E,0.026,77.6,170120,5.8,W,A*02
#HEADINGA,COM2,0,56.0,FINE,2088,454774.200,836586,29,18;SOL_COMPUTED,NARROW_INT,0.4275,158.9144,-16.6327,0.0000,0.6479,1.1586,"999",35,33,33,19,3,01,3,f3*e125c27d
$GNGGA,061916.30,3039.10778250,N,12047.27941452,E,1,28,0.8,4.4758,M,9.8160,M,,*4B
$GNRMC,061916.30,A,3039.10778250,N,12047.27941452,E,0.035,101.7,170120,5.8,W,A*37
#HEADINGA,COM2,0,56.0,FINE,2088,454774.300,836685,29,18;SOL_COMPUTED,NARROW_INT,0.4259,158.9883,-16.5697,0.0000,0.6499,1.1625,"999",35,33,33,19,3,01,3,f3*bb62bc85
$GNGGA,061916.40,3039.10778225,N,12047.27941576,E,1,28,0.8,4.4749,M,9.8160,M,,*49
$GNRMC,061916.40,A,3039.10778225,N,12047.27941576,E,0.032,85.3,170120,5.8,W,A*0B
#HEADINGA,COM2,0,56.0,FINE,2088,454774.400,836786,28,18;SOL_COMPUTED,NARROW_INT,0.4290,158.5339,-16.3342,0.0000,0.6443,1.1546,"999",35,33,33,19,3,01,3,f3*cbe0ca85
$GNGGA,061916.50,3039.10778206,N,12047.27941660,E,1,28,0.8,4.4702,M,9.8160,M,,*42
$GNRMC,061916.50,A,3039.10778206,N,12047.27941660,E,0.019,75.1,170120,5.8,W,A*0B
#HEADINGA,COM2,0,56.0,FINE,2088,454774.500,836885,29,18;SOL_COMPUTED,NARROW_INT,0.4278,158.4715,-16.3867,0.0000,0.6464,1.1576,"999",35,33,33,19,3,01,3,f3*9dae9099
$GNGGA,061916.60,3039.10778192,N,12047.27941624,E,1,28,0.8,4.4655,M,9.8160,M,,*4C
$GNRMC,061916.60,A,3039.10778192,N,12047.27941624,E,0.014,297.3,170120,5.8,W,A*37
#HEADINGA,COM2,0,56.0,FINE,2088,454774.600,836985,29,18;SOL_COMPUTED,NARROW_INT,0.4252,158.5220,-16.1793,0.0000,0.6502,1.1656,"999",35,33,33,19,3,01,3,f3*d0543175
$GNGGA,061916.70,3039.10778174,N,12047.27941620,E,1,28,0.8,4.4640,M,9.8160,M,,*45
$GNRMC,061916.70,A,3039.10778174,N,12047.27941620,E,0.003,318.2,170120,5.8,W,A*3B
#HEADINGA,COM2,0,56.0,FINE,2088,454774.700,837085,28,18;SOL_COMPUTED,NARROW_INT,0.4281,158.6507,-16.3552,0.0000,0.6464,1.1573,"999",35,33,33,19,3,01,3,f3*1fdc8fda
$GNGGA,061916.80,3039.10778129,N,12047.27941577,E,1,28,0.8,4.4674,M,9.8160,M,,*44
$GNRMC,061916.80,A,3039.10778129,N,12047.27941577,E,0.012,277.2,170120,5.8,W,A*35
#HEADINGA,COM2,0,56.0,FINE,2088,454774.800,837185,28,18;SOL_COMPUTED,NARROW_INT,0.4328,158.2275,-17.1675,0.0000,0.6420,1.1416,"999",35,33,33,19,3,01,3,f3*4345cd44
$GNGGA,061916.90,3039.10778115,N,12047.27941600,E,1,28,0.8,4.4675,M,9.8160,M,,*48
$GNRMC,061916.90,A,3039.10778115,N,12047.27941600,E,0.002,181.1,170120,5.8,W,A*30
#HEADINGA,COM2,0,56.0,FINE,2088,454774.900,837285,28,18;SOL_COMPUTED,NARROW_INT,0.4286,158.1691,-17.4916,0.0000,0.6490,1.1516,"999",35,33,33,19,3,01,3,f3*d55d0687
#REFSTATIONA,COM2,0,90.0,UNKNOWN,0,0.000,0,837390,0;00000001,0.000,0.000,0.000,0,NONE,""*a12c128b
$GNGGA,061917.00,3039.10778082,N,12047.27941622,E,1,28,0.8,4.4654,M,9.8160,M,,*4C
$GNRMC,061917.00,A,3039.10778082,N,12047.27941622,E,0.005,142.3,170120,5.8,W,A*3D
#HEADINGA,COM2,0,56.0,FINE,2088,454775.000,837385,35,18;SOL_COMPUTED,NARROW_INT,0.4278,158.3709,-16.7494,0.0000,0.6476,1.1558,"999",35,33,33,19,3,01,3,f3*5caf4c6c
$GNGGA,061917.10,3039.10778085,N,12047.27941634,E,1,28,0.8,4.4617,M,9.8160,M,,*4A
$GNRMC,061917.10,A,3039.10778085,N,12047.27941634,E,0.008,3.2,170120,5.8,W,A*34
#HEADINGA,COM2,0,56.0,FINE,2088,454775.100,837486,29,18;SOL_COMPUTED,NARROW_INT,0.4296,158.5697,-15.9460,0.0000,0.6427,1.1537,"999",35,33,33,19,3,01,3,f3*dc673f8a
$GNGGA,061917.20,3039.10778049,N,12047.27941609,E,1,28,0.8,4.4617,M,9.8160,M,,*47
$GNRMC,061917.20,A,3039.10778049,N,12047.27941609,E,0.008,286.2,170120,5.8,W,A*36
#HEADINGA,COM2,0,56.0,FINE,2088,454775.200,837586,29,18;SOL_COMPUTED,NARROW_INT,0.4291,158.3705,-16.8470,0.0000,0.6460,1.1537,"999",35,33,33,19,3,01,3,f3*9fa28b5e
$GNGGA,061917.30,3039.10777949,N,12047.27941642,E,1,28,0.8,4.4630,M,9.8160,M,,*4A
$GNRMC,061917.30,A,3039.10777949,N,12047.27941642,E,0.017,151.7,170120,5.8,W,A*3C
#HEADINGA,COM2,0,56.0,FINE,2088,454775.300,837685,29,18;SOL_COMPUTED,NARROW_INT,0.4255,158.5354,-16.7014,0.0000,0.6504,1.1630,"999",35,33,33,19,3,01,3,f3*e30cb75b
$GNGGA,061917.40,3039.10777891,N,12047.27941671,E,1,28,0.8,4.4642,M,9.8160,M,,*4C
$GNRMC,061917.40,A,3039.10777891,N,12047.27941671,E,0.007,137.8,170120,5.8,W,A*31
#HEADINGA,COM2,0,56.0,FINE,2088,454775.400,837785,28,18;SOL_COMPUTED,NARROW_INT,0.4264,158.7806,-16.2969,0.0000,0.6477,1.1620,"999",35,33,33,19,3,01,3,f3*a9ff4531
$GNGGA,061917.50,3039.10777839,N,12047.27941653,E,1,28,0.8,4.4667,M,9.8160,M,,*48
$GNRMC,061917.50,A,3039.10777839,N,12047.27941653,E,0.005,270.3,170120,5.8,W,A*3B
#HEADINGA,COM2,0,56.0,FINE,2088,454775.500,837885,28,18;SOL_COMPUTED,NARROW_INT,0.4302,158.3633,-16.2535,0.0000,0.6419,1.1519,"999",35,33,33,19,3,01,3,f3*a5c00baa
$GNGGA,061917.60,3039.10777833,N,12047.27941681,E,1,28,0.8,4.4660,M,9.8160,M,,*49
$GNRMC,061917.60,A,3039.10777833,N,12047.27941681,E,0.011,342.1,170120,5.8,W,A*3A
#HEADINGA,COM2,0,56.0,FINE,2088,454775.600,837985,28,18;SOL_COMPUTED,NARROW_INT,0.4274,158.6925,-15.5404,0.0000,0.6436,1.1606,"999",35,33,33,19,3,01,3,f3*44778b86
$GNGGA,061917.70,3039.10777824,N,12047.27941696,E,1,28,0.8,4.4647,M,9.8160,M,,*4D
$GNRMC,061917.70,A,3039.10777824,N,12047.27941696,E,0.007,329.7,170120,5.8,W,A*37
#HEADINGA,COM2,0,56.0,FINE,2088,454775.700,838085,28,18;SOL_COMPUTED,NARROW_INT,0.4290,158.6182,-16.2608,0.0000,0.6442,1.1543,"999",35,33,33,19,3,01,3,f3*217f83cb
$GNGGA,061917.80,3039.10777819,N,12047.27941684,E,1,28,0.8,4.4636,M,9.8160,M,,*49
$GNRMC,061917.80,A,3039.10777819,N,12047.27941684,E,0.011,308.0,170120,5.8,W,A*36
#HEADINGA,COM2,0,56.0,FINE,2088,454775.800,838185,28,18;SOL_COMPUTED,NARROW_INT,0.4286,158.3823,-16.8094,0.0000,0.6464,1.1531,"999",35,33,33,19,3,01,3,f3*e985f7ed
$GNGGA,061917.90,3039.10777770,N,12047.27941744,E,1,28,0.8,4.4619,M,9.8160,M,,*48
$GNRMC,061917.90,A,3039.10777770,N,12047.27941744,E,0.018,131.5,170120,5.8,W,A*3E
#HEADINGA,COM2,0,56.0,FINE,2088,454775.900,838284,29,18;SOL_COMPUTED,NARROW_INT,0.4290,158.3460,-16.4525,0.0000,0.6453,1.1546,"999",35,33,33,19,3,01,3,f3*e5d536fb
#REFSTATIONA,COM2,0,90.0,UNKNOWN,0,0.000,0,838389,0;00000001,0.000,0.000,0.000,0,NONE,""*c70aea29
$GNGGA,061918.00,3039.10777743,N,12047.27941808,E,1,28,0.8,4.4611,M,9.8160,M,,*41
$GNRMC,061918.00,A,3039.10777743,N,12047.27941808,E,0.015,100.1,170120,5.8,W,A*34
#HEADINGA,COM2,0,56.0,FINE,2088,454776.000,838384,35,18;SOL_COMPUTED,NARROW_INT,0.4295,158.8375,-16.7942,0.0000,0.6464,1.1529,"999",35,33,33,19,3,01,3,f3*5306093c
$GNGGA,061918.10,3039.10777734,N,12047.27941918,E,1,28,0.8,4.4608,M,9.8160,M,,*48
$GNRMC,061918.10,A,3039.10777734,N,12047.27941918,E,0.027,77.5,170120,5.8,W,A*01
#HEADINGA,COM2,0,56.0,FINE,2088,454776.100,838485,29,18;SOL_COMPUTED,NARROW_INT,0.4270,158.5294,-16.3592,0.0000,0.6473,1.1600,"999",35,33,33,19,3,01,3,f3*ada5994f
$GNGGA,061918.20,3039.10777717,N,12047.27941975,E,1,28,0.8,4.4595,M,9.8160,M,,*46
$GNRMC,061918.20,A,3039.10777717,N,12047.27941975,E,0.017,78.5,170120,5.8,W,A*04
#HEADINGA,COM2,0,56.0,FINE,2088,454776.200,838585,30,18;SOL_COMPUTED,NARROW_INT,0.4292,158.3237,-17.2400,0.0000,0.6472,1.1521,"999",35,33,33,19,3,01,3,f3*6688487e
$GNGGA,061918.30,3039.10777740,N,12047.27942023,E,1,28,0.8,4.4554,M,9.8160,M,,*41
$GNRMC,061918.30,A,3039.10777740,N,12047.27942023,E,0.016,20.0,170120,5.8,W,A*07
#HEADINGA,COM2,0,56.0,FINE,2088,454776.300,838685,29,18;SOL_COMPUTED,NARROW_INT,0.4279,159.0289,-15.3054,0.0000,0.6426,1.1550,"999",35,33,33,18,3,01,3,f3*7277f38a
$GNGGA,061918.40,3039.10777712,N,12047.27942117,E,1,28,0.8,4.4551,M,9.8160,M,,*42
$GNRMC,061918.40,A,3039.10777712,N,12047.27942117,E,0.023,81.4,170120,5.8,W,A*08
#HEADINGA,COM2,0,56.0,FINE,2088,454776.400,838785,28,18;SOL_COMPUTED,NARROW_INT,0.4313,158.4678,-17.4512,0.0000,0.6443,1.1382,"999",35,33,33,18,3,01,3,f3*f4baf4aa
$GNGGA,061918.50,3039.10777644,N,12047.27942153,E,1,28,0.8,4.4549,M,9.8160,M,,*48
$GNRMC,061918.50,A,3039.10777644,N,12047.27942153,E,0.015,135.0,170120,5.8,W,A*34
#HEADINGA,COM2,0,56.0,FINE,2088,454776.500,838885,28,18;SOL_COMPUTED,NARROW_INT,0.4304,158.4099,-16.8793,0.0000,0.6436,1.1425,"999",35,33,33,18,3,01,3,f3*9774dba4
$GNGGA,061918.60,3039.10777591,N,12047.27942170,E,1,28,0.8,4.4539,M,9.8160,M,,*46
$GNRMC,061918.60,A,3039.10777591,N,12047.27942170,E,0.008,162.3,170120,5.8,W,A*30
#HEADINGA,COM2,0,56.0,FINE,2088,454776.600,838985,28,18;SOL_COMPUTED,NARROW_INT,0.4304,158.6760,-16.5584,0.0000,0.6427,1.1440,"999",35,33,33,18,3,01,3,f3*a7eae0ce
$GNGGA,061918.70,3039.10777156,N,12047.27942379,E,1,28,0.8,4.4370,M,9.8160,M,,*48
$GNRMC,061918.70,A,3039.10777156,N,12047.27942379,E,0.013,160.9,170120,5.8,W,A*37
#HEADINGA,COM2,0,56.0,FINE,2088,454776.700,839085,28,18;SOL_COMPUTED,NARROW_INT,0.4290,158.5274,-16.8524,0.0000,0.6458,1.1483,"999",35,33,33,18,3,01,3,f3*ffa4dbf4
$GNGGA,061918.80,3039.10776772,N,12047.27942606,E,1,28,0.8,4.4175,M,9.8160,M,,*4C
$GNRMC,061918.80,A,3039.10776772,N,12047.27942606,E,0.007,107.3,170120,5.8,W,A*3A
#HEADINGA,COM2,0,56.0,FINE,2088,454776.800,839185,28,18;SOL_COMPUTED,NARROW_INT,0.4272,159.0222,-16.7237,0.0000,0.6487,1.1540,"999",35,33,33,18,3,01,3,f3*aa46a065
$GNGGA,061918.90,3039.10776399,N,12047.27942879,E,1,28,0.8,4.3987,M,9.8160,M,,*48
$GNRMC,061918.90,A,3039.10776399,N,12047.27942879,E,0.021,81.7,170120,5.8,W,A*03
#HEADINGA,COM2,0,56.0,FINE,2088,454776.900,839285,28,18;SOL_COMPUTED,NARROW_INT,0.4317,158.0918,-16.9458,0.0000,0.6417,1.1393,"999",35,33,33,18,3,01,3,f3*1cc43f8c
#REFSTATIONA,COM2,0,90.0,UNKNOWN,0,0.000,0,839389,0;00000001,0.000,0.000,0.000,0,NONE,""*80191cd2
$GNGGA,061919.00,3039.10776027,N,12047.27943111,E,1,28,0.8,4.3808,M,9.8160,M,,*46
$GNRMC,061919.00,A,3039.10776027,N,12047.27943111,E,0.018,72.1,170120,5.8,W,A*0B
#HEADINGA,COM2,0,56.0,FINE,2088,454777.000,839385,34,18;SOL_COMPUTED,NARROW_INT,0.4277,158.7015,-16.7279,0.0000,0.6472,1.1510,"999",35,33,33,18,3,01,3,f3*814cebd3
$GNGGA,061919.10,3039.10775651,N,12047.27943267,E,1,28,0.8,4.3662,M,9.8160,M,,*43
$GNRMC,061919.10,A,3039.10775651,N,12047.27943267,E,0.007,18.7,170120,5.8,W,A*08
#HEADINGA,COM2,0,56.0,FINE,2088,454777.100,839485,29,18;SOL_COMPUTED,NARROW_INT,0.4285,158.6801,-17.0259,0.0000,0.6476,1.1485,"999",35,33,33,18,3,01,3,f3*49b66b9f
$GNGGA,061919.20,3039.10775270,N,12047.27943451,E,1,28,0.8,4.3502,M,9.8160,M,,*41
$GNRMC,061919.20,A,3039.10775270,N,12047.27943451,E,0.003,132.8,170120,5.8,W,A*3D
#HEADINGA,COM2,0,60.0,FINE,2088,454777.200,839586,29,18;SOL_COMPUTED,NARROW_INT,0.4333,158.0976,-17.4415,0.0000,0.6419,1.1338,"999",35,33,33,18,3,01,3,f3*24a7fa3a
$GNGGA,061919.30,3039.10774893,N,12047.27943585,E,1,28,0.8,4.3342,M,9.8160,M,,*4C
$GNRMC,061919.30,A,3039.10774893,N,12047.27943585,E,0.010,255.1,170120,5.8,W,A*3B
#HEADINGA,COM2,0,60.0,FINE,2088,454777.300,839685,29,18;SOL_COMPUTED,NARROW_INT,0.4293,158.4991,-16.7530,0.0000,0.6456,1.1474,"999",35,33,33,18,3,01,3,f3*41933ebf
$GNGGA,061919.40,3039.10774572,N,12047.27943836,E,1,28,0.8,4.3174,M,9.8160,M,,*4B
$GNRMC,061919.40,A,3039.10774572,N,12047.27943836,E,0.026,91.8,170120,5.8,W,A*0D
#HEADINGA,COM2,0,60.0,FINE,2088,454777.400,839785,29,18;SOL_COMPUTED,NARROW_INT,0.4257,159.0928,-16.3252,0.0000,0.6498,1.1588,"999",35,33,33,18,3,01,3,f3*4bbd9de7
$GNGGA,061919.50,3039.10774257,N,12047.27944060,E,1,28,0.8,4.3028,M,9.8160,M,,*4E
$GNRMC,061919.50,A,3039.10774257,N,12047.27944060,E,0.023,73.9,170120,5.8,W,A*08
#HEADINGA,COM2,0,60.0,FINE,2088,454777.500,839885,28,18;SOL_COMPUTED,NARROW_INT,0.4302,158.5673,-16.5360,0.0000,0.6443,1.1469,"999",35,33,33,18,3,01,3,f3*e5a710a7
$GNGGA,061919.60,3039.10773986,N,12047.27944240,E,1,28,0.8,4.2885,M,9.8160,M,,*43
$GNRMC,061919.60,A,3039.10773986,N,12047.27944240,E,0.023,28.5,170120,5.8,W,A*09
#HEADINGA,COM2,0,60.0,FINE,2088,454777.600,839985,28,18;SOL_COMPUTED,NARROW_INT,0.4275,158.6241,-16.2522,0.0000,0.6474,1.1542,"999",35,33,33,18,3,01,3,f3*9f95168a
$GNGGA,061919.70,3039.10773691,N,12047.27944422,E,1,28,0.8,4.2754,M,9.8160,M,,*4A
$GNRMC,061919.70,A,3039.10773691,N,12047.27944422,E,0.016,41.2,170120,5.8,W,A*0D
#HEADINGA,COM2,0,60.0,FINE,2088,454777.700,840085,28,18;SOL_COMPUTED,NARROW_INT,0.4279,158.5642,-16.8430,0.0000,0.6481,1.1516,"999",35,33,33,18,3,01,3,f3*db95ca04
$GNGGA,061919.80,3039.10773428,N,12047.27944568,E,1,28,0.8,4.2620,M,9.8160,M,,*48
$GNRMC,061919.80,A,3039.10773428,N,12047.27944568,E,0.018,4.5,170120,5.8,W,A*35
#HEADINGA,COM2,0,60.0,FINE,2088,454777.800,840185,28,18;SOL_COMPUTED,NARROW_INT,0.4292,158.1205,-16.7863,0.0000,0.6451,1.1469,"999",35,33,33,18,3,01,3,f3*b70db41d
$GNGGA,061919.90,3039.10773151,N,12047.27944724,E,1,28,0.8,4.2467,M,9.8160,M,,*49
$GNRMC,061919.90,A,3039.10773151,N,12047.27944724,E,0.010,1.8,170120,5.8,W,A*35
#HEADINGA,COM2,0,60.0,FINE,2088,454777.900,840285,28,18;SOL_COMPUTED,NARROW_INT,0.4294,159.1097,-15.3410,0.0000,0.6411,1.1518,"999",35,33,33,18,3,01,3,f3*3258b4fd
#REFSTATIONA,COM2,0,90.0,UNKNOWN,0,0.000,0,840389,0;00000001,0.000,0.000,0.000,0,NONE,""*44defe1c
$GNGGA,061920.00,3039.10772822,N,12047.27944880,E,1,28,0.8,4.2333,M,9.8160,M,,*41
$GNRMC,061920.00,A,3039.10772822,N,12047.27944880,E,0.005,138.9,170120,5.8,W,A*35
#HEADINGA,COM2,0,60.0,FINE,2088,454778.000,840385,34,18;SOL_COMPUTED,NARROW_INT,0.4321,157.3413,-17.5447,0.0000,0.7113,1.1898,"999",35,32,32,18,3,01,3,f3*59a7201d
$GNGGA,061920.10,3039.10772504,N,12047.27945012,E,1,28,0.8,4.2216,M,9.8160,M,,*4D
$GNRMC,061920.10,A,3039.10772504,N,12047.27945012,E,0.002,164.2,170120,5.8,W,A*3A
#HEADINGA,COM2,0,60.0,FINE,2088,454778.100,840486,29,18;SOL_COMPUTED,NARROW_INT,0.4335,157.0141,-18.7622,0.0000,0.7136,1.1779,"999",35,32,32,18,3,01,3,f3*bfa39196
$GNGGA,061920.20,3039.10772246,N,12047.27945152,E,1,28,0.8,4.2085,M,9.8160,M,,*42
$GNRMC,061920.20,A,3039.10772246,N,12047.27945152,E,0.013,343.7,170120,5.8,W,A*3F
#HEADINGA,COM2,0,60.0,FINE,2088,454778.200,840586,29,18;SOL_COMPUTED,NARROW_INT,0.4356,157.1571,-18.1625,0.0000,0.7078,1.1770,"999",35,32,32,18,3,01,3,f3*39941d3f
$GNGGA,061920.30,3039.10771957,N,12047.27945336,E,1,28,0.8,4.1970,M,9.8160,M,,*4B
$GNRMC,061920.30,A,3039.10771957,N,12047.27945336,E,0.011,74.4,170120,5.8,W,A*00
#HEADINGA,COM2,0,60.0,FINE,2088,454778.300,840685,29,18;SOL_COMPUTED,NARROW_INT,0.4347,157.1955,-19.0193,0.0000,0.7131,1.1756,"999",35,32,32,18,3,01,3,f3*782017c5
$GNGGA,061920.40,3039.10771671,N,12047.27945575,E,1,28,0.8,4.1834,M,9.8160,M,,*47
$GNRMC,061920.40,A,3039.10771671,N,12047.27945575,E,0.023,94.3,170120,5.8,W,A*05
#HEADINGA,COM2,0,60.0,FINE,2088,454778.400,840785,28,18;SOL_COMPUTED,NARROW_INT,0.4371,156.9712,-18.3390,0.0000,0.7061,1.1730,"999",35,32,32,18,3,01,3,f3*be3cb190
$GNGGA,061920.50,3039.10771375,N,12047.27945783,E,1,28,0.8,4.1697,M,9.8160,M,,*4B
$GNRMC,061920.50,A,3039.10771375,N,12047.27945783,E,0.017,96.2,170120,5.8,W,A*0A
#HEADINGA,COM2,0,60.0,FINE,2088,454778.500,840885,28,18;SOL_COMPUTED,NARROW_INT,0.4360,157.1104,-18.4652,0.0000,0.7096,1.1763,"999",35,32,32,18,3,01,3,f3*6a7c9e69
$GNGGA,061920.60,3039.10771101,N,12047.27945962,E,1,28,0.8,4.1566,M,9.8160,M,,*45
$GNRMC,061920.60,A,3039.10771101,N,12047.27945962,E,0.011,69.4,170120,5.8,W,A*09
#HEADINGA,COM2,0,60.0,FINE,2088,454778.600,840985,28,18;SOL_COMPUTED,NARROW_INT,0.4348,157.5798,-18.0044,0.0000,0.7093,1.1819,"999",35,32,32,18,3,01,3,f3*4ee9c24f
$GNGGA,061920.70,3039.10770850,N,12047.27946114,E,1,28,0.8,4.1425,M,9.8160,M,,*44
$GNRMC,061920.70,A,3039.10770850,N,12047.27946114,E,0.009,3.7,170120,5.8,W,A*38
#HEADINGA,COM2,0,60.0,FINE,2088,454778.700,841085,28,18;SOL_COMPUTED,NARROW_INT,0.4363,157.4853,-17.2177,0.0000,0.7036,1.1811,"999",35,32,32,18,3,01,3,f3*b4461aae
$GNGGA,061920.80,3039.10770577,N,12047.27946305,E,1,28,0.8,4.1254,M,9.8160,M,,*41
$GNRMC,061920.80,A,3039.10770577,N,12047.27946305,E,0.009,42.9,170120,5.8,W,A*06
#HEADINGA,COM2,0,60.0,FINE,2088,454778.800,841185,28,18;SOL_COMPUTED,NARROW_INT,0.4340,157.4823,-17.4889,0.0000,0.7083,1.1860,"999",35,32,32,18,3,01,3,f3*cbde6cd3
$GNGGA,061920.90,3039.10770298,N,12047.27946469,E,1,28,0.8,4.1118,M,9.8160,M,,*40
$GNRMC,061920.90,A,3039.10770298,N,12047.27946469,E,0.012,52.9,170120,5.8,W,A*07
#HEADINGA,COM2,0,60.0,FINE,2088,454778.900,841285,28,18;SOL_COMPUTED,NARROW_INT,0.4377,157.1544,-18.3042,0.0000,0.7052,1.1718,"999",35,32,32,18,3,01,3,f3*6e09159f
#REFSTATIONA,COM2,0,60.0,UNKNOWN,0,0.000,840586,803,18;00000000,0.000,0.000,0.000,0,RTCMV3,"9999"*64c22397
$GNGGA,061921.00,3039.10770064,N,12047.27946675,E,1,28,0.8,4.0942,M,9.8160,M,,*40
$GNRMC,061921.00,A,3039.10770064,N,12047.27946675,E,0.017,33.5,170120,5.8,W,A*0F
#HEADINGA,COM2,0,60.0,FINE,2088,454779.000,841385,34,18;SOL_COMPUTED,NARROW_INT,0.4342,156.9957,-18.4685,0.0000,0.7111,1.1806,"999",35,32,32,18,3,01,3,f3*28fc1753
$GNGGA,061921.10,3039.10769773,N,12047.27946879,E,1,28,0.8,4.0791,M,9.8160,M,,*4A
$GNRMC,061921.10,A,3039.10769773,N,12047.27946879,E,0.016,86.8,170120,5.8,W,A*07
#HEADINGA,COM2,0,60.0,FINE,2088,454779.100,841485,29,18;SOL_COMPUTED,NARROW_INT,0.4361,157.3540,-17.7123,0.0000,0.7053,1.1779,"999",35,32,32,18,3,01,3,f3*0fd3c4d0
$GNGGA,061921.20,3039.10769456,N,12047.27947073,E,1,28,0.8,4.0638,M,9.8160,M,,*4C
$GNRMC,061921.20,A,3039.10769456,N,12047.27947073,E,0.017,117.5,170120,5.8,W,A*36
#HEADINGA,COM2,0,60.0,FINE,2088,454779.200,841586,28,18;SOL_COMPUTED,NARROW_INT,0.4349,157.5057,-17.3804,0.0000,0.7058,1.1823,"999",35,32,32,18,3,01,3,f3*4d58da7e
$GNGGA,061921.30,3039.10769178,N,12047.27947225,E,1,28,0.8,4.0502,M,9.8160,M,,*4F
$GNRMC,061921.30,A,3039.10769178,N,12047.27947225,E,0.007,65.7,170120,5.8,W,A*08
#HEADINGA,COM2,0,60.0,FINE,2088,454779.300,841685,28,18;SOL_COMPUTED,NARROW_INT,0.4361,157.0307,-17.8293,0.0000,0.7051,1.1765,"999",35,32,32,18,3,01,3,f3*48872021
$GNGGA,061921.40,3039.10768904,N,12047.27947408,E,1,28,0.8,4.0360,M,9.8160,M,,*41
$GNRMC,061921.40,A,3039.10768904,N,12047.27947408,E,0.011,92.2,170120,5.8,W,A*0E
#HEADINGA,COM2,0,60.0,FINE,2088,454779.400,841785,28,18;SOL_COMPUTED,NARROW_INT,0.4348,157.2457,-18.1822,0.0000,0.7088,1.1787,"999",35,32,32,18,3,01,3,f3*18b28669
$GNGGA,061921.50,3039.10768635,N,12047.27947582,E,1,28,0.8,4.0191,M,9.8160,M,,*42
$GNRMC,061921.50,A,3039.10768635,N,12047.27947582,E,0.009,109.8,170120,5.8,W,A*31
#HEADINGA,COM2,0,60.0,FINE,2088,454779.500,841885,28,18;SOL_COMPUTED,NARROW_INT,0.4331,157.3930,-17.3763,0.0000,0.7086,1.1872,"999",35,32,32,18,3,01,3,f3*84279028
$GNGGA,061921.60,3039.10768374,N,12047.27947801,E,1,28,0.8,4.0042,M,9.8160,M,,*48
$GNRMC,061921.60,A,3039.10768374,N,12047.27947801,E,0.021,88.2,170120,5.8,W,A*0C
#HEADINGA,COM2,0,60.0,FINE,2088,454779.600,841985,28,18;SOL_COMPUTED,NARROW_INT,0.4353,156.9918,-18.0137,0.0000,0.7070,1.1766,"999",35,32,32,18,3,01,3,f3*16197c7f
$GNGGA,061921.70,3039.10768116,N,12047.27947992,E,1,28,0.8,3.9910,M,9.8160,M,,*44
$GNRMC,061921.70,A,3039.10768116,N,12047.27947992,E,0.020,81.8,170120,5.8,W,A*02
#HEADINGA,COM2,0,60.0,FINE,2088,454779.700,842085,28,18;SOL_COMPUTED,NARROW_INT,0.4353,157.4747,-18.0761,0.0000,0.7077,1.1768,"999",35,32,32,18,3,01,3,f3*09230fc6
$GNGGA,061921.80,3039.10767882,N,12047.27948213,E,1,28,0.8,3.9767,M,9.8160,M,,*43
$GNRMC,061921.80,A,3039.10767882,N,12047.27948213,E,0.025,78.0,170120,5.8,W,A*00
#HEADINGA,COM2,0,60.0,FINE,2088,454779.800,842185,28,18;SOL_COMPUTED,NARROW_INT,0.4352,157.1594,-18.0407,0.0000,0.7074,1.1769,"999",35,32,32,18,3,01,3,f3*fba4ed97
$GNGGA,061921.90,3039.10767666,N,12047.27948377,E,1,28,0.8,3.9618,M,9.8160,M,,*4C
$GNRMC,061921.90,A,3039.10767666,N,12047.27948377,E,0.015,51.0,170120,5.8,W,A*0E
#HEADINGA,COM2,0,60.0,FINE,2088,454779.900,842285,28,18;SOL_COMPUTED,NARROW_INT,0.4372,157.1915,-17.8147,0.0000,0.7034,1.1738,"999",35,32,32,18,3,01,3,f3*ed3b3e3d
#REFSTATIONA,COM2,0,60.0,UNKNOWN,0,0.000,840586,1803,18;00000000,0.000,0.000,0.000,0,RTCMV3,"9999"*23b6e18f
$GNGGA,061922.00,3039.10767425,N,12047.27948639,E,1,28,0.8,3.9458,M,9.8160,M,,*4A
$GNRMC,061922.00,A,3039.10767425,N,12047.27948639,E,0.035,97.9,170120,5.8,W,A*0F
#HEADINGA,COM2,0,60.0,FINE,2088,454780.000,842385,35,18;SOL_COMPUTED,NARROW_INT,0.4344,157.3864,-17.8207,0.0000,0.7084,1.1820,"999",35,32,32,18,3,01,3,f3*5de59fa1
$GNGGA,061922.10,3039.10767172,N,12047.27948825,E,1,28,0.8,3.9318,M,9.8160,M,,*4C
$GNRMC,061922.10,A,3039.10767172,N,12047.27948825,E,0.022,95.4,170120,5.8,W,A*03
#HEADINGA,COM2,0,60.0,FINE,2088,454780.100,842485,29,18;SOL_COMPUTED,NARROW_INT,0.4370,157.2358,-18.3746,0.0000,0.7062,1.1721,"999",35,32,32,18,3,01,3,f3*d279dbc3
$GNGGA,061922.20,3039.10766904,N,12047.27948963,E,1,28,0.8,3.9209,M,9.8160,M,,*45
$GNRMC,061922.20,A,3039.10766904,N,12047.27948963,E,0.012,111.9,170120,5.8,W,A*38
#HEADINGA,COM2,0,61.0,FINE,2088,454780.200,842585,30,18;SOL_COMPUTED,NARROW_INT,0.4353,157.2309,-18.6338,0.0000,0.7097,1.1738,"999",35,32,32,18,3,01,3,f3*d22d961d
$GNGGA,061922.30,3039.10766695,N,12047.27949103,E,1,28,0.8,3.9089,M,9.8160,M,,*46
$GNRMC,061922.30,A,3039.10766695,N,12047.27949103,E,0.010,38.9,170120,5.8,W,A*09
#HEADINGA,COM2,0,61.0,FINE,2088,454780.300,842685,28,18;SOL_COMPUTED,NARROW_INT,0.4362,157.1699,-17.5907,0.0000,0.7040,1.1756,"999",35,32,32,18,3,01,3,f3*6217abc8
$GNGGA,061922.40,3039.10766463,N,12047.27949202,E,1,28,0.8,3.8975,M,9.8160,M,,*43
$GNRMC,061922.40,A,3039.10766463,N,12047.27949202,E,0.005,299.1,170120,5.8,W,A*32
#HEADINGA,COM2,0,61.0,FINE,2088,454780.400,842785,28,18;SOL_COMPUTED,NARROW_INT,0.4350,156.9101,-17.9068,0.0000,0.7070,1.1772,"999",35,32,32,18,3,01,3,f3*2dc4a1c7
$GNGGA,061922.50,3039.10766253,N,12047.27949354,E,1,28,0.8,3.8842,M,9.8160,M,,*40
$GNRMC,061922.50,A,3039.10766253,N,12047.27949354,E,0.005,66.0,170120,5.8,W,A*07
#HEADINGA,COM2,0,61.0,FINE,2088,454780.500,842885,28,18;SOL_COMPUTED,NARROW_INT,0.4329,157.4417,-18.1003,0.0000,0.7117,1.1826,"999",35,32,32,18,3,01,3,f3*09e2db54
$GNGGA,061922.60,3039.10766032,N,12047.27949495,E,1,28,0.8,3.8702,M,9.8160,M,,*47
$GNRMC,061922.60,A,3039.10766032,N,12047.27949495,E,0.006,124.0,170120,5.8,W,A*3F
#HEADINGA,COM2,0,61.0,FINE,2088,454780.600,842985,28,18;SOL_COMPUTED,NARROW_INT,0.4373,157.0446,-18.2348,0.0000,0.7047,1.1696,"999",35,32,32,18,3,01,3,f3*6080b5be
$GNGGA,061922.70,3039.10765795,N,12047.27949694,E,1,28,0.8,3.8543,M,9.8160,M,,*4B
$GNRMC,061922.70,A,3039.10765795,N,12047.27949694,E,0.020,116.7,170120,5.8,W,A*36
#HEADINGA,COM2,0,61.0,FINE,2088,454780.700,843084,29,18;SOL_COMPUTED,NARROW_INT,0.4342,157.6508,-17.4391,0.0000,0.7074,1.1826,"999",35,32,32,18,3,01,3,f3*fe14c646
$GNGGA,061922.80,3039.10765595,N,12047.27949858,E,1,28,0.8,3.8415,M,9.8160,M,,*4A
$GNRMC,061922.80,A,3039.10765595,N,12047.27949858,E,0.018,71.3,170120,5.8,W,A*0A
#HEADINGA,COM2,0,61.0,FINE,2088,454780.800,843185,28,18;SOL_COMPUTED,NARROW_INT,0.4347,157.5072,-18.4600,0.0000,0.7103,1.1760,"999",35,32,32,18,3,01,3,f3*39f574b5
$GNGGA,061922.90,3039.10765389,N,12047.27950002,E,1,28,0.8,3.8324,M,9.8160,M,,*4A
$GNRMC,061922.90,A,3039.10765389,N,12047.27950002,E,0.016,68.8,170120,5.8,W,A*02
#HEADINGA,COM2,0,61.0,FINE,2088,454780.900,843285,28,18;SOL_COMPUTED,NARROW_INT,0.4341,157.4901,-17.7985,0.0000,0.7086,1.1817,"999",35,32,32,18,3,01,3,f3*5b7d6c23
#REFSTATIONA,COM2,0,60.0,UNKNOWN,0,0.000,840586,2803,18;00000000,0.000,0.000,0.000,0,RTCMV3,"9999"*7494cddd
$GNGGA,061923.00,3039.10765177,N,12047.27950104,E,1,28,0.8,3.8234,M,9.8160,M,,*46
$GNRMC,061923.00,A,3039.10765177,N,12047.27950104,E,0.001,77.6,170120,5.8,W,A*08
#HEADINGA,COM2,0,61.0,FINE,2088,454781.000,843385,34,18;SOL_COMPUTED,NARROW_INT,0.4355,156.8724,-18.0494,0.0000,0.7078,1.1761,"999",35,32,32,18,3,01,3,f3*e4b2ce94
$GNGGA,061923.10,3039.10764988,N,12047.27950210,E,1,28,0.8,3.8120,M,9.8160,M,,*4E
$GNRMC,061923.10,A,3039.10764988,N,12047.27950210,E,0.002,289.2,170120,5.8,W,A*32
#HEADINGA,COM2,0,61.0,FINE,2088,454781.100,843485,29,18;SOL_COMPUTED,NARROW_INT,0.4340,157.8633,-17.2563,0.0000,0.7079,1.1846,"999",35,32,32,18,3,01,3,f3*09c1e9ea
$GNGGA,061923.20,3039.10764786,N,12047.27950310,E,1,28,0.8,3.7992,M,9.8160,M,,*42
$GNRMC,061923.20,A,3039.10764786,N,12047.27950310,E,0.005,214.7,170120,5.8,W,A*36
#HEADINGA,COM2,0,61.0,FINE,2088,454781.200,843586,29,18;SOL_COMPUTED,NARROW_INT,0.4351,157.1774,-17.7784,0.0000,0.7074,1.1783,"999",35,32,32,18,3,01,3,f3*08c22e20
$GNGGA,061923.30,3039.10764584,N,12047.27950415,E,1,28,0.8,3.7885,M,9.8160,M,,*46
$GNRMC,061923.30,A,3039.10764584,N,12047.27950415,E,0.005,131.1,170120,5.8,W,A*37
#HEADINGA,COM2,0,61.0,FINE,2088,454781.300,843685,29,18;SOL_COMPUTED,NARROW_INT,0.4383,157.1125,-18.4982,0.0000,0.7043,1.1659,"999",35,32,32,18,3,01,3,f3*c4d93aec
$GNGGA,061923.40,3039.10764409,N,12047.27950536,E,1,28,0.8,3.7791,M,9.8160,M,,*4F
$GNRMC,061923.40,A,3039.10764409,N,12047.27950536,E,0.010,64.1,170120,5.8,W,A*01
#HEADINGA,COM2,0,61.0,FINE,2088,454781.400,843785,29,18;SOL_COMPUTED,NARROW_INT,0.4337,157.6429,-17.6685,0.0000,0.7088,1.1823,"999",35,32,32,18,3,01,3,f3*57337dba
$GNGGA,061923.50,3039.10764227,N,12047.27950649,E,1,28,0.8,3.7679,M,9.8160,M,,*48
$GNRMC,061923.50,A,3039.10764227,N,12047.27950649,E,0.005,94.9,170120,5.8,W,A*02
#HEADINGA,COM2,0,61.0,FINE,2088,454781.500,843885,28,18;SOL_COMPUTED,NARROW_INT,0.4373,157.0627,-18.2846,0.0000,0.7057,1.1693,"999",35,32,32,18,3,01,3,f3*804d10bf
$GNGGA,061923.60,3039.10763997,N,12047.27950696,E,1,28,0.8,3.7588,M,9.8160,M,,*43
$GNRMC,061923.60,A,3039.10763997,N,12047.27950696,E,0.016,216.2,170120,5.8,W,A*35
#HEADINGA,COM2,0,61.0,FINE,2088,454781.600,843985,28,18;SOL_COMPUTED,NARROW_INT,0.4372,157.3856,-17.7304,0.0000,0.7040,1.1729,"999",35,32,32,18,3,01,3,f3*6d5acd99
$GNGGA,061923.70,3039.10763804,N,12047.27950775,E,1,28,0.8,3.7474,M,9.8160,M,,*47
$GNRMC,061923.70,A,3039.10763804,N,12047.27950775,E,0.011,222.0,170120,5.8,W,A*31
#HEADINGA,COM2,0,61.0,FINE,2088,454781.700,844085,28,18;SOL_COMPUTED,NARROW_INT,0.4337,157.6765,-16.9335,0.0000,0.7070,1.1864,"999",35,32,32,18,3,01,3,f3*e0c20d6c
$GNGGA,061923.80,3039.10763642,N,12047.27950906,E,1,28,0.8,3.7373,M,9.8160,M,,*4E
$GNRMC,061923.80,A,3039.10763642,N,12047.27950906,E,0.008,142.4,170120,5.8,W,A*31
#HEADINGA,COM2,0,61.0,FINE,2088,454781.800,844185,28,18;SOL_COMPUTED,NARROW_INT,0.4361,157.2235,-18.0029,0.0000,0.7068,1.1745,"999",35,32,32,18,3,01,3,f3*3a7632a3
$GNGGA,061923.90,3039.10763507,N,12047.27951026,E,1,28,0.8,3.7294,M,9.8160,M,,*4F
$GNRMC,061923.90,A,3039.10763507,N,12047.27951026,E,0.012,56.0,170120,5.8,W,A*03
#HEADINGA,COM2,0,61.0,FINE,2088,454781.900,844285,28,18;SOL_COMPUTED,NARROW_INT,0.4357,157.6307,-17.9555,0.0000,0.7077,1.1763,"999",35,32,32,18,3,01,3,f3*e6f1cc23
#REFSTATIONA,COM2,0,60.0,UNKNOWN,0,0.000,840586,3803,18;00000000,0.000,0.000,0.000,0,RTCMV3,"9999"*f0a5d42c
$GNGGA,061924.00,3039.10763356,N,12047.27951094,E,1,28,0.8,3.7238,M,9.8160,M,,*4C
$GNRMC,061924.00,A,3039.10763356,N,12047.27951094,E,0.006,14.6,170120,5.8,W,A*03
#HEADINGA,COM2,0,61.0,FINE,2088,454782.000,844385,34,18;SOL_COMPUTED,NARROW_INT,0.4367,157.1377,-18.4733,0.0000,0.7077,1.1731,"999",35,32,32,18,3,01,3,f3*06bfda29
$GNGGA,061924.10,3039.10763228,N,12047.27951219,E,1,28,0.8,3.7146,M,9.8160,M,,*48
$GNRMC,061924.10,A,3039.10763228,N,12047.27951219,E,0.008,62.7,170120,5.8,W,A*03
#HEADINGA,COM2,0,61.0,FINE,2088,454782.100,844485,29,18;SOL_COMPUTED,NARROW_INT,0.4341,156.9548,-17.8783,0.0000,0.7092,1.1809,"999",35,32,32,18,3,01,3,f3*38f0e8ff
$GNGGA,061924.20,3039.10763049,N,12047.27951317,E,1,28,0.8,3.7063,M,9.8160,M,,*47
$GNRMC,061924.20,A,3039.10763049,N,12047.27951317,E,0.011,142.8,170120,5.8,W,A*3E
#HEADINGA,COM2,0,61.0,FINE,2088,454782.200,844586,29,18;SOL_COMPUTED,NARROW_INT,0.4315,157.4013,-17.2355,0.0000,0.7115,1.1917,"999",35,32,32,18,3,01,3,f3*9d963db1
$GNGGA,061924.30,3039.10762870,N,12047.27951444,E,1,28,0.8,3.6985,M,9.8160,M,,*44
$GNRMC,061924.30,A,3039.10762870,N,12047.27951444,E,0.017,125.5,170120,5.8,W,A*37
#HEADINGA,COM2,0,61.0,FINE,2088,454782.300,844685,28,18;SOL_COMPUTED,NARROW_INT,0.4372,157.0312,-18.1880,0.0000,0.7055,1.1702,"999",35,32,32,18,3,01,3,f3*1a31a274
$GNGGA,061924.40,3039.10762727,N,12047.27951546,E,1,28,0.8,3.6902,M,9.8160,M,,*42
$GNRMC,061924.40,A,3039.10762727,N,12047.27951546,E,0.006,89.7,170120,5.8,W,A*0B
#HEADINGA,COM2,0,61.0,FINE,2088,454782.400,844785,28,18;SOL_COMPUTED,NARROW_INT,0.4337,157.4529,-17.3051,0.0000,0.7080,1.1839,"999",35,32,32,18,3,01,3,f3*0cae719a
$GNGGA,061924.50,3039.10762582,N,12047.27951664,E,1,28,0.8,3.6826,M,9.8160,M,,*4A
$GNRMC,061924.50,A,3039.10762582,N,12047.27951664,E,0.013,95.7,170120,5.8,W,A*0D
#HEADINGA,COM2,0,61.0,FINE,2088,454782.500,844885,28,18;SOL_COMPUTED,NARROW_INT,0.4320,157.7188,-17.6978,0.0000,0.7127,1.1885,"999",35,32,32,18,3,01,3,f3*55d960b1
$GNGGA,061924.60,3039.10762432,N,12047.27951842,E,1,28,0.8,3.6732,M,9.8160,M,,*43
$GNRMC,061924.60,A,3039.10762432,N,12047.27951842,E,0.025,102.1,170120,5.8,W,A*32
#HEADINGA,COM2,0,61.0,FINE,2088,454782.600,844985,28,18;SOL_COMPUTED,NARROW_INT,0.4342,157.4040,-17.3888,0.0000,0.7075,1.1834,"999",35,32,32,18,3,01,3,f3*73ac1821
$GNGGA,061924.70,3039.10762278,N,12047.27951970,E,1,28,0.8,3.6659,M,9.8160,M,,*46
$GNRMC,061924.70,A,3039.10762278,N,12047.27951970,E,0.017,86.4,170120,5.8,W,A*02
#HEADINGA,COM2,0,61.0,FINE,2088,454782.700,845085,28,18;SOL_COMPUTED,NARROW_INT,0.4320,157.2554,-17.2727,0.0000,0.7105,1.1897,"999",35,32,32,18,3,01,3,f3*0a2f4c15
$GNGGA,061924.80,3039.10762181,N,12047.27952089,E,1,28,0.8,3.6559,M,9.8160,M,,*43
$GNRMC,061924.80,A,3039.10762181,N,12047.27952089,E,0.014,23.4,170120,5.8,W,A*08
#HEADINGA,COM2,0,61.0,FINE,2088,454782.800,845185,28,18;SOL_COMPUTED,NARROW_INT,0.4349,157.1950,-17.4028,0.0000,0.7061,1.1811,"999",35,32,32,18,3,01,3,f3*aa852a8f
$GNGGA,061924.90,3039.10762139,N,12047.27952212,E,1,28,0.8,3.6440,M,9.8160,M,,*48
$GNRMC,061924.90,A,3039.10762139,N,12047.27952212,E,0.029,6.1,170120,5.8,W,A*36
#HEADINGA,COM2,0,61.0,FINE,2088,454782.900,845285,28,18;SOL_COMPUTED,NARROW_INT,0.4368,157.5135,-16.6926,0.0000,0.7008,1.1796,"999",35,32,32,18,3,01,3,f3*fd773f79
#REFSTATIONA,COM2,0,60.0,UNKNOWN,0,0.000,840586,4803,18;00000000,0.000,0.000,0.000,0,RTCMV3,"9999"*dad09579
$GNGGA,061925.00,3039.10762015,N,12047.27952313,E,1,28,0.8,3.6357,M,9.8160,M,,*4E
$GNRMC,061925.00,A,3039.10762015,N,12047.27952313,E,0.011,52.9,170120,5.8,W,A*03
#HEADINGA,COM2,0,61.0,FINE,2088,454783.000,845385,34,18;SOL_COMPUTED,NARROW_INT,0.4363,157.0347,-18.0506,0.0000,0.7065,1.1748,"999",35,32,32,18,3,01,3,f3*3ab33b87
$GNGGA,061925.10,3039.10761838,N,12047.27952347,E,1,28,0.8,3.6297,M,9.8160,M,,*47
$GNRMC,061925.10,A,3039.10761838,N,12047.27952347,E,0.015,229.2,170120,5.8,W,A*36
#HEADINGA,COM2,0,61.0,FINE,2088,454783.100,845485,29,18;SOL_COMPUTED,NARROW_INT,0.4364,156.7569,-17.5407,0.0000,0.7040,1.1753,"999",35,32,32,18,3,01,3,f3*36ca993d
$GNGGA,061925.20,3039.10761655,N,12047.27952435,E,1,28,0.8,3.6218,M,9.8160,M,,*44
$GNRMC,061925.20,A,3039.10761655,N,12047.27952435,E,0.019,186.3,170120,5.8,W,A*39
#HEADINGA,COM2,0,61.0,FINE,2088,454783.200,845586,28,18;SOL_COMPUTED,NARROW_INT,0.4355,156.8178,-17.7426,0.0000,0.7064,1.1777,"999",35,32,32,18,3,01,3,f3*4dc93c30
$GNGGA,061925.30,3039.10764211,N,12047.27992630,E,2,11,1.2,7.5912,M,9.8160,M,03,0*78
$GNRMC,061925.30,A,3039.10764211,N,12047.27992630,E,0.039,32.5,170120,5.8,W,D*0D
#HEADINGA,COM2,0,61.0,FINE,2088,454783.300,845685,26,18;SOL_COMPUTED,NARROW_INT,0.4355,156.9495,-17.7142,0.0000,0.7063,1.1781,"999",35,32,32,18,3,01,3,f3*30caf994
$GNGGA,061925.40,3039.10764295,N,12047.27992723,E,2,11,1.2,7.5923,M,9.8160,M,03,0*72
$GNRMC,061925.40,A,3039.10764295,N,12047.27992723,E,0.029,30.0,170120,5.8,W,D*03
#HEADINGA,COM2,0,61.0,FINE,2088,454783.400,845785,26,18;SOL_COMPUTED,NARROW_INT,0.4363,157.3597,-17.2291,0.0000,0.7034,1.1775,"999",35,32,32,18,3,01,3,f3*b96b16f1
$GNGGA,061925.50,3039.10764222,N,12047.27992739,E,2,11,1.2,7.5947,M,9.8160,M,03,0*76
$GNRMC,061925.50,A,3039.10764222,N,12047.27992739,E,0.019,61.2,170120,5.8,W,D*00
#HEADINGA,COM2,0,61.0,FINE,2088,454783.500,845885,26,18;SOL_COMPUTED,NARROW_INT,0.4356,157.1330,-17.9299,0.0000,0.7070,1.1758,"999",35,32,32,18,3,01,3,f3*9ba819fd
$GNGGA,061925.60,3039.10764409,N,12047.27992698,E,2,11,1.2,7.6031,M,9.8160,M,03,0*7B
$GNRMC,061925.60,A,3039.10764409,N,12047.27992698,E,0.003,118.1,170120,5.8,W,D*31
#HEADINGA,COM2,0,61.0,FINE,2088,454783.600,845985,26,18;SOL_COMPUTED,NARROW_INT,0.4328,157.3793,-17.5034,0.0000,0.7100,1.1856,"999",35,32,32,18,3,01,3,f3*4c4e2094
$GNGGA,061925.70,3039.10764414,N,12047.27992722,E,2,11,1.2,7.5945,M,9.8160,M,03,0*7F
$GNRMC,061925.70,A,3039.10764414,N,12047.27992722,E,0.002,52.3,170120,5.8,W,D*00
#HEADINGA,COM2,0,61.0,FINE,2088,454783.700,846084,26,18;SOL_COMPUTED,NARROW_INT,0.4376,157.5504,-17.7398,0.0000,0.7033,1.1723,"999",35,32,32,18,3,01,3,f3*58c4cc98
$GNGGA,061925.80,3039.10764407,N,12047.27992715,E,2,11,1.2,7.6060,M,9.8160,M,03,0*7B
$GNRMC,061925.80,A,3039.10764407,N,12047.27992715,E,0.005,174.3,170120,5.8,W,D*3B
#HEADINGA,COM2,0,61.0,FINE,2088,454783.800,846185,26,18;SOL_COMPUTED,NARROW_INT,0.4338,157.0605,-17.9588,0.0000,0.7100,1.1814,"999",35,32,32,18,3,01,3,f3*910a2545
$GNGGA,061925.90,3039.10764494,N,12047.27992680,E,2,11,1.2,7.5940,M,9.8160,M,03,0*75
$GNRMC,061925.90,A,3039.10764494,N,12047.27992680,E,0.023,358.3,170120,5.8,W,D*35
#HEADINGA,COM2,0,61.0,FINE,2088,454783.900,846285,26,18;SOL_COMPUTED,NARROW_INT,0.4346,157.2125,-17.6803,0.0000,0.7077,1.1805,"999",35,32,32,18,3,01,3,f3*d42b4bae
#REFSTATIONA,COM2,0,61.0,FINE,2088,454780.000,845586,803,18;00000000,-2811044.342,4717820.352,3232735.546,0,RTCMV3,"0000"*6f1136af
$GNGGA,061926.00,3039.10764498,N,12047.27992806,E,2,11,1.2,7.5831,M,9.8160,M,04,0*73
$GNRMC,061926.00,A,3039.10764498,N,12047.27992806,E,0.012,17.7,170120,5.8,W,D*0D
#HEADINGA,COM2,0,61.0,FINE,2088,454784.000,846385,32,18;SOL_COMPUTED,NARROW_INT,0.4346,157.5767,-17.2752,0.0000,0.7065,1.1829,"999",35,32,32,18,3,01,3,f3*02035ba1
$GNGGA,061926.10,3039.10764480,N,12047.27992881,E,2,11,1.2,7.5989,M,9.8160,M,04,0*76
$GNRMC,061926.10,A,3039.10764480,N,12047.27992881,E,0.020,107.6,170120,5.8,W,D*3A
#HEADINGA,COM2,0,61.0,FINE,2088,454784.100,846485,27,18;SOL_COMPUTED,NARROW_INT,0.4370,157.2300,-18.0413,0.0000,0.7051,1.1722,"999",35,32,32,18,3,01,3,f3*9c76b492
$GNGGA,061926.20,3039.10764437,N,12047.27992892,E,2,11,1.2,7.6032,M,9.8160,M,04,0*71
$GNRMC,061926.20,A,3039.10764437,N,12047.27992892,E,0.017,129.0,170120,5.8,W,D*39
#HEADINGA,COM2,0,61.0,FINE,2088,454784.200,846586,26,18;SOL_COMPUTED,NARROW_INT,0.4346,157.1428,-17.9766,0.0000,0.7087,1.1787,"999",35,32,32,18,3,01,3,f3*a2240d44
$GNGGA,061926.30,3039.10764553,N,12047.27992780,E,2,11,1.2,7.5990,M,9.8160,M,04,0*7D
$GNRMC,061926.30,A,3039.10764553,N,12047.27992780,E,0.018,336.8,170120,5.8,W,D*3C
#HEADINGA,COM2,0,61.0,FINE,2088,454784.300,846685,26,18;SOL_COMPUTED,NARROW_INT,0.4341,157.3940,-17.2804,0.0000,0.7079,1.1852,"999",35,32,32,18,3,01,3,f3*ef8480ea
$GNGGA,061926.40,3039.10764513,N,12047.27992785,E,2,11,1.2,7.5863,M,9.8160,M,04,0*76
$GNRMC,061926.40,A,3039.10764513,N,12047.27992785,E,0.013,21.7,170120,5.8,W,D*0B
#HEADINGA,COM2,0,61.0,FINE,2088,454784.400,846785,26,18;SOL_COMPUTED,NARROW_INT,0.4343,157.1427,-18.0643,0.0000,0.7104,1.1807,"999",35,32,32,18,3,01,3,f3*cc7f7902
$GNGGA,061926.50,3039.10764450,N,12047.27992957,E,2,11,1.2,7.5957,M,9.8160,M,04,0*76
$GNRMC,061926.50,A,3039.10764450,N,12047.27992957,E,0.016,85.3,170120,5.8,W,D*02
#HEADINGA,COM2,0,61.0,FINE,2088,454784.500,846885,26,18;SOL_COMPUTED,NARROW_INT,0.4307,156.9304,-17.9682,0.0000,0.7157,1.1908,"999",35,32,32,18,3,01,3,f3*152c904f
$GNGGA,061926.60,3039.10764468,N,12047.27992953,E,2,11,1.2,7.6021,M,9.8160,M,04,0*71
$GNRMC,061926.60,A,3039.10764468,N,12047.27992953,E,0.013,81.8,170120,5.8,W,D*04
#HEADINGA,COM2,0,61.0,FINE,2088,454784.600,846985,26,18;SOL_COMPUTED,NARROW_INT,0.4354,156.9780,-17.9288,0.0000,0.7080,1.1787,"999",35,32,32,18,3,01,3,f3*78c54b5d
$GNGGA,061926.70,3039.10764638,N,12047.27993034,E,2,11,1.2,7.5955,M,9.8160,M,04,0*77
$GNRMC,061926.70,A,3039.10764638,N,12047.27993034,E,0.004,2.6,170120,5.8,W,D*38
#HEADINGA,COM2,0,61.0,FINE,2088,454784.700,847085,26,18;SOL_COMPUTED,NARROW_INT,0.4348,157.6161,-17.3100,0.0000,0.7065,1.1828,"999",35,32,32,18,3,01,3,f3*447579ac
$GNGGA,061926.80,3039.10764545,N,12047.27993133,E,2,11,1.2,7.5935,M,9.8160,M,04,0*71
$GNRMC,061926.80,A,3039.10764545,N,12047.27993133,E,0.007,34.6,170120,5.8,W,D*0E
#HEADINGA,COM2,0,61.0,FINE,2088,454784.800,847185,26,18;SOL_COMPUTED,NARROW_INT,0.4332,157.6402,-17.1706,0.0000,0.7086,1.1879,"999",35,32,32,18,3,01,3,f3*91460419
$GNGGA,061926.90,3039.10764525,N,12047.27993069,E,2,11,1.2,7.5963,M,9.8160,M,04,0*7B
$GNRMC,061926.90,A,3039.10764525,N,12047.27993069,E,0.006,131.5,170120,5.8,W,D*31
#HEADINGA,COM2,0,61.0,FINE,2088,454784.900,847285,26,18;SOL_COMPUTED,NARROW_INT,0.4328,157.2544,-17.1721,0.0000,0.7091,1.1889,"999",35,32,32,18,3,01,3,f3*6833790d
#REFSTATIONA,COM2,0,61.0,FINE,2088,454780.000,845586,1803,18;00000000,-2811044.342,4717820.352,3232735.546,0,RTCMV3,"0000"*c9a5ce39
$GNGGA,061927.00,3039.10764649,N,12047.27993285,E,2,11,1.2,7.5946,M,9.8160,M,05,0*7C
$GNRMC,061927.00,A,3039.10764649,N,12047.27993285,E,0.019,20.7,170120,5.8,W,D*0D
#HEADINGA,COM2,0,61.0,FINE,2088,454785.000,847385,32,18;SOL_COMPUTED,NARROW_INT,0.4354,157.0331,-18.6859,0.0000,0.7106,1.1740,"999",35,32,32,18,3,01,3,f3*de7a90a4
$GNGGA,061927.10,3039.10764641,N,12047.27993168,E,2,11,1.2,7.5939,M,9.8160,M,05,0*7D
$GNRMC,061927.10,A,3039.10764641,N,12047.27993168,E,0.015,49.4,170120,5.8,W,D*04
#HEADINGA,COM2,0,61.0,FINE,2088,454785.100,847485,27,18;SOL_COMPUTED,NARROW_INT,0.4329,157.7689,-16.7927,0.0000,0.7081,1.1927,"999",35,32,32,18,3,01,3,f3*579e4648
$GNGGA,061927.20,3039.10764683,N,12047.27993220,E,2,11,1.2,7.5919,M,9.8160,M,05,0*7D
$GNRMC,061927.20,A,3039.10764683,N,12047.27993220,E,0.007,54.4,170120,5.8,W,D*09
#HEADINGA,COM2,0,61.0,FINE,2088,454785.200,847586,27,18;SOL_COMPUTED,NARROW_INT,0.4341,157.3809,-17.4983,0.0000,0.7082,1.1853,"999",35,32,32,18,3,01,3,f3*011f80f2
$GNGGA,061927.30,3039.10764679,N,12047.27993242,E,2,11,1.2,7.5903,M,9.8160,M,04,0*77
$GNRMC,061927.30,A,3039.10764679,N,12047.27993242,E,0.010,345.7,170120,5.8,W,D*3F
#HEADINGA,COM2,0,61.0,FINE,2088,454785.300,847685,27,18;SOL_COMPUTED,NARROW_INT,0.4358,157.2872,-18.3812,0.0000,0.7096,1.1762,"999",35,32,32,18,3,01,3,f3*4c5afedf
$GNGGA,061927.40,3039.10714719,N,12047.28030095,E,4,33,0.6,4.5376,M,9.8160,M,04,0*7F
$GNRMC,061927.40,A,3039.10714719,N,12047.28030095,E,0.008,51.3,170120,5.8,W,D*04
#HEADINGA,COM2,0,61.0,FINE,2088,454785.400,847785,34,18;SOL_COMPUTED,NARROW_INT,0.4365,157.0536,-18.2389,0.0000,0.7078,1.1751,"999",35,32,32,18,3,01,3,f3*63819489
$GNGGA,061927.50,3039.10714760,N,12047.28030074,E,4,33,0.6,4.5356,M,9.8160,M,04,0*7D
$GNRMC,061927.50,A,3039.10714760,N,12047.28030074,E,0.016,336.5,170120,5.8,W,D*3F
#HEADINGA,COM2,0,61.0,FINE,2088,454785.500,847885,17,18;SOL_COMPUTED,NARROW_INT,0.4320,157.7408,-17.1795,0.0000,0.7115,1.1930,"999",35,32,32,18,3,01,3,f3*4509e035
$GNGGA,061927.60,3039.10714734,N,12047.28030105,E,4,33,0.6,4.5330,M,9.8160,M,04,0*78
$GNRMC,061927.60,A,3039.10714734,N,12047.28030105,E,0.013,134.1,170120,5.8,W,D*3B
#HEADINGA,COM2,0,61.0,FINE,2088,454785.600,847985,17,18;SOL_COMPUTED,NARROW_INT,0.4337,157.4637,-18.0802,0.0000,0.7120,1.1842,"999",35,32,32,18,3,01,3,f3*1ba66827
$GNGGA,061927.70,3039.10714763,N,12047.28030085,E,4,33,0.6,4.5345,M,9.8160,M,04,0*70
$GNRMC,061927.70,A,3039.10714763,N,12047.28030085,E,0.012,329.1,170120,5.8,W,D*3E
#HEADINGA,COM2,0,61.0,FINE,2088,454785.700,848085,16,18;SOL_COMPUTED,NARROW_INT,0.4342,157.2836,-17.6707,0.0000,0.7093,1.1846,"999",35,32,32,18,3,01,3,f3*fded9f28
$GNGGA,061927.80,3039.10714803,N,12047.28030070,E,4,33,0.6,4.5364,M,9.8160,M,04,0*7F
$GNRMC,061927.80,A,3039.10714803,N,12047.28030070,E,0.015,341.6,170120,5.8,W,D*3C
#HEADINGA,COM2,0,61.0,FINE,2088,454785.800,848185,16,18;SOL_COMPUTED,NARROW_INT,0.4326,157.1623,-17.7784,0.0000,0.7123,1.1886,"999",35,32,32,18,3,01,3,f3*df97e20b
$GNGGA,061927.90,3039.10714834,N,12047.28030002,E,4,33,0.6,4.5355,M,9.8160,M,04,0*7D
$GNRMC,061927.90,A,3039.10714834,N,12047.28030002,E,0.024,297.8,170120,5.8,W,D*3A
#HEADINGA,COM2,0,61.0,FINE,2088,454785.900,848285,17,18;SOL_COMPUTED,NARROW_INT,0.4337,156.9274,-17.9587,0.0000,0.7109,1.1841,"999",35,32,32,18,3,01,3,f3*95742d55
#REFSTATIONA,COM2,0,61.0,FINE,2088,454780.000,847586,803,18;00000000,-2811044.342,4717820.352,3232735.546,0,RTCMV3,"0000"*5bf888f2
$GNGGA,061928.00,3039.10714796,N,12047.28030157,E,4,33,0.6,4.5374,M,9.8160,M,05,0*7F
$GNRMC,061928.00,A,3039.10714796,N,12047.28030157,E,0.050,105.5,170120,5.8,W,D*3C
#HEADINGA,COM2,0,61.0,FINE,2088,454786.000,848385,22,18;SOL_COMPUTED,NARROW_INT,0.4349,157.2055,-17.9826,0.0000,0.7092,1.1809,"999",35,32,32,18,3,01,3,f3*1583d969
$GNGGA,061928.10,3039.10714775,N,12047.28030094,E,4,33,0.6,4.5348,M,9.8160,M,05,0*72
$GNRMC,061928.10,A,3039.10714775,N,12047.28030094,E,0.021,248.3,170120,5.8,W,D*34
#HEADINGA,COM2,0,61.0,FINE,2088,454786.100,848485,18,18;SOL_COMPUTED,NARROW_INT,0.4349,156.9642,-17.9432,0.0000,0.7089,1.1812,"999",35,32,32,18,3,01,3,f3*0cb46114
$GNGGA,061928.20,3039.10714749,N,12047.28030056,E,4,33,0.6,4.5347,M,9.8160,M,05,0*7F
$GNRMC,061928.20,A,3039.10714749,N,12047.28030056,E,0.015,231.9,170120,5.8,W,D*35
#HEADINGA,COM2,0,61.0,FINE,2088,454786.200,848586,18,18;SOL_COMPUTED,NARROW_INT,0.4356,156.8751,-18.0848,0.0000,0.7082,1.1784,"999",35,32,32,18,3,01,3,f3*136085c7
$GNGGA,061928.30,3039.10714748,N,12047.28030035,E,4,33,0.6,4.5345,M,9.8160,M,05,0*78
$GNRMC,061928.30,A,3039.10714748,N,12047.28030035,E,0.007,266.1,170120,5.8,W,D*39
#HEADINGA,COM2,0,59.0,FINE,2088,454786.300,848685,17,18;SOL_COMPUTED,NARROW_INT,0.4335,157.2460,-17.5612,0.0000,0.7093,1.1867,"999",35,32,32,18,3,01,3,f3*438cefcd
$GNGGA,061928.40,3039.10714882,N,12047.28030078,E,4,33,0.6,4.5268,M,9.8160,M,05,0*71
$GNRMC,061928.40,A,3039.10714882,N,12047.28030078,E,0.050,15.7,170120,5.8,W,D*0C
#HEADINGA,COM2,0,59.0,FINE,2088,454786.400,848785,20,18;SOL_COMPUTED,NARROW_INT,0.4327,157.1753,-17.7604,0.0000,0.7114,1.1879,"999",35,32,32,18,3,01,3,f3*3bc89a8a
$GNGGA,061928.50,3039.10714851,N,12047.28029958,E,4,33,0.6,4.5289,M,9.8160,M,05,0*72
$GNRMC,061928.50,A,3039.10714851,N,12047.28029958,E,0.039,253.1,170120,5.8,W,D*39
#HEADINGA,COM2,0,59.0,FINE,2088,454786.500,848885,17,18;SOL_COMPUTED,NARROW_INT,0.4353,156.5357,-17.5423,0.0000,0.7056,1.1813,"999",35,32,32,18,3,01,3,f3*67f786bc
$GNGGA,061928.60,3039.10714775,N,12047.28029966,E,4,33,0.6,4.5263,M,9.8160,M,05,0*71
$GNRMC,061928.60,A,3039.10714775,N,12047.28029966,E,0.027,175.4,170120,5.8,W,D*33
#HEADINGA,COM2,0,59.0,FINE,2088,454786.600,848985,16,18;SOL_COMPUTED,NARROW_INT,0.4334,157.0296,-17.6720,0.0000,0.7097,1.1873,"999",35,32,32,18,3,01,3,f3*434d145e
$GNGGA,061928.70,3039.10714830,N,12047.28029932,E,4,33,0.6,4.5241,M,9.8160,M,05,0*7F
$GNRMC,061928.70,A,3039.10714830,N,12047.28029932,E,0.022,332.1,170120,5.8,W,D*3C
#HEADINGA,COM2,0,59.0,FINE,2088,454786.700,849085,16,18;SOL_COMPUTED,NARROW_INT,0.4361,157.1029,-17.0052,0.0000,0.7030,1.1832,"999",35,32,32,18,3,01,3,f3*f63e2a6d
$GNGGA,061928.80,3039.10714846,N,12047.28029841,E,4,33,0.6,4.5280,M,9.8160,M,05,0*79
$GNRMC,061928.80,A,3039.10714846,N,12047.28029841,E,0.029,281.1,170120,5.8,W,D*35
#HEADINGA,COM2,0,59.0,FINE,2088,454786.800,849185,16,18;SOL_COMPUTED,NARROW_INT,0.4335,156.8793,-17.1550,0.0000,0.7079,1.1891,"999",35,32,32,18,3,01,3,f3*9017a7b3
$GNGGA,061928.90,3039.10714867,N,12047.28029918,E,4,33,0.6,4.5264,M,9.8160,M,05,0*7C
$GNRMC,061928.90,A,3039.10714867,N,12047.28029918,E,0.025,72.3,170120,5.8,W,D*0A
#HEADINGA,COM2,0,59.0,FINE,2088,454786.900,849284,17,18;SOL_COMPUTED,NARROW_INT,0.4348,157.2667,-17.3231,0.0000,0.7077,1.1855,"999",35,32,32,18,3,01,3,f3*84d76913
#REFSTATIONA,COM2,0,61.0,FINE,2088,454780.000,847586,1803,18;00000000,-2811044.342,4717820.352,3232735.546,0,RTCMV3,"0000"*dc4b0ace
$GNGGA,061929.00,3039.10714789,N,12047.28029994,E,4,33,0.6,4.5322,M,9.8160,M,06,0*7F
$GNRMC,061929.00,A,3039.10714789,N,12047.28029994,E,0.037,139.9,170120,5.8,W,D*3E
#HEADINGA,COM2,0,59.0,FINE,2088,454787.000,849385,22,18;SOL_COMPUTED,NARROW_INT,0.4355,157.3040,-17.0198,0.0000,0.7054,1.1849,"999",35,32,32,18,3,01,3,f3*22f0339d
$GNGGA,061929.10,3039.10714852,N,12047.28029934,E,4,33,0.6,4.5261,M,9.8160,M,06,0*7B
$GNRMC,061929.10,A,3039.10714852,N,12047.28029934,E,0.029,320.7,170120,5.8,W,D*37
#HEADINGA,COM2,0,59.0,FINE,2088,454787.100,849485,17,18;SOL_COMPUTED,NARROW_INT,0.4368,157.2206,-17.4003,0.0000,0.7048,1.1784,"999",35,32,32,18,3,01,3,f3*2ca4b7ab
$GNGGA,061929.20,3039.10714808,N,12047.28030111,E,4,33,0.6,4.5191,M,9.8160,M,06,0*7C
$GNRMC,061929.20,A,3039.10714808,N,12047.28030111,E,0.057,106.1,170120,5.8,W,D*35
#HEADINGA,COM2,0,59.0,FINE,2088,454787.200,849586,18,18;SOL_COMPUTED,NARROW_INT,0.4329,156.7328,-16.8744,0.0000,0.7084,1.1900,"999",35,32,32,18,3,01,3,f3*cd12a5f2
$GNGGA,061929.30,3039.10714810,N,12047.28030100,E,4,33,0.6,4.5189,M,9.8160,M,06,0*7D
$GNRMC,061929.30,A,3039.10714810,N,12047.28030100,E,0.003,282.5,170120,5.8,W,D*37
#HEADINGA,COM2,0,59.0,FINE,2088,454787.300,849685,17,18;SOL_COMPUTED,NARROW_INT,0.4355,157.0671,-17.0173,0.0000,0.7053,1.1805,"999",35,32,32,18,3,01,3,f3*c8d12170
$GNGGA,061929.40,3039.10714768,N,12047.28030049,E,4,33,0.6,4.5272,M,9.8160,M,06,0*71
$GNRMC,061929.40,A,3039.10714768,N,12047.28030049,E,0.022,226.7,170120,5.8,W,D*33
#HEADINGA,COM2,0,59.0,FINE,2088,454787.400,849785,20,18;SOL_COMPUTED,NARROW_INT,0.4378,156.9960,-18.0518,0.0000,0.7048,1.1696,"999",35,32,32,18,3,01,3,f3*dda9fc40
$GNGGA,061929.50,3039.10714831,N,12047.28030077,E,4,33,0.6,4.5262,M,9.8160,M,06,0*7F
$GNRMC,061929.50,A,3039.10714831,N,12047.28030077,E,0.024,21.2,170120,5.8,W,D*0A
#HEADINGA,COM2,0,59.0,FINE,2088,454787.500,849885,16,18;SOL_COMPUTED,NARROW_INT,0.4314,157.1503,-16.9307,0.0000,0.7109,1.1917,"999",35,32,32,18,3,01,3,f3*701b7245
$GNGGA,061929.60,3039.10714833,N,12047.28030074,E,4,33,0.6,4.5298,M,9.8160,M,06,0*78
$GNRMC,061929.60,A,3039.10714833,N,12047.28030074,E,0.001,316.5,170120,5.8,W,D*3F
#HEADINGA,COM2,0,59.0,FINE,2088,454787.600,849985,16,18;SOL_COMPUTED,NARROW_INT,0.4363,157.2772,-16.9162,0.0000,0.7036,1.1786,"999",35,32,32,18,3,01,3,f3*ae0c412c
$GNGGA,061929.70,3039.10714714,N,12047.28030008,E,4,33,0.6,4.5286,M,9.8160,M,06,0*77
$GNRMC,061929.70,A,3039.10714714,N,12047.28030008,E,0.048,205.7,170120,5.8,W,D*33
#HEADINGA,COM2,0,59.0,FINE,2088,454787.700,850085,16,18;SOL_COMPUTED,NARROW_INT,0.4344,156.9527,-18.0561,0.0000,0.7107,1.1782,"999",35,32,32,18,3,01,3,f3*5f23298b
$GNGGA,061929.80,3039.10714740,N,12047.28029988,E,4,33,0.6,4.5287,M,9.8160,M,06,0*71
$GNRMC,061929.80,A,3039.10714740,N,12047.28029988,E,0.011,327.5,170120,5.8,W,D*3B
#HEADINGA,COM2,0,59.0,FINE,2088,454787.800,850185,16,18;SOL_COMPUTED,NARROW_INT,0.4359,157.0979,-17.2006,0.0000,0.7052,1.1784,"999",35,32,32,18,3,01,3,f3*0d298978
$GNGGA,061929.90,3039.10714789,N,12047.28030079,E,4,33,0.6,4.5276,M,9.8160,M,06,0*74
$GNRMC,061929.90,A,3039.10714789,N,12047.28030079,E,0.033,58.4,170120,5.8,W,D*0A
#HEADINGA,COM2,0,59.0,FINE,2088,454787.900,850285,16,18;SOL_COMPUTED,NARROW_INT,0.4348,157.1221,-17.8718,0.0000,0.7096,1.1785,"999",35,32,32,18,3,01,3,f3*c6f38651
#REFSTATIONA,COM2,0,61.0,FINE,2088,454780.000,847586,2803,18;00000000,-2811044.342,4717820.352,3232735.546,0,RTCMV3,"0000"*7835880b
$GNGGA,061930.00,3039.10714809,N,12047.28030111,E,4,33,0.6,4.5261,M,9.8160,M,07,0*7A
$GNRMC,061930.00,A,3039.10714809,N,12047.28030111,E,0.012,53.7,170120,5.8,W,D*08
#HEADINGA,COM2,0,59.0,FINE,2088,454788.000,850385,22,18;SOL_COMPUTED,NARROW_INT,0.4335,157.3923,-16.7470,0.0000,0.7077,1.1875,"999",35,32,32,18,3,01,3,f3*28249204
$GNGGA,061930.10,3039.10714815,N,12047.28030029,E,4,33,0.6,4.5268,M,9.8160,M,07,0*75
