
$GNGGA,013841.20,3039.25647519,N,12047.31068402,E,2,27,0.6,3.9446,M,9.8167,M,08,0*76
$GNRMC,013841.20,A,3039.25647519,N,12047.31068402,E,0.015,163.6,170120,5.8,W,D*33
#HEADINGA,COM2,0,49.0,FINE,2088,437939.200,2797036,31,18;SOL_COMPUTED,NARROW_INT,0.4370,160.2214,-15.4378,0.0000,0.5597,1.1713,"999",39,37,37,33,3,01,3,f3*b8f74dfc
$GNGGA,013841.30,3039.25647544,N,12047.31068331,E,2,27,0.6,3.9474,M,9.8167,M,08,0*79
$GNRMC,013841.30,A,3039.25647544,N,12047.31068331,E,0.008,264.7,170120,5.8,W,D*34
#HEADINGA,COM2,0,49.0,FINE,2088,437939.300,2797135,29,18;SOL_COMPUTED,NARROW_INT,0.4342,160.1243,-15.1848,0.0000,0.5627,1.1793,"999",39,37,37,33,3,01,3,f3*2d58092f
$GNGGA,013841.40,3039.25647539,N,12047.31068285,E,2,27,0.6,3.9500,M,9.8167,M,08,0*78
$GNRMC,013841.40,A,3039.25647539,N,12047.31068285,E,0.010,210.3,170120,5.8,W,D*39
#HEADINGA,COM2,0,49.0,FINE,2088,437939.400,2797234,29,18;SOL_COMPUTED,NARROW_INT,0.4341,159.9474,-15.6818,0.0000,0.5643,1.1783,"999",39,37,37,33,3,01,3,f3*92086612
$GNGGA,013841.50,3039.25647556,N,12047.31068231,E,2,27,0.6,3.9527,M,9.8167,M,08,0*7A
$GNRMC,013841.50,A,3039.25647556,N,12047.31068231,E,0.012,238.8,170120,5.8,W,D*3D
#HEADINGA,COM2,0,49.0,FINE,2088,437939.500,2797334,30,18;SOL_COMPUTED,NARROW_INT,0.4346,160.2508,-14.8433,0.0000,0.5612,1.1793,"999",39,37,37,33,3,01,3,f3*c011f0b3
$GNGGA,013841.60,3039.25647599,N,12047.31068231,E,2,27,0.6,3.9540,M,9.8167,M,08,0*7B
$GNRMC,013841.60,A,3039.25647599,N,12047.31068231,E,0.007,307.1,170120,5.8,W,D*3D
#HEADINGA,COM2,0,49.0,FINE,2088,437939.600,2797434,29,18;SOL_COMPUTED,NARROW_INT,0.4336,159.8871,-15.8498,0.0000,0.5654,1.1790,"999",39,37,37,33,3,01,3,f3*93ba9e8b
$GNGGA,013841.70,3039.25647629,N,12047.31068252,E,2,27,0.6,3.9571,M,9.8167,M,08,0*75
$GNRMC,013841.70,A,3039.25647629,N,12047.31068252,E,0.005,76.3,170120,5.8,W,D*04
#HEADINGA,COM2,0,49.0,FINE,2088,437939.700,2797534,29,18;SOL_COMPUTED,NARROW_INT,0.4342,159.8751,-15.9220,0.0000,0.5648,1.1772,"999",39,37,37,33,3,01,3,f3*d5111581
$GNGGA,013841.80,3039.25647673,N,12047.31068263,E,2,27,0.6,3.9594,M,9.8167,M,08,0*7C
$GNRMC,013841.80,A,3039.25647673,N,12047.31068263,E,0.003,19.3,170120,5.8,W,D*09
#HEADINGA,COM2,0,49.0,FINE,2088,437939.800,2797634,29,18;SOL_COMPUTED,NARROW_INT,0.4349,160.0510,-15.5675,0.0000,0.5628,1.1764,"999",39,37,37,33,3,01,3,f3*28bb3090
$GNGGA,013841.90,3039.25647717,N,12047.31068229,E,2,27,0.6,3.9621,M,9.8167,M,08,0*7D
$GNRMC,013841.90,A,3039.25647717,N,12047.31068229,E,0.011,302.0,170120,5.8,W,D*3C
#HEADINGA,COM2,0,49.0,FINE,2088,437939.900,2797734,30,18;SOL_COMPUTED,NARROW_INT,0.4348,159.9312,-15.7577,0.0000,0.5632,1.1753,"999",39,37,37,33,3,01,3,f3*167bdcef
#REFSTATIONA,COM2,0,49.0,FINE,2088,437931.000,2796036,1803,18;00000000,-2811023.329,4717645.324,3233007.504,0,RTCMV3,"0000"*1bfc4528
$GNGGA,013842.00,3039.25647768,N,12047.31068201,E,2,27,0.6,3.9630,M,9.8167,M,09,0*74
$GNRMC,013842.00,A,3039.25647768,N,12047.31068201,E,0.014,310.7,170120,5.8,W,D*35
#HEADINGA,COM2,0,49.0,FINE,2088,437940.000,2797834,36,18;SOL_COMPUTED,NARROW_INT,0.4361,160.1971,-15.5270,0.0000,0.5607,1.1732,"999",39,37,37,33,3,01,3,f3*b8aa0dea
$GNGGA,013842.10,3039.25647764,N,12047.31068153,E,2,27,0.6,3.9663,M,9.8167,M,09,0*7B
$GNRMC,013842.10,A,3039.25647764,N,12047.31068153,E,0.016,237.2,170120,5.8,W,D*3F
#HEADINGA,COM2,0,49.0,FINE,2088,437940.100,2797936,29,18;SOL_COMPUTED,NARROW_INT,0.4339,159.8794,-15.6443,0.0000,0.5644,1.1787,"999",39,37,37,33,3,01,3,f3*1c352f12
$GNGGA,013842.20,3039.25647791,N,12047.31068147,E,2,27,0.6,3.9705,M,9.8167,M,09,0*76
$GNRMC,013842.20,A,3039.25647791,N,12047.31068147,E,0.001,81.7,170120,5.8,W,D*0F
#HEADINGA,COM2,0,49.0,FINE,2088,437940.200,2798036,31,18;SOL_COMPUTED,NARROW_INT,0.4336,160.2901,-15.6248,0.0000,0.5647,1.1812,"999",39,37,37,33,3,01,3,f3*7315be08
$GNGGA,013842.30,3039.25647847,N,12047.31068167,E,2,27,0.6,3.9719,M,9.8167,M,08,0*7D
$GNRMC,013842.30,A,3039.25647847,N,12047.31068167,E,0.005,271.3,170120,5.8,W,D*35
#HEADINGA,COM2,0,49.0,FINE,2088,437940.300,2798135,31,18;SOL_COMPUTED,NARROW_INT,0.4348,160.2765,-15.0024,0.0000,0.5616,1.1795,"999",39,37,37,33,3,01,3,f3*0639bc03
$GNGGA,013842.40,3039.25647861,N,12047.31068194,E,2,27,0.6,3.9731,M,9.8167,M,08,0*78
$GNRMC,013842.40,A,3039.25647861,N,12047.31068194,E,0.013,188.9,170120,5.8,W,D*32
#HEADINGA,COM2,0,49.0,FINE,2088,437940.400,2798234,30,18;SOL_COMPUTED,NARROW_INT,0.4336,160.1712,-15.1226,0.0000,0.5635,1.1831,"999",39,37,37,33,3,01,3,f3*bf33df04
$GNGGA,013842.50,3039.25647853,N,12047.31068227,E,2,27,0.6,3.9742,M,9.8167,M,08,0*77
$GNRMC,013842.50,A,3039.25647853,N,12047.31068227,E,0.021,179.4,170120,5.8,W,D*3B
#HEADINGA,COM2,0,49.0,FINE,2088,437940.500,2798334,30,18;SOL_COMPUTED,NARROW_INT,0.4331,159.9426,-15.6451,0.0000,0.5967,1.1922,"999",39,37,37,33,3,01,3,f3*f5e81211
$GNGGA,013842.60,3039.25647908,N,12047.31068256,E,2,27,0.6,3.9756,M,9.8167,M,08,0*78
$GNRMC,013842.60,A,3039.25647908,N,12047.31068256,E,0.002,163.0,170120,5.8,W,D*3F
#HEADINGA,COM2,0,49.0,FINE,2088,437940.600,2798434,29,18;SOL_COMPUTED,NARROW_INT,0.4344,160.4119,-15.3111,0.0000,0.5931,1.1895,"999",39,37,37,33,3,01,3,f3*069658f1
$GNGGA,013842.70,3039.25647964,N,12047.31068253,E,2,27,0.6,3.9779,M,9.8167,M,08,0*7B
$GNRMC,013842.70,A,3039.25647964,N,12047.31068253,E,0.007,271.1,170120,5.8,W,D*35
#HEADINGA,COM2,0,49.0,FINE,2088,437940.700,2798534,30,18;SOL_COMPUTED,NARROW_INT,0.4339,159.9718,-15.4512,0.0000,0.5948,1.1901,"999",39,37,37,33,3,01,3,f3*87e92777
$GNGGA,013842.80,3039.25647987,N,12047.31068236,E,2,27,0.6,3.9813,M,9.8167,M,08,0*79
$GNRMC,013842.80,A,3039.25647987,N,12047.31068236,E,0.014,222.8,170120,5.8,W,D*39
#HEADINGA,COM2,0,49.0,FINE,2088,437940.800,2798634,29,18;SOL_COMPUTED,NARROW_INT,0.4331,159.7097,-15.9755,0.0000,0.5975,1.1904,"999",39,37,37,33,3,01,3,f3*b75bc7c1
$GNGGA,013842.90,3039.25648012,N,12047.31068257,E,2,27,0.6,3.9854,M,9.8167,M,08,0*76
$GNRMC,013842.90,A,3039.25648012,N,12047.31068257,E,0.009,166.4,170120,5.8,W,D*36
#HEADINGA,COM2,0,49.0,FINE,2088,437940.900,2798734,30,18;SOL_COMPUTED,NARROW_INT,0.4355,160.0082,-15.8187,0.0000,0.5943,1.1864,"999",39,37,37,33,3,01,3,f3*dc869518
#REFSTATIONA,COM2,0,49.0,FINE,2088,437932.000,2798036,803,18;00000000,-2811023.329,4717645.324,3233007.504,0,RTCMV3,"0000"*d7f8cf85
$GNGGA,013843.00,3039.25648045,N,12047.31068279,E,2,27,0.6,3.9875,M,9.8167,M,09,0*72
$GNRMC,013843.00,A,3039.25648045,N,12047.31068279,E,0.006,195.1,170120,5.8,W,D*36
#HEADINGA,COM2,0,49.0,FINE,2088,437941.000,2798834,36,18;SOL_COMPUTED,NARROW_INT,0.4347,159.8179,-15.6541,0.0000,0.5952,1.1878,"999",39,37,37,33,3,01,3,f3*ed0ad3c2
$GNGGA,013843.10,3039.25648082,N,12047.31068300,E,2,27,0.6,3.9878,M,9.8167,M,09,0*7A
$GNRMC,013843.10,A,3039.25648082,N,12047.31068300,E,0.005,223.0,170120,5.8,W,D*3F
#HEADINGA,COM2,0,49.0,FINE,2088,437941.100,2798935,30,18;SOL_COMPUTED,NARROW_INT,0.4368,160.1051,-16.2812,0.0000,0.5937,1.1809,"999",39,37,37,33,3,01,3,f3*e1b6f8af
$GNGGA,013843.20,3039.25648128,N,12047.31068296,E,2,27,0.6,3.9881,M,9.8167,M,09,0*70
$GNRMC,013843.20,A,3039.25648128,N,12047.31068296,E,0.008,263.6,170120,5.8,W,D*3C
#HEADINGA,COM2,0,49.0,FINE,2088,437941.200,2799036,30,18;SOL_COMPUTED,NARROW_INT,0.4319,159.8951,-15.2551,0.0000,0.5973,1.1970,"999",39,37,37,33,3,01,3,f3*549029fd
$GNGGA,013843.30,3039.25648162,N,12047.31068304,E,2,27,0.6,3.9903,M,9.8167,M,09,0*7E
$GNRMC,013843.30,A,3039.25648162,N,12047.31068304,E,0.005,198.2,170120,5.8,W,D*37
#HEADINGA,COM2,0,49.0,FINE,2088,437941.300,2799135,29,18;SOL_COMPUTED,NARROW_INT,0.4351,160.2936,-16.0338,0.0000,0.5945,1.1857,"999",39,37,37,33,3,01,3,f3*773d7c2b
$GNGGA,013843.40,3039.25648154,N,12047.31068329,E,2,27,0.6,3.9934,M,9.8167,M,09,0*77
$GNRMC,013843.40,A,3039.25648154,N,12047.31068329,E,0.015,166.6,170120,5.8,W,D*3E
#HEADINGA,COM2,0,49.0,FINE,2088,437941.400,2799234,30,18;SOL_COMPUTED,NARROW_INT,0.4343,160.0924,-15.8583,0.0000,0.5958,1.1886,"999",39,37,37,33,3,01,3,f3*450162a5
$GNGGA,013843.50,3039.25648166,N,12047.31068331,E,2,27,0.6,3.9942,M,9.8167,M,09,0*7F
$GNRMC,013843.50,A,3039.25648166,N,12047.31068331,E,0.015,211.5,170120,5.8,W,D*37
#HEADINGA,COM2,0,49.0,FINE,2088,437941.500,2799334,30,18;SOL_COMPUTED,NARROW_INT,0.4351,160.2186,-15.2780,0.0000,0.5929,1.1881,"999",39,37,37,33,3,01,3,f3*a6d19c0a
$GNGGA,013843.60,3039.25648220,N,12047.31068330,E,2,27,0.6,3.9954,M,9.8167,M,09,0*7B
$GNRMC,013843.60,A,3039.25648220,N,12047.31068330,E,0.006,275.2,170120,5.8,W,D*33
#HEADINGA,COM2,0,49.0,FINE,2088,437941.600,2799434,29,18;SOL_COMPUTED,NARROW_INT,0.4328,160.0109,-15.4702,0.0000,0.5968,1.1937,"999",39,37,37,33,3,01,3,f3*40b7a7c2
$GNGGA,013843.70,3039.25648254,N,12047.31068300,E,2,27,0.6,3.9988,M,9.8167,M,09,0*7B
$GNRMC,013843.70,A,3039.25648254,N,12047.31068300,E,0.014,250.5,170120,5.8,W,D*31
#HEADINGA,COM2,0,49.0,FINE,2088,437941.700,2799534,29,18;SOL_COMPUTED,NARROW_INT,0.4347,159.8323,-15.5834,0.0000,0.5948,1.1879,"999",39,37,37,33,3,01,3,f3*84a5e23d
$GNGGA,013843.80,3039.25648287,N,12047.31068266,E,2,27,0.6,3.9997,M,9.8167,M,09,0*75
$GNRMC,013843.80,A,3039.25648287,N,12047.31068266,E,0.020,257.4,170120,5.8,W,D*30
#HEADINGA,COM2,0,49.0,FINE,2088,437941.800,2799634,29,18;SOL_COMPUTED,NARROW_INT,0.4327,159.5220,-15.7363,0.0000,0.5985,1.1927,"999",39,37,37,33,3,01,3,f3*9db19eb5
$GNGGA,013843.90,3039.25648337,N,12047.31068246,E,2,27,0.6,4.0003,M,9.8167,M,09,0*76
$GNRMC,013843.90,A,3039.25648337,N,12047.31068246,E,0.013,290.9,170120,5.8,W,D*3F
#HEADINGA,COM2,0,49.0,FINE,2088,437941.900,2799734,30,18;SOL_COMPUTED,NARROW_INT,0.4332,159.8076,-15.7227,0.0000,0.5968,1.1912,"999",39,37,37,33,3,01,3,f3*92de8ad7
#REFSTATIONA,COM2,0,49.0,FINE,2088,437932.000,2799036,802,18;00000000,-2811023.329,4717645.324,3233007.504,0,RTCMV3,"0000"*69dd3e94
$GNGGA,013844.00,3039.25648396,N,12047.31068262,E,2,27,0.6,4.0022,M,9.8167,M,10,0*7E
$GNRMC,013844.00,A,3039.25648396,N,12047.31068262,E,0.011,8.8,170120,5.8,W,D*3C
#HEADINGA,COM2,0,49.0,FINE,2088,437942.000,2799834,35,18;SOL_COMPUTED,NARROW_INT,0.4347,160.3136,-15.8348,0.0000,0.5945,1.1874,"999",39,37,37,33,3,01,3,f3*08a0c165
$GNGGA,013844.10,3039.25648418,N,12047.31068250,E,2,27,0.6,4.0031,M,9.8167,M,10,0*7D
$GNRMC,013844.10,A,3039.25648418,N,12047.31068250,E,0.010,271.3,170120,5.8,W,D*3B
#HEADINGA,COM2,0,51.0,FINE,2088,437942.100,2799936,30,18;SOL_COMPUTED,NARROW_INT,0.4347,159.9034,-15.4891,0.0000,0.5940,1.1880,"999",39,37,37,33,3,01,3,f3*bd943638
$GNGGA,013844.20,3039.25648414,N,12047.31068270,E,2,27,0.6,4.0050,M,9.8167,M,10,0*77
$GNRMC,013844.20,A,3039.25648414,N,12047.31068270,E,0.012,171.3,170120,5.8,W,D*37
#HEADINGA,COM2,0,51.0,FINE,2088,437942.200,2800036,31,18;SOL_COMPUTED,NARROW_INT,0.4334,159.7853,-15.6066,0.0000,0.5961,1.1911,"999",39,37,37,33,3,01,3,f3*263c037f
$GNGGA,013844.30,3039.25648494,N,12047.31068266,E,2,27,0.6,4.0079,M,9.8167,M,09,0*7A
$GNRMC,013844.30,A,3039.25648494,N,12047.31068266,E,0.004,16.1,170120,5.8,W,D*0C
#HEADINGA,COM2,0,51.0,FINE,2088,437942.300,2800134,33,18;SOL_COMPUTED,NARROW_INT,0.4314,159.9251,-14.9378,0.0000,0.5973,1.1988,"999",39,37,37,33,3,01,3,f3*1c3c3ae7
$GNGGA,013844.40,3039.25648582,N,12047.31068284,E,2,27,0.6,4.0082,M,9.8167,M,09,0*73
$GNRMC,013844.40,A,3039.25648582,N,12047.31068284,E,0.010,24.2,170120,5.8,W,D*06
#HEADINGA,COM2,0,51.0,FINE,2088,437942.400,2800233,30,18;SOL_COMPUTED,NARROW_INT,0.4351,160.1548,-15.9356,0.0000,0.5944,1.1860,"999",39,37,37,33,3,01,3,f3*64da2171
$GNGGA,013844.50,3039.25648633,N,12047.31068272,E,2,27,0.6,4.0096,M,9.8167,M,09,0*77
$GNRMC,013844.50,A,3039.25648633,N,12047.31068272,E,0.005,233.9,170120,5.8,W,D*3C
#HEADINGA,COM2,0,51.0,FINE,2088,437942.500,2800334,30,18;SOL_COMPUTED,NARROW_INT,0.4341,160.1769,-15.4758,0.0000,0.5945,1.1899,"999",39,37,37,33,3,01,3,f3*fffc2505
$GNGGA,013844.60,3039.25648676,N,12047.31068284,E,2,27,0.6,4.0108,M,9.8167,M,09,0*7A
$GNRMC,013844.60,A,3039.25648676,N,12047.31068284,E,0.008,147.7,170120,5.8,W,D*34
#HEADINGA,COM2,0,51.0,FINE,2088,437942.600,2800434,29,18;SOL_COMPUTED,NARROW_INT,0.4351,160.3082,-15.6551,0.0000,0.5935,1.1867,"999",39,37,37,33,3,01,3,f3*50e09156
$GNGGA,013844.70,3039.25648718,N,12047.31068280,E,2,27,0.6,4.0120,M,9.8167,M,09,0*7C
$GNRMC,013844.70,A,3039.25648718,N,12047.31068280,E,0.008,183.5,170120,5.8,W,D*32
#HEADINGA,COM2,0,51.0,FINE,2088,437942.700,2800534,29,18;SOL_COMPUTED,NARROW_INT,0.4368,160.3016,-15.4861,0.0000,0.5907,1.1826,"999",39,37,37,33,3,01,3,f3*f3e50784
$GNGGA,013844.80,3039.25648770,N,12047.31068291,E,2,27,0.6,4.0139,M,9.8167,M,09,0*75
$GNRMC,013844.80,A,3039.25648770,N,12047.31068291,E,0.007,125.6,170120,5.8,W,D*33
#HEADINGA,COM2,0,51.0,FINE,2088,437942.800,2800634,29,18;SOL_COMPUTED,NARROW_INT,0.4330,160.1792,-15.4754,0.0000,0.5960,1.1918,"999",39,37,37,33,3,01,3,f3*aa7a042f
$GNGGA,013844.90,3039.25648786,N,12047.31068299,E,2,27,0.6,4.0148,M,9.8167,M,09,0*73
$GNRMC,013844.90,A,3039.25648786,N,12047.31068299,E,0.012,171.4,170120,5.8,W,D*34
#HEADINGA,COM2,0,51.0,FINE,2088,437942.900,2800734,30,18;SOL_COMPUTED,NARROW_INT,0.4335,159.9434,-15.6092,0.0000,0.5969,1.1937,"999",39,37,37,33,3,01,3,f3*e2f3e0a6
#REFSTATIONA,COM2,0,51.0,FINE,2088,437933.000,2800036,802,18;00000000,-2811023.329,4717645.324,3233007.504,0,RTCMV3,"0000"*388e83e3
$GNGGA,013845.00,3039.25648850,N,12047.31068297,E,2,27,0.6,4.0179,M,9.8167,M,10,0*7B
$GNRMC,013845.00,A,3039.25648850,N,12047.31068297,E,0.004,50.3,170120,5.8,W,D*04
#HEADINGA,COM2,0,51.0,FINE,2088,437943.000,2800834,35,18;SOL_COMPUTED,NARROW_INT,0.4329,160.3103,-15.5202,0.0000,0.5971,1.1952,"999",39,37,37,33,3,01,3,f3*7bfcc4f8
$GNGGA,013845.10,3039.25648891,N,12047.31068300,E,2,27,0.6,4.0193,M,9.8167,M,10,0*7C
$GNRMC,013845.10,A,3039.25648891,N,12047.31068300,E,0.002,162.2,170120,5.8,W,D*30
#HEADINGA,COM2,0,51.0,FINE,2088,437943.100,2800935,30,18;SOL_COMPUTED,NARROW_INT,0.4355,160.0393,-15.3725,0.0000,0.5935,1.1891,"999",39,37,37,33,3,01,3,f3*7feceaf4
$GNGGA,013845.20,3039.25648888,N,12047.31068299,E,2,27,0.6,4.0215,M,9.8167,M,10,0*7B
$GNRMC,013845.20,A,3039.25648888,N,12047.31068299,E,0.016,177.8,170120,5.8,W,D*31
#HEADINGA,COM2,0,51.0,FINE,2088,437943.200,2801036,31,18;SOL_COMPUTED,NARROW_INT,0.4333,160.2620,-15.1423,0.0000,0.5955,1.1959,"999",39,37,37,33,3,01,3,f3*7277289d
$GNGGA,013845.30,3039.25648949,N,12047.31068275,E,2,27,0.6,4.0232,M,9.8167,M,09,0*79
$GNRMC,013845.30,A,3039.25648949,N,12047.31068275,E,0.005,201.3,170120,5.8,W,D*35
#HEADINGA,COM2,0,51.0,FINE,2088,437943.300,2801134,32,18;SOL_COMPUTED,NARROW_INT,0.4333,159.8711,-16.2293,0.0000,0.5992,1.1933,"999",39,37,37,33,3,01,3,f3*d68377d4
$GNGGA,013845.40,3039.25649008,N,12047.31068269,E,2,27,0.6,4.0262,M,9.8167,M,09,0*7B
$GNRMC,013845.40,A,3039.25649008,N,12047.31068269,E,0.007,116.4,170120,5.8,W,D*32
#HEADINGA,COM2,0,51.0,FINE,2088,437943.400,2801234,30,18;SOL_COMPUTED,NARROW_INT,0.4357,160.0073,-16.2705,0.0000,0.5959,1.1866,"999",39,37,37,33,3,01,3,f3*cff71222
$GNGGA,013845.50,3039.25649078,N,12047.31068235,E,2,27,0.6,4.0295,M,9.8167,M,09,0*7C
$GNRMC,013845.50,A,3039.25649078,N,12047.31068235,E,0.003,277.5,170120,5.8,W,D*3C
#HEADINGA,COM2,0,51.0,FINE,2088,437943.500,2801334,29,18;SOL_COMPUTED,NARROW_INT,0.4363,159.9653,-15.7156,0.0000,0.5936,1.1863,"999",39,37,37,33,3,01,3,f3*f8e70021
$GNGGA,013845.60,3039.25649143,N,12047.31068221,E,2,27,0.6,4.0317,M,9.8167,M,09,0*78
$GNRMC,013845.60,A,3039.25649143,N,12047.31068221,E,0.001,64.5,170120,5.8,W,D*01
#HEADINGA,COM2,0,51.0,FINE,2088,437943.600,2801433,30,18;SOL_COMPUTED,NARROW_INT,0.4353,160.0394,-15.7773,0.0000,0.5948,1.1886,"999",39,37,37,33,3,01,3,f3*646b4b76
$GNGGA,013845.70,3039.25649195,N,12047.31068208,E,2,27,0.6,4.0353,M,9.8167,M,09,0*79
$GNRMC,013845.70,A,3039.25649195,N,12047.31068208,E,0.005,114.1,170120,5.8,W,D*36
#HEADINGA,COM2,0,51.0,FINE,2088,437943.700,2801534,29,18;SOL_COMPUTED,NARROW_INT,0.4338,160.0252,-15.4445,0.0000,0.5955,1.1929,"999",39,37,37,33,3,01,3,f3*4e557370
$GNGGA,013845.80,3039.25649236,N,12047.31068184,E,2,27,0.6,4.0370,M,9.8167,M,09,0*7A
$GNRMC,013845.80,A,3039.25649236,N,12047.31068184,E,0.008,208.6,170120,5.8,W,D*30
#HEADINGA,COM2,0,51.0,FINE,2088,437943.800,2801634,29,18;SOL_COMPUTED,NARROW_INT,0.4343,159.8665,-15.9723,0.0000,0.5965,1.1887,"999",39,37,37,33,3,01,3,f3*cf481353
$GNGGA,013845.90,3039.25649295,N,12047.31068151,E,2,27,0.6,4.0385,M,9.8167,M,09,0*70
$GNRMC,013845.90,A,3039.25649295,N,12047.31068151,E,0.006,261.5,170120,5.8,W,D*32
#HEADINGA,COM2,0,51.0,FINE,2088,437943.900,2801734,30,18;SOL_COMPUTED,NARROW_INT,0.4346,159.9833,-16.0624,0.0000,0.5975,1.1908,"999",39,37,37,33,3,01,3,f3*daadef06
#REFSTATIONA,COM2,0,51.0,FINE,2088,437934.000,2801036,802,18;00000000,-2811023.329,4717645.324,3233007.504,0,RTCMV3,"0000"*dcf473f5
$GNGGA,013846.00,3039.25649341,N,12047.31068101,E,2,27,0.6,4.0404,M,9.8167,M,10,0*71
$GNRMC,013846.00,A,3039.25649341,N,12047.31068101,E,0.010,252.9,170120,5.8,W,D*3E
#HEADINGA,COM2,0,51.0,FINE,2088,437944.000,2801834,36,18;SOL_COMPUTED,NARROW_INT,0.4366,160.0276,-15.8475,0.0000,0.5941,1.1861,"999",39,37,37,33,3,01,3,f3*62febd1e
$GNGGA,013846.10,3039.25649353,N,12047.31068055,E,2,27,0.6,4.0411,M,9.8167,M,10,0*77
$GNRMC,013846.10,A,3039.25649353,N,12047.31068055,E,0.016,219.0,170120,5.8,W,D*3C
#HEADINGA,COM2,0,51.0,FINE,2088,437944.100,2801935,30,18;SOL_COMPUTED,NARROW_INT,0.4314,159.9341,-15.5230,0.0000,0.6003,1.2006,"999",39,37,37,33,3,01,3,f3*1de35319
$GNGGA,013846.20,3039.25649362,N,12047.31068023,E,2,27,0.6,4.0429,M,9.8167,M,10,0*7C
$GNRMC,013846.20,A,3039.25649362,N,12047.31068023,E,0.015,191.9,170120,5.8,W,D*35
#HEADINGA,COM2,0,51.0,FINE,2088,437944.200,2802036,30,18;SOL_COMPUTED,NARROW_INT,0.4350,160.4323,-15.5234,0.0000,0.5947,1.1913,"999",39,37,37,33,3,01,3,f3*f87ff4d3
$GNGGA,013846.30,3039.25649389,N,12047.31067998,E,2,27,0.6,4.0441,M,9.8167,M,10,0*70
$GNRMC,013846.30,A,3039.25649389,N,12047.31067998,E,0.011,197.4,170120,5.8,W,D*38
#HEADINGA,COM2,0,51.0,FINE,2088,437944.300,2802134,30,18;SOL_COMPUTED,NARROW_INT,0.4333,160.0486,-15.5881,0.0000,0.5978,1.1955,"999",39,37,37,33,3,01,3,f3*a720f716
$GNGGA,013846.40,3039.25649416,N,12047.31067940,E,2,27,0.6,4.0448,M,9.8167,M,10,0*7A
$GNRMC,013846.40,A,3039.25649416,N,12047.31067940,E,0.018,235.6,170120,5.8,W,D*3B
#HEADINGA,COM2,0,51.0,FINE,2088,437944.400,2802233,30,18;SOL_COMPUTED,NARROW_INT,0.4345,159.7219,-15.9997,0.0000,0.5977,1.1906,"999",39,37,37,33,3,01,3,f3*e6e05625
$GNGGA,013846.50,3039.25649407,N,12047.31067902,E,2,27,0.6,4.0467,M,9.8167,M,10,0*70
$GNRMC,013846.50,A,3039.25649407,N,12047.31067902,E,0.023,196.9,170120,5.8,W,D*31
#HEADINGA,COM2,0,51.0,FINE,2088,437944.500,2802334,29,18;SOL_COMPUTED,NARROW_INT,0.4335,160.0320,-15.6656,0.0000,0.5975,1.1945,"999",39,37,37,33,3,01,3,f3*f23e544f
$GNGGA,013846.60,3039.25649422,N,12047.31067864,E,2,27,0.6,4.0495,M,9.8167,M,10,0*78
$GNRMC,013846.60,A,3039.25649422,N,12047.31067864,E,0.016,205.7,170120,5.8,W,D*35
#HEADINGA,COM2,0,51.0,FINE,2088,437944.600,2802434,29,18;SOL_COMPUTED,NARROW_INT,0.4323,159.9976,-15.7689,0.0000,0.5995,1.1975,"999",39,37,37,33,3,01,3,f3*76b01b13
$GNGGA,013846.70,3039.25649461,N,12047.31067832,E,2,27,0.6,4.0510,M,9.8167,M,10,0*71
$GNRMC,013846.70,A,3039.25649461,N,12047.31067832,E,0.006,208.4,170120,5.8,W,D*3F
#HEADINGA,COM2,0,51.0,FINE,2088,437944.700,2802534,29,18;SOL_COMPUTED,NARROW_INT,0.4357,159.9885,-15.9549,0.0000,0.5955,1.1869,"999",39,37,37,33,3,01,3,f3*6262564b
$GNGGA,013846.80,3039.25649501,N,12047.31067832,E,2,27,0.6,4.0557,M,9.8167,M,10,0*7A
$GNRMC,013846.80,A,3039.25649501,N,12047.31067832,E,0.009,119.6,170120,5.8,W,D*39
#HEADINGA,COM2,0,51.0,FINE,2088,437944.800,2802634,29,18;SOL_COMPUTED,NARROW_INT,0.4352,160.2134,-16.2509,0.0000,0.5968,1.1877,"999",39,37,37,33,3,01,3,f3*b4a3be74
$GNGGA,013846.90,3039.25649515,N,12047.31067809,E,2,27,0.6,4.0592,M,9.8167,M,10,0*7F
$GNRMC,013846.90,A,3039.25649515,N,12047.31067809,E,0.011,195.0,170120,5.8,W,D*3E
#HEADINGA,COM2,0,51.0,FINE,2088,437944.900,2802734,30,18;SOL_COMPUTED,NARROW_INT,0.4361,160.0250,-15.9278,0.0000,0.5949,1.1868,"999",39,37,37,33,3,01,3,f3*fce02c2c
#REFSTATIONA,COM2,0,51.0,FINE,2088,437934.000,2801036,1802,18;00000000,-2811023.329,4717645.324,3233007.504,0,RTCMV3,"0000"*ec525228
$GNGGA,013847.00,3039.25649556,N,12047.31067793,E,2,27,0.6,4.0608,M,9.8167,M,11,0*7D
$GNRMC,013847.00,A,3039.25649556,N,12047.31067793,E,0.007,250.9,170120,5.8,W,D*39
#HEADINGA,COM2,0,51.0,FINE,2088,437945.000,2802834,36,18;SOL_COMPUTED,NARROW_INT,0.4349,160.1644,-16.0316,0.0000,0.5965,1.1889,"999",39,37,37,33,3,01,3,f3*04dcfe98
$GNGGA,013847.10,3039.25649585,N,12047.31067787,E,2,27,0.6,4.0639,M,9.8167,M,11,0*75
$GNRMC,013847.10,A,3039.25649585,N,12047.31067787,E,0.006,174.7,170120,5.8,W,D*39
#HEADINGA,COM2,0,51.0,FINE,2088,437945.100,2802934,31,18;SOL_COMPUTED,NARROW_INT,0.4337,160.0629,-15.0287,0.0000,0.5947,1.1928,"999",39,37,37,33,3,01,3,f3*c5ec95b7
$GNGGA,013847.20,3039.25649623,N,12047.31067750,E,2,27,0.6,4.0661,M,9.8167,M,11,0*7E
$GNRMC,013847.20,A,3039.25649623,N,12047.31067750,E,0.008,257.1,170120,5.8,W,D*35
#HEADINGA,COM2,0,51.0,FINE,2088,437945.200,2803036,31,18;SOL_COMPUTED,NARROW_INT,0.4338,160.0373,-15.3248,0.0000,0.5955,1.1920,"999",39,37,37,33,3,01,3,f3*19b5eb95
$GNGGA,013847.30,3039.25649616,N,12047.31067712,E,2,27,0.6,4.0696,M,9.8167,M,11,0*77
$GNRMC,013847.30,A,3039.25649616,N,12047.31067712,E,0.017,203.2,170120,5.8,W,D*38
#HEADINGA,COM2,0,51.0,FINE,2088,437945.300,2803134,30,18;SOL_COMPUTED,NARROW_INT,0.4338,160.0690,-16.2633,0.0000,0.5982,1.1893,"999",39,37,37,33,3,01,3,f3*7ef65ad4
$GNGGA,013847.40,3039.25649628,N,12047.31067690,E,2,27,0.6,4.0737,M,9.8167,M,11,0*7C
$GNRMC,013847.40,A,3039.25649628,N,12047.31067690,E,0.011,182.3,170120,5.8,W,D*34
#HEADINGA,COM2,0,51.0,FINE,2088,437945.400,2803234,29,18;SOL_COMPUTED,NARROW_INT,0.4330,160.0172,-15.3978,0.0000,0.5975,1.1958,"999",39,37,37,33,3,01,3,f3*1607c2f8
$GNGGA,013847.50,3039.25649644,N,12047.31067668,E,2,27,0.6,4.0763,M,9.8167,M,11,0*71
$GNRMC,013847.50,A,3039.25649644,N,12047.31067668,E,0.010,205.8,170120,5.8,W,D*3E
#HEADINGA,COM2,0,51.0,FINE,2088,437945.500,2803334,30,18;SOL_COMPUTED,NARROW_INT,0.4344,160.1874,-15.0855,0.0000,0.5946,1.1930,"999",39,37,37,33,3,01,3,f3*93dd57db
$GNGGA,013847.60,3039.25649662,N,12047.31067680,E,2,27,0.6,4.0781,M,9.8167,M,11,0*7C
$GNRMC,013847.60,A,3039.25649662,N,12047.31067680,E,0.008,140.8,170120,5.8,W,D*34
#HEADINGA,COM2,0,51.0,FINE,2088,437945.600,2803434,29,18;SOL_COMPUTED,NARROW_INT,0.4361,160.3784,-15.7801,0.0000,0.5940,1.1868,"999",39,37,37,33,3,01,3,f3*9f76378b
$GNGGA,013847.70,3039.25649721,N,12047.31067675,E,2,27,0.6,4.0809,M,9.8167,M,11,0*7E
$GNRMC,013847.70,A,3039.25649721,N,12047.31067675,E,0.002,338.0,170120,5.8,W,D*36
#HEADINGA,COM2,0,51.0,FINE,2088,437945.700,2803534,29,18;SOL_COMPUTED,NARROW_INT,0.4361,160.3518,-16.0037,0.0000,0.5946,1.1863,"999",39,37,37,33,3,01,3,f3*1d42a38d
$GNGGA,013847.80,3039.25649716,N,12047.31067654,E,2,27,0.6,4.0847,M,9.8167,M,11,0*7C
$GNRMC,013847.80,A,3039.25649716,N,12047.31067654,E,0.013,202.2,170120,5.8,W,D*34
#HEADINGA,COM2,0,51.0,FINE,2088,437945.800,2803634,29,18;SOL_COMPUTED,NARROW_INT,0.4338,160.0320,-16.0786,0.0000,0.5980,1.1911,"999",39,37,37,33,3,01,3,f3*f53f21de
$GNGGA,013847.90,3039.25649716,N,12047.31067654,E,2,27,0.6,4.0882,M,9.8167,M,11,0*74
$GNRMC,013847.90,A,3039.25649716,N,12047.31067654,E,0.014,187.3,170120,5.8,W,D*3D
#HEADINGA,COM2,0,51.0,FINE,2088,437945.900,2803734,30,18;SOL_COMPUTED,NARROW_INT,0.4347,160.1852,-16.2135,0.0000,0.5975,1.1894,"999",39,37,37,33,3,01,3,f3*43d587d1
#REFSTATIONA,COM2,0,51.0,FINE,2088,437934.000,2801036,2803,18;00000000,-2811023.329,4717645.324,3233007.504,0,RTCMV3,"0000"*01c57df2
$GNGGA,013848.00,3039.25649737,N,12047.31067667,E,2,27,0.6,4.0904,M,9.8167,M,12,0*7D
$GNRMC,013848.00,A,3039.25649737,N,12047.31067667,E,0.006,184.8,170120,5.8,W,D*33
#HEADINGA,COM2,0,51.0,FINE,2088,437946.000,2803834,36,18;SOL_COMPUTED,NARROW_INT,0.4361,160.1452,-15.8716,0.0000,0.5946,1.1867,"999",39,37,37,33,3,01,3,f3*f3eaacec
$GNGGA,013848.10,3039.25649760,N,12047.31067669,E,2,27,0.6,4.0930,M,9.8167,M,12,0*77
$GNRMC,013848.10,A,3039.25649760,N,12047.31067669,E,0.005,214.5,170120,5.8,W,D*3A
#HEADINGA,COM2,0,51.0,FINE,2088,437946.100,2803935,31,18;SOL_COMPUTED,NARROW_INT,0.4334,160.0293,-16.2076,0.0000,0.5994,1.1929,"999",39,37,37,33,3,01,3,f3*39b3605b
$GNGGA,013848.20,3039.25649791,N,12047.31067671,E,2,27,0.6,4.0950,M,9.8167,M,12,0*75
$GNRMC,013848.20,A,3039.25649791,N,12047.31067671,E,0.003,244.7,170120,5.8,W,D*3F
#HEADINGA,COM2,0,51.0,FINE,2088,437946.200,2804036,31,18;SOL_COMPUTED,NARROW_INT,0.4337,159.8950,-16.0362,0.0000,0.5987,1.1924,"999",39,37,37,33,3,01,3,f3*9f9b38f9
$GNGGA,013848.30,3039.25649838,N,12047.31067688,E,2,27,0.6,4.0986,M,9.8167,M,11,0*76
$GNRMC,013848.30,A,3039.25649838,N,12047.31067688,E,0.003,224.0,170120,5.8,W,D*35
#HEADINGA,COM2,0,51.0,FINE,2088,437946.300,2804135,31,18;SOL_COMPUTED,NARROW_INT,0.4332,159.8865,-15.4355,0.0000,0.5977,1.1957,"999",39,37,37,33,3,01,3,f3*f7accf9d
$GNGGA,013848.40,3039.25649914,N,12047.31067690,E,2,27,0.6,4.1016,M,9.8167,M,11,0*76
$GNRMC,013848.40,A,3039.25649914,N,12047.31067690,E,0.011,326.9,170120,5.8,W,D*3D
#HEADINGA,COM2,0,51.0,FINE,2088,437946.400,2804234,29,18;SOL_COMPUTED,NARROW_INT,0.4377,160.3248,-16.7188,0.0000,0.5948,1.1802,"999",39,37,37,33,3,01,3,f3*418ebb74
$GNGGA,013848.50,3039.25649949,N,12047.31067708,E,2,27,0.6,4.1054,M,9.8167,M,11,0*79
$GNRMC,013848.50,A,3039.25649949,N,12047.31067708,E,0.002,164.7,170120,5.8,W,D*3C
#HEADINGA,COM2,0,51.0,FINE,2088,437946.500,2804334,30,18;SOL_COMPUTED,NARROW_INT,0.4365,160.1310,-15.6466,0.0000,0.5930,1.1855,"999",39,37,37,33,3,01,3,f3*2753e208
$GNGGA,013848.60,3039.25649967,N,12047.31067726,E,2,27,0.6,4.1084,M,9.8167,M,11,0*77
$GNRMC,013848.60,A,3039.25649967,N,12047.31067726,E,0.010,202.6,170120,5.8,W,D*3E
#HEADINGA,COM2,0,51.0,FINE,2088,437946.600,2804434,29,18;SOL_COMPUTED,NARROW_INT,0.4349,160.0856,-15.5728,0.0000,0.5950,1.1897,"999",39,37,37,33,3,01,3,f3*52c2136c
$GNGGA,013848.70,3039.25649990,N,12047.31067728,E,2,27,0.6,4.1110,M,9.8167,M,11,0*7C
$GNRMC,013848.70,A,3039.25649990,N,12047.31067728,E,0.013,226.4,170120,5.8,W,D*3E
#HEADINGA,COM2,0,51.0,FINE,2088,437946.700,2804534,30,18;SOL_COMPUTED,NARROW_INT,0.4367,160.2344,-16.6351,0.0000,0.5956,1.1823,"999",39,37,37,33,3,01,3,f3*5a563f18
$GNGGA,013848.80,3039.25649959,N,12047.31067754,E,2,27,0.6,4.1128,M,9.8167,M,11,0*76
$GNRMC,013848.80,A,3039.25649959,N,12047.31067754,E,0.025,187.2,170120,5.8,W,D*34
#HEADINGA,COM2,0,51.0,FINE,2088,437946.800,2804634,29,18;SOL_COMPUTED,NARROW_INT,0.4341,160.1301,-16.2694,0.0000,0.5981,1.1900,"999",39,37,37,33,3,01,3,f3*892418df
$GNGGA,013848.90,3039.25650008,N,12047.31067856,E,2,27,0.6,4.1134,M,9.8167,M,11,0*72
$GNRMC,013848.90,A,3039.25650008,N,12047.31067856,E,0.008,128.2,170120,5.8,W,D*37
#HEADINGA,COM2,0,51.0,FINE,2088,437946.900,2804734,30,18;SOL_COMPUTED,NARROW_INT,0.4335,160.1327,-15.7633,0.0000,0.5973,1.1930,"999",39,37,37,33,3,01,3,f3*895939c2
#REFSTATIONA,COM2,0,51.0,FINE,2088,437935.000,2804036,803,18;00000000,-2811023.329,4717645.324,3233007.504,0,RTCMV3,"0000"*c2631f1b
$GNGGA,013849.00,3039.25650046,N,12047.31067917,E,2,27,0.6,4.1166,M,9.8167,M,12,0*70
$GNRMC,013849.00,A,3039.25650046,N,12047.31067917,E,0.008,199.0,170120,5.8,W,D*39
#HEADINGA,COM2,0,51.0,FINE,2088,437947.000,2804834,36,18;SOL_COMPUTED,NARROW_INT,0.4321,159.8052,-15.9585,0.0000,0.5994,1.1939,"999",39,37,37,33,3,01,3,f3*34bb4833
$GNGGA,013849.10,3039.25650088,N,12047.31067916,E,2,27,0.6,4.1192,M,9.8167,M,12,0*79
$GNRMC,013849.10,A,3039.25650088,N,12047.31067916,E,0.007,257.8,170120,5.8,W,D*3D
#HEADINGA,COM2,0,51.0,FINE,2088,437947.100,2804935,30,18;SOL_COMPUTED,NARROW_INT,0.4345,160.1157,-15.8076,0.0000,0.5960,1.1901,"999",39,37,37,33,3,01,3,f3*d29b05cf
$GNGGA,013849.20,3039.25650116,N,12047.31067937,E,2,27,0.6,4.1214,M,9.8167,M,12,0*72
$GNRMC,013849.20,A,3039.25650116,N,12047.31067937,E,0.005,197.4,170120,5.8,W,D*3A
#HEADINGA,COM2,0,51.0,FINE,2088,437947.200,2805037,30,18;SOL_COMPUTED,NARROW_INT,0.4345,159.8586,-16.2163,0.0000,0.5968,1.1867,"999",39,37,37,33,3,01,3,f3*c8eed277
$GNGGA,013849.30,3039.25650139,N,12047.31068009,E,2,27,0.6,4.1235,M,9.8167,M,12,0*76
$GNRMC,013849.30,A,3039.25650139,N,12047.31068009,E,0.010,166.0,170120,5.8,W,D*33
#HEADINGA,COM2,0,51.0,FINE,2088,437947.300,2805135,29,18;SOL_COMPUTED,NARROW_INT,0.4340,160.1388,-15.4291,0.0000,0.5947,1.1905,"999",39,37,37,33,3,01,3,f3*e727e2f9
$GNGGA,013849.40,3039.25650166,N,12047.31068052,E,2,27,0.6,4.1245,M,9.8167,M,12,0*72
$GNRMC,013849.40,A,3039.25650166,N,12047.31068052,E,0.012,222.1,170120,5.8,W,D*30
#HEADINGA,COM2,0,51.0,FINE,2088,437947.400,2805234,30,18;SOL_COMPUTED,NARROW_INT,0.4312,159.7350,-15.7067,0.0000,0.6000,1.1971,"999",39,37,37,33,3,01,3,f3*109c6c09
$GNGGA,013849.50,3039.25650184,N,12047.31068065,E,2,27,0.6,4.1260,M,9.8167,M,12,0*7C
$GNRMC,013849.50,A,3039.25650184,N,12047.31068065,E,0.020,223.4,170120,5.8,W,D*3C
#HEADINGA,COM2,0,51.0,FINE,2088,437947.500,2805334,30,18;SOL_COMPUTED,NARROW_INT,0.4354,160.1116,-16.0477,0.0000,0.5949,1.1851,"999",39,37,37,33,3,01,3,f3*aaecbc42
$GNGGA,013849.60,3039.25650170,N,12047.31068093,E,2,27,0.6,4.1279,M,9.8167,M,12,0*75
$GNRMC,013849.60,A,3039.25650170,N,12047.31068093,E,0.024,200.9,170120,5.8,W,D*35
#HEADINGA,COM2,0,51.0,FINE,2088,437947.600,2805434,29,18;SOL_COMPUTED,NARROW_INT,0.4343,160.1516,-15.6247,0.0000,0.5958,1.1913,"999",39,37,37,33,3,01,3,f3*cbed577e
$GNGGA,013849.70,3039.25650198,N,12047.31068118,E,2,27,0.6,4.1289,M,9.8167,M,12,0*7F
$GNRMC,013849.70,A,3039.25650198,N,12047.31068118,E,0.015,228.7,170120,5.8,W,D*36
#HEADINGA,COM2,0,51.0,FINE,2088,437947.700,2805534,30,18;SOL_COMPUTED,NARROW_INT,0.4368,159.9240,-16.4839,0.0000,0.5948,1.1819,"999",39,37,37,33,3,01,3,f3*0997b3aa
$GNGGA,013849.80,3039.25650220,N,12047.31068172,E,2,27,0.6,4.1291,M,9.8167,M,12,0*75
$GNRMC,013849.80,A,3039.25650220,N,12047.31068172,E,0.010,197.4,170120,5.8,W,D*34
#HEADINGA,COM2,0,51.0,FINE,2088,437947.800,2805634,29,18;SOL_COMPUTED,NARROW_INT,0.4370,160.2608,-15.6663,0.0000,0.5916,1.1832,"999",39,37,37,33,3,01,3,f3*f943a94a
$GNGGA,013849.90,3039.25650199,N,12047.31068255,E,2,27,0.6,4.1299,M,9.8167,M,12,0*7B
$GNRMC,013849.90,A,3039.25650199,N,12047.31068255,E,0.025,159.1,170120,5.8,W,D*33
#HEADINGA,COM2,0,51.0,FINE,2088,437947.900,2805735,29,18;SOL_COMPUTED,NARROW_INT,0.4338,159.9858,-15.6065,0.0000,0.5966,1.1930,"999",39,37,37,33,3,01,3,f3*bc4fde97
#REFSTATIONA,COM2,0,51.0,FINE,2088,437935.000,2805037,802,18;00000000,-2811023.329,4717645.324,3233007.504,0,RTCMV3,"0000"*2520d661
$GNGGA,013850.00,3039.25650234,N,12047.31068328,E,2,27,0.6,4.1330,M,9.8167,M,13,0*76
$GNRMC,013850.00,A,3039.25650234,N,12047.31068328,E,0.013,126.5,170120,5.8,W,D*34
#HEADINGA,COM2,0,51.0,FINE,2088,437948.000,2805834,36,18;SOL_COMPUTED,NARROW_INT,0.4359,160.4014,-15.7403,0.0000,0.5935,1.1875,"999",39,37,37,33,3,01,3,f3*c85ce42d
$GNGGA,013850.10,3039.25650266,N,12047.31068409,E,2,27,0.6,4.1375,M,9.8167,M,13,0*75
$GNRMC,013850.10,A,3039.25650266,N,12047.31068409,E,0.014,118.1,170120,5.8,W,D*38
#HEADINGA,COM2,0,51.0,FINE,2088,437948.100,2805936,30,18;SOL_COMPUTED,NARROW_INT,0.4328,159.9072,-15.7082,0.0000,0.5982,1.1946,"999",39,37,37,33,3,01,3,f3*19586a4d
$GNGGA,013850.20,3039.25650244,N,12047.31068459,E,2,27,0.6,4.1384,M,9.8167,M,13,0*7D
$GNRMC,013850.20,A,3039.25650244,N,12047.31068459,E,0.025,191.0,170120,5.8,W,D*3C
#HEADINGA,COM2,0,52.0,FINE,2088,437948.200,2806037,31,18;SOL_COMPUTED,NARROW_INT,0.4312,159.9566,-15.7798,0.0000,0.6007,1.1988,"999",39,37,37,33,3,01,3,f3*20283cc6
$GNGGA,013850.30,3039.25650246,N,12047.31068457,E,2,27,0.6,4.1453,M,9.8167,M,11,0*7F
$GNRMC,013850.30,A,3039.25650246,N,12047.31068457,E,0.010,195.2,170120,5.8,W,D*31
#HEADINGA,COM2,0,52.0,FINE,2088,437948.300,2806135,33,18;SOL_COMPUTED,NARROW_INT,0.4358,159.9489,-16.0542,0.0000,0.5951,1.1855,"999",39,37,37,33,3,01,3,f3*167b4e0b
$GNGGA,013850.40,3039.25650233,N,12047.31068434,E,2,27,0.6,4.1516,M,9.8167,M,11,0*7F
$GNRMC,013850.40,A,3039.25650233,N,12047.31068434,E,0.018,221.4,170120,5.8,W,D*33
#HEADINGA,COM2,0,52.0,FINE,2088,437948.400,2806234,30,18;SOL_COMPUTED,NARROW_INT,0.4368,159.9909,-16.3013,0.0000,0.5947,1.1824,"999",39,37,37,33,3,01,3,f3*840b40b8
$GNGGA,013850.50,3039.25650270,N,12047.31068444,E,2,27,0.6,4.1584,M,9.8167,M,11,0*75
$GNRMC,013850.50,A,3039.25650270,N,12047.31068444,E,0.012,127.3,170120,5.8,W,D*3A
#HEADINGA,COM2,0,52.0,FINE,2088,437948.500,2806334,30,18;SOL_COMPUTED,NARROW_INT,0.4347,160.2973,-16.0818,0.0000,0.5965,1.1880,"999",39,37,37,33,3,01,3,f3*949ab626
$GNGGA,013850.60,3039.25650340,N,12047.31068505,E,2,27,0.6,4.1650,M,9.8167,M,11,0*7A
$GNRMC,013850.60,A,3039.25650340,N,12047.31068505,E,0.025,78.8,170120,5.8,W,D*0B
#HEADINGA,COM2,0,52.0,FINE,2088,437948.600,2806434,29,18;SOL_COMPUTED,NARROW_INT,0.4337,160.0771,-15.6547,0.0000,0.5969,1.1915,"999",39,37,37,33,3,01,3,f3*5987a091
$GNGGA,013850.70,3039.25650375,N,12047.31068547,E,2,27,0.6,4.1719,M,9.8167,M,11,0*77
$GNRMC,013850.70,A,3039.25650375,N,12047.31068547,E,0.019,105.2,170120,5.8,W,D*34
#HEADINGA,COM2,0,52.0,FINE,2088,437948.700,2806534,30,18;SOL_COMPUTED,NARROW_INT,0.4321,159.7584,-16.2346,0.0000,0.6008,1.1933,"999",39,37,37,33,3,01,3,f3*9f8d90d1
$GNGGA,013850.80,3039.25650418,N,12047.31068541,E,2,27,0.6,4.1779,M,9.8167,M,11,0*74
$GNRMC,013850.80,A,3039.25650418,N,12047.31068541,E,0.004,157.0,170120,5.8,W,D*38
#HEADINGA,COM2,0,52.0,FINE,2088,437948.800,2806634,30,18;SOL_COMPUTED,NARROW_INT,0.4312,160.2096,-15.5076,0.0000,0.5993,1.1983,"999",39,37,37,33,3,01,3,f3*23dee14f
$GNGGA,013850.90,3039.25650437,N,12047.31068473,E,2,27,0.6,4.1864,M,9.8167,M,11,0*7B
$GNRMC,013850.90,A,3039.25650437,N,12047.31068473,E,0.024,236.4,170120,5.8,W,D*36
#HEADINGA,COM2,0,52.0,FINE,2088,437948.900,2806734,30,18;SOL_COMPUTED,NARROW_INT,0.4365,159.9505,-16.1510,0.0000,0.5943,1.1818,"999",39,37,37,33,3,01,3,f3*99f78781
#REFSTATIONA,COM2,0,52.0,FINE,2088,437937.000,2806037,802,18;00000000,-2811023.329,4717645.324,3233007.504,0,RTCMV3,"0000"*e79b66f9
$GNGGA,013851.00,3039.25650489,N,12047.31068437,E,2,27,0.6,4.1937,M,9.8167,M,12,0*72
$GNRMC,013851.00,A,3039.25650489,N,12047.31068437,E,0.021,260.1,170120,5.8,W,D*38
#HEADINGA,COM2,0,52.0,FINE,2088,437949.000,2806834,36,18;SOL_COMPUTED,NARROW_INT,0.4339,160.3309,-15.6271,0.0000,0.5959,1.1909,"999",39,37,37,33,3,01,3,f3*91b9c3fb
$GNGGA,013851.10,3039.25650508,N,12047.31068463,E,2,27,0.6,4.1996,M,9.8167,M,12,0*71
$GNRMC,013851.10,A,3039.25650508,N,12047.31068463,E,0.012,182.6,170120,5.8,W,D*38
#HEADINGA,COM2,0,52.0,FINE,2088,437949.100,2806935,30,18;SOL_COMPUTED,NARROW_INT,0.4336,160.0136,-15.9911,0.0000,0.5977,1.1902,"999",39,37,37,33,3,01,3,f3*6a37da4c
$GNGGA,013851.20,3039.25650558,N,12047.31068495,E,2,27,0.6,4.2049,M,9.8167,M,12,0*76
$GNRMC,013851.20,A,3039.25650558,N,12047.31068495,E,0.002,178.1,170120,5.8,W,D*34
#HEADINGA,COM2,0,52.0,FINE,2088,437949.200,2807036,30,18;SOL_COMPUTED,NARROW_INT,0.4338,160.2296,-15.5550,0.0000,0.5958,1.1912,"999",39,37,37,33,3,01,3,f3*7b893492
$GNGGA,013851.30,3039.25650599,N,12047.31068549,E,2,27,0.6,4.2110,M,9.8167,M,12,0*77
$GNRMC,013851.30,A,3039.25650599,N,12047.31068549,E,0.011,111.7,170120,5.8,W,D*33
#HEADINGA,COM2,0,52.0,FINE,2088,437949.300,2807135,29,18;SOL_COMPUTED,NARROW_INT,0.4335,160.0951,-15.6695,0.0000,0.5968,1.1903,"999",39,37,37,33,3,01,3,f3*17364505
$GNGGA,013851.40,3039.25650661,N,12047.31068563,E,2,27,0.6,4.2182,M,9.8167,M,12,0*77
$GNRMC,013851.40,A,3039.25650661,N,12047.31068563,E,0.004,267.5,170120,5.8,W,D*3C
#HEADINGA,COM2,0,52.0,FINE,2088,437949.400,2807234,30,18;SOL_COMPUTED,NARROW_INT,0.4329,159.9455,-15.1936,0.0000,0.5964,1.1947,"999",39,37,37,33,3,01,3,f3*97ac2df2
$GNGGA,013851.50,3039.25650743,N,12047.31068599,E,2,27,0.6,4.2235,M,9.8167,M,12,0*7D
$GNRMC,013851.50,A,3039.25650743,N,12047.31068599,E,0.008,359.6,170120,5.8,W,D*3A
#HEADINGA,COM2,0,52.0,FINE,2088,437949.500,2807334,30,18;SOL_COMPUTED,NARROW_INT,0.4321,160.1302,-15.1214,0.0000,0.5972,1.1961,"999",39,37,37,33,3,01,3,f3*8c773984
$GNGGA,013851.60,3039.25650808,N,12047.31068614,E,2,27,0.6,4.2293,M,9.8167,M,12,0*74
$GNRMC,013851.60,A,3039.25650808,N,12047.31068614,E,0.007,307.3,170120,5.8,W,D*3E
#HEADINGA,COM2,0,52.0,FINE,2088,437949.600,2807434,29,18;SOL_COMPUTED,NARROW_INT,0.4336,159.8939,-15.9633,0.0000,0.5978,1.1907,"999",39,37,37,33,3,01,3,f3*adbed551
$GNGGA,013851.70,3039.25650853,N,12047.31068593,E,2,27,0.6,4.2372,M,9.8167,M,12,0*79
$GNRMC,013851.70,A,3039.25650853,N,12047.31068593,E,0.014,255.7,170120,5.8,W,D*3D
#HEADINGA,COM2,0,52.0,FINE,2088,437949.700,2807534,29,18;SOL_COMPUTED,NARROW_INT,0.4361,159.9519,-16.0932,0.0000,0.5951,1.1839,"999",39,37,37,33,3,01,3,f3*5b60abd7
$GNGGA,013851.80,3039.25650799,N,12047.31068631,E,2,26,0.6,4.2453,M,9.8167,M,12,0*71
$GNRMC,013851.80,A,3039.25650799,N,12047.31068631,E,0.008,216.3,170120,5.8,W,D*3E
#HEADINGA,COM2,0,52.0,FINE,2088,437949.800,2807634,29,18;SOL_COMPUTED,NARROW_INT,0.4334,159.8814,-15.6662,0.0000,0.5975,1.1922,"999",39,37,37,33,3,01,3,f3*b52d7a1a
$GNGGA,013851.90,3039.25650724,N,12047.31068717,E,2,26,0.6,4.2540,M,9.8167,M,12,0*70
$GNRMC,013851.90,A,3039.25650724,N,12047.31068717,E,0.017,168.8,170120,5.8,W,D*33
#HEADINGA,COM2,0,52.0,FINE,2088,437949.900,2807735,29,18;SOL_COMPUTED,NARROW_INT,0.4325,160.0050,-15.8200,0.0000,0.6003,1.1970,"999",39,37,37,33,3,01,3,f3*5e193c12
#REFSTATIONA,COM2,0,52.0,FINE,2088,437937.000,2806037,1802,18;00000000,-2811023.329,4717645.324,3233007.504,0,RTCMV3,"0000"*e5df7116
$GNGGA,013852.00,3039.25650623,N,12047.31068785,E,2,26,0.6,4.2635,M,9.8167,M,13,0*77
$GNRMC,013852.00,A,3039.25650623,N,12047.31068785,E,0.022,153.9,170120,5.8,W,D*3B
#HEADINGA,COM2,0,52.0,FINE,2088,437950.000,2807834,36,18;SOL_COMPUTED,NARROW_INT,0.4319,160.1323,-15.2847,0.0000,0.5995,1.2004,"999",39,37,37,33,3,01,3,f3*eb7a975a
$GNGGA,013852.10,3039.25650533,N,12047.31068871,E,2,27,0.6,4.2713,M,9.8167,M,13,0*74
$GNRMC,013852.10,A,3039.25650533,N,12047.31068871,E,0.015,151.2,170120,5.8,W,D*31
#HEADINGA,COM2,0,52.0,FINE,2088,437950.100,2807936,30,18;SOL_COMPUTED,NARROW_INT,0.4331,160.0423,-15.7455,0.0000,0.5987,1.1944,"999",39,37,37,33,3,01,3,f3*898363f8
$GNGGA,013852.20,3039.25650494,N,12047.31068914,E,2,27,0.6,4.2792,M,9.8167,M,13,0*70
$GNRMC,013852.20,A,3039.25650494,N,12047.31068914,E,0.013,260.4,170120,5.8,W,D*3D
#HEADINGA,COM2,0,52.0,FINE,2088,437950.200,2808036,30,18;SOL_COMPUTED,NARROW_INT,0.4313,160.0753,-15.5791,0.0000,0.6011,1.2006,"999",39,37,37,33,3,01,3,f3*71c46fb3
$GNGGA,013852.30,3039.25650487,N,12047.31068961,E,2,27,0.6,4.2876,M,9.8167,M,13,0*74
$GNRMC,013852.30,A,3039.25650487,N,12047.31068961,E,0.011,312.0,170120,5.8,W,D*3E
#HEADINGA,COM2,0,52.0,FINE,2088,437950.300,2808135,29,18;SOL_COMPUTED,NARROW_INT,0.4333,160.1190,-15.7731,0.0000,0.5985,1.1940,"999",39,37,37,33,3,01,3,f3*1b001b2b
$GNGGA,013852.40,3039.25650454,N,12047.31069008,E,2,27,0.6,4.2974,M,9.8167,M,13,0*79
$GNRMC,013852.40,A,3039.25650454,N,12047.31069008,E,0.007,269.8,170120,5.8,W,D*32
#HEADINGA,COM2,0,52.0,FINE,2088,437950.400,2808234,29,18;SOL_COMPUTED,NARROW_INT,0.4334,159.7197,-16.0891,0.0000,0.5998,1.1933,"999",39,37,37,33,3,01,3,f3*5369c74e
$GNGGA,013852.50,3039.25650436,N,12047.31069073,E,2,27,0.6,4.3074,M,9.8167,M,13,0*78
$GNRMC,013852.50,A,3039.25650436,N,12047.31069073,E,0.004,349.3,170120,5.8,W,D*30
#HEADINGA,COM2,0,52.0,FINE,2088,437950.500,2808334,30,18;SOL_COMPUTED,NARROW_INT,0.4324,160.0235,-15.8654,0.0000,0.5994,1.1953,"999",39,37,37,33,3,01,3,f3*83d7c6f0
$GNGGA,013852.60,3039.25650406,N,12047.31069088,E,2,27,0.6,4.3170,M,9.8167,M,13,0*79
$GNRMC,013852.60,A,3039.25650406,N,12047.31069088,E,0.018,272.6,170120,5.8,W,D*35
#HEADINGA,COM2,0,52.0,FINE,2088,437950.600,2808434,29,18;SOL_COMPUTED,NARROW_INT,0.4357,160.1300,-15.9855,0.0000,0.5957,1.1871,"999",39,37,37,33,3,01,3,f3*3c687a44
$GNGGA,013852.70,3039.25650319,N,12047.31069117,E,2,27,0.6,4.3262,M,9.8167,M,13,0*76
$GNRMC,013852.70,A,3039.25650319,N,12047.31069117,E,0.023,214.5,170120,5.8,W,D*31
#HEADINGA,COM2,0,52.0,FINE,2088,437950.700,2808534,30,18;SOL_COMPUTED,NARROW_INT,0.4330,159.7629,-16.1183,0.0000,0.6001,1.1933,"999",39,37,37,33,3,01,3,f3*e1e73135
$GNGGA,013852.80,3039.25650241,N,12047.31069165,E,2,27,0.6,4.3335,M,9.8167,M,13,0*73
$GNRMC,013852.80,A,3039.25650241,N,12047.31069165,E,0.018,208.1,170120,5.8,W,D*36
#HEADINGA,COM2,0,52.0,FINE,2088,437950.800,2808634,29,18;SOL_COMPUTED,NARROW_INT,0.4308,159.9588,-15.7844,0.0000,0.6012,1.1987,"999",39,37,37,33,3,01,3,f3*3b1b2f00
$GNGGA,013852.90,3039.25650170,N,12047.31069207,E,2,26,0.6,4.3403,M,9.8167,M,13,0*77
$GNRMC,013852.90,A,3039.25650170,N,12047.31069207,E,0.014,185.8,170120,5.8,W,D*32
#HEADINGA,COM2,0,52.0,FINE,2088,437950.900,2808735,29,18;SOL_COMPUTED,NARROW_INT,0.4348,159.9010,-15.5337,0.0000,0.5951,1.1886,"999",39,37,37,33,3,01,3,f3*f8eddc1a
#REFSTATIONA,COM2,0,52.0,FINE,2088,437937.000,2806037,2802,18;00000000,-2811023.329,4717645.324,3233007.504,0,RTCMV3,"0000"*41a1f3d3
$GNGGA,013853.00,3039.25650081,N,12047.31069254,E,2,27,0.6,4.3470,M,9.8167,M,14,0*74
$GNRMC,013853.00,A,3039.25650081,N,12047.31069254,E,0.017,191.6,170120,5.8,W,D*3B
#HEADINGA,COM2,0,52.0,FINE,2088,437951.000,2808834,37,18;SOL_COMPUTED,NARROW_INT,0.4321,159.9688,-15.6249,0.0000,0.5990,1.1958,"999",39,37,37,33,3,01,3,f3*7bb8bbcc
$GNGGA,013853.10,3039.25650016,N,12047.31069273,E,2,27,0.6,4.3535,M,9.8167,M,14,0*7E
$GNRMC,013853.10,A,3039.25650016,N,12047.31069273,E,0.015,228.5,170120,5.8,W,D*31
#HEADINGA,COM2,0,52.0,FINE,2088,437951.100,2808935,30,18;SOL_COMPUTED,NARROW_INT,0.4332,159.8668,-15.4786,0.0000,0.5970,1.1929,"999",39,37,37,33,3,01,3,f3*168ca175
$GNGGA,013853.20,3039.25649967,N,12047.31069309,E,2,27,0.6,4.3595,M,9.8167,M,14,0*7C
$GNRMC,013853.20,A,3039.25649967,N,12047.31069309,E,0.011,221.7,170120,5.8,W,D*36
#HEADINGA,COM2,0,50.0,FINE,2088,437951.200,2809037,31,18;SOL_COMPUTED,NARROW_INT,0.4334,159.8853,-16.1585,0.0000,0.5983,1.1897,"999",39,37,37,33,3,01,3,f3*14bddef8
$GNGGA,013853.30,3039.25649963,N,12047.31069352,E,2,27,0.6,4.3667,M,9.8167,M,13,0*7E
$GNRMC,013853.30,A,3039.25649963,N,12047.31069352,E,0.009,106.1,170120,5.8,W,D*34
#HEADINGA,COM2,0,50.0,FINE,2088,437951.300,2809135,32,18;SOL_COMPUTED,NARROW_INT,0.4317,159.7049,-15.7738,0.0000,0.5998,1.1952,"999",39,37,37,33,3,01,3,f3*7ffdd1ff
$GNGGA,013853.40,3039.25649958,N,12047.31069389,E,2,27,0.6,4.3759,M,9.8167,M,13,0*7B
$GNRMC,013853.40,A,3039.25649958,N,12047.31069389,E,0.011,85.3,170120,5.8,W,D*0C
#HEADINGA,COM2,0,50.0,FINE,2088,437951.400,2809234,29,18;SOL_COMPUTED,NARROW_INT,0.4363,160.1280,-15.7786,0.0000,0.5931,1.1836,"999",39,37,37,33,3,01,3,f3*acd299c3
$GNGGA,013853.50,3039.25649963,N,12047.31069373,E,2,27,0.6,4.3840,M,9.8167,M,13,0*70
$GNRMC,013853.50,A,3039.25649963,N,12047.31069373,E,0.011,278.1,170120,5.8,W,D*32
#HEADINGA,COM2,0,50.0,FINE,2088,437951.500,2809334,30,18;SOL_COMPUTED,NARROW_INT,0.4324,160.0065,-15.9217,0.0000,0.5988,1.1927,"999",39,37,37,33,3,01,3,f3*d8c71b38
$GNGGA,013853.60,3039.25649954,N,12047.31069337,E,2,27,0.6,4.3930,M,9.8167,M,13,0*71
$GNRMC,013853.60,A,3039.25649954,N,12047.31069337,E,0.015,256.8,170120,5.8,W,D*34
#HEADINGA,COM2,0,50.0,FINE,2088,437951.600,2809434,29,18;SOL_COMPUTED,NARROW_INT,0.4355,160.0264,-16.0032,0.0000,0.5948,1.1841,"999",39,37,37,33,3,01,3,f3*35b97ce6
$GNGGA,013853.70,3039.25649942,N,12047.31069314,E,2,27,0.6,4.4000,M,9.8167,M,13,0*7B
$GNRMC,013853.70,A,3039.25649942,N,12047.31069314,E,0.015,272.1,170120,5.8,W,D*3C
#HEADINGA,COM2,0,50.0,FINE,2088,437951.700,2809534,30,18;SOL_COMPUTED,NARROW_INT,0.4335,160.0937,-16.1026,0.0000,0.5978,1.1895,"999",39,37,37,33,3,01,3,f3*a9478f2b
$GNGGA,013853.80,3039.25649897,N,12047.31069301,E,2,27,0.6,4.4076,M,9.8167,M,13,0*78
$GNRMC,013853.80,A,3039.25649897,N,12047.31069301,E,0.017,216.3,170120,5.8,W,D*3C
#HEADINGA,COM2,0,50.0,FINE,2088,437951.800,2809634,30,18;SOL_COMPUTED,NARROW_INT,0.4335,160.1715,-15.4575,0.0000,0.5956,1.1920,"999",39,37,37,33,3,01,3,f3*aab9ea8f
$GNGGA,013853.90,3039.25649830,N,12047.31069309,E,2,27,0.6,4.4168,M,9.8167,M,13,0*72
$GNRMC,013853.90,A,3039.25649830,N,12047.31069309,E,0.023,181.0,170120,5.8,W,D*31
#HEADINGA,COM2,0,50.0,FINE,2088,437951.900,2809735,29,18;SOL_COMPUTED,NARROW_INT,0.4341,160.0653,-15.9305,0.0000,0.5969,1.1887,"999",39,37,37,33,3,01,3,f3*ebd517b1
#REFSTATIONA,COM2,0,50.0,FINE,2088,437938.000,2809037,802,18;00000000,-2811023.329,4717645.324,3233007.504,0,RTCMV3,"0000"*b6205e2e
$GNGGA,013854.00,3039.25649810,N,12047.31069350,E,2,27,0.6,4.4252,M,9.8167,M,14,0*7F
$GNRMC,013854.00,A,3039.25649810,N,12047.31069350,E,0.010,153.9,170120,5.8,W,D*37
#HEADINGA,COM2,0,50.0,FINE,2088,437952.000,2809834,36,18;SOL_COMPUTED,NARROW_INT,0.4362,160.0910,-16.0567,0.0000,0.5940,1.1828,"999",39,37,37,33,3,01,3,f3*aa3bd55a
$GNGGA,013854.10,3039.25649819,N,12047.31069364,E,2,27,0.6,4.4315,M,9.8167,M,14,0*72
$GNRMC,013854.10,A,3039.25649819,N,12047.31069364,E,0.005,292.9,170120,5.8,W,D*32
#HEADINGA,COM2,0,50.0,FINE,2088,437952.100,2809936,30,18;SOL_COMPUTED,NARROW_INT,0.4362,160.0840,-15.6731,0.0000,0.5928,1.1837,"999",39,37,37,33,3,01,3,f3*d5ecd8a5
$GNGGA,013854.20,3039.25649782,N,12047.31069366,E,2,27,0.6,4.4383,M,9.8167,M,14,0*71
$GNRMC,013854.20,A,3039.25649782,N,12047.31069366,E,0.009,220.2,170120,5.8,W,D*30
#HEADINGA,COM2,0,50.0,FINE,2088,437952.200,2810036,31,18;SOL_COMPUTED,NARROW_INT,0.4330,160.1323,-15.4602,0.0000,0.5964,1.1932,"999",39,37,37,33,3,01,3,f3*9d0878b9
$GNGGA,013854.30,3039.25649761,N,12047.31069322,E,2,27,0.6,4.4478,M,9.8167,M,12,0*78
$GNRMC,013854.30,A,3039.25649761,N,12047.31069322,E,0.008,208.2,170120,5.8,W,D*37
#HEADINGA,COM2,0,50.0,FINE,2088,437952.300,2810135,32,18;SOL_COMPUTED,NARROW_INT,0.4346,160.1461,-15.7623,0.0000,0.5952,1.1880,"999",39,37,37,33,3,01,3,f3*697ea6c9
$GNGGA,013854.40,3039.25649753,N,12047.31069272,E,2,27,0.6,4.4558,M,9.8167,M,12,0*79
$GNRMC,013854.40,A,3039.25649753,N,12047.31069272,E,0.009,272.1,170120,5.8,W,D*3A
#HEADINGA,COM2,0,50.0,FINE,2088,437952.400,2810234,30,18;SOL_COMPUTED,NARROW_INT,0.4333,160.1407,-16.2148,0.0000,0.5983,1.1903,"999",39,37,37,33,3,01,3,f3*7c694951
$GNGGA,013854.50,3039.25649730,N,12047.31069238,E,2,27,0.6,4.4640,M,9.8167,M,12,0*79
$GNRMC,013854.50,A,3039.25649730,N,12047.31069238,E,0.008,212.0,170120,5.8,W,D*36
#HEADINGA,COM2,0,50.0,FINE,2088,437952.500,2810334,30,18;SOL_COMPUTED,NARROW_INT,0.4331,160.3550,-15.5928,0.0000,0.5964,1.1927,"999",39,37,37,33,3,01,3,f3*1ce8e8b4
$GNGGA,013854.60,3039.25649702,N,12047.31069191,E,2,27,0.6,4.4719,M,9.8167,M,12,0*76
$GNRMC,013854.60,A,3039.25649702,N,12047.31069191,E,0.013,218.9,170120,5.8,W,D*3D
#HEADINGA,COM2,0,50.0,FINE,2088,437952.600,2810434,29,18;SOL_COMPUTED,NARROW_INT,0.4328,159.9397,-15.3196,0.0000,0.5963,1.1936,"999",39,37,37,33,3,01,3,f3*f964097e
$GNGGA,013854.70,3039.25649713,N,12047.31069157,E,2,27,0.6,4.4813,M,9.8167,M,12,0*78
$GNRMC,013854.70,A,3039.25649713,N,12047.31069157,E,0.004,288.4,170120,5.8,W,D*34
#HEADINGA,COM2,0,50.0,FINE,2088,437952.700,2810534,30,18;SOL_COMPUTED,NARROW_INT,0.4342,159.9135,-15.8694,0.0000,0.5962,1.1889,"999",39,37,37,33,3,01,3,f3*d9fdb205
$GNGGA,013854.80,3039.25649707,N,12047.31069131,E,2,27,0.6,4.4892,M,9.8167,M,12,0*7B
$GNRMC,013854.80,A,3039.25649707,N,12047.31069131,E,0.005,258.8,170120,5.8,W,D*3E
#HEADINGA,COM2,0,50.0,FINE,2088,437952.800,2810634,29,18;SOL_COMPUTED,NARROW_INT,0.4345,160.0602,-15.8572,0.0000,0.5954,1.1870,"999",39,37,37,33,3,01,3,f3*f6832039
$GNGGA,013854.90,3039.25649724,N,12047.31069080,E,2,27,0.6,4.4977,M,9.8167,M,12,0*7A
$GNRMC,013854.90,A,3039.25649724,N,12047.31069080,E,0.012,293.0,170120,5.8,W,D*3C
#HEADINGA,COM2,0,50.0,FINE,2088,437952.900,2810735,29,18;SOL_COMPUTED,NARROW_INT,0.4331,159.9541,-15.5875,0.0000,0.5978,1.1945,"999",39,37,37,33,3,01,3,f3*c0a1ae81
#REFSTATIONA,COM2,0,50.0,FINE,2088,437940.000,2810036,803,18;00000000,-2811023.329,4717645.324,3233007.504,0,RTCMV3,"0000"*8b4fb4ec
$GNGGA,013855.00,3039.25649717,N,12047.31069043,E,2,27,0.6,4.5075,M,9.8167,M,13,0*76
$GNRMC,013855.00,A,3039.25649717,N,12047.31069043,E,0.008,229.6,170120,5.8,W,D*37
#HEADINGA,COM2,0,50.0,FINE,2088,437953.000,2810834,36,18;SOL_COMPUTED,NARROW_INT,0.4340,159.9638,-16.2424,0.0000,0.5985,1.1901,"999",39,37,37,33,3,01,3,f3*f0f9986b
$GNGGA,013855.10,3039.25649653,N,12047.31069039,E,2,27,0.6,4.5154,M,9.8167,M,13,0*79
$GNRMC,013855.10,A,3039.25649653,N,12047.31069039,E,0.026,178.6,170120,5.8,W,D*31
#HEADINGA,COM2,0,50.0,FINE,2088,437953.100,2810935,30,18;SOL_COMPUTED,NARROW_INT,0.4348,160.1062,-15.6031,0.0000,0.5952,1.1888,"999",39,37,37,33,3,01,3,f3*41ea03a2
$GNGGA,013855.20,3039.25649588,N,12047.31069031,E,2,27,0.6,4.5238,M,9.8167,M,13,0*7E
$GNRMC,013855.20,A,3039.25649588,N,12047.31069031,E,0.024,177.1,170120,5.8,W,D*35
#HEADINGA,COM2,0,50.0,FINE,2088,437953.200,2811036,31,18;SOL_COMPUTED,NARROW_INT,0.4337,160.0967,-16.2520,0.0000,0.5988,1.1905,"999",39,37,37,33,3,01,3,f3*e808084b
$GNGGA,013855.30,3039.25649552,N,12047.31069026,E,2,27,0.6,4.5297,M,9.8167,M,13,0*7B
$GNRMC,013855.30,A,3039.25649552,N,12047.31069026,E,0.013,187.8,170120,5.8,W,D*37
#HEADINGA,COM2,0,50.0,FINE,2088,437953.300,2811135,29,18;SOL_COMPUTED,NARROW_INT,0.4333,159.9802,-15.8380,0.0000,0.5970,1.1921,"999",39,37,37,33,3,01,3,f3*06a2bf3d
$GNGGA,013855.40,3039.25649512,N,12047.31068960,E,2,27,0.6,4.5367,M,9.8167,M,13,0*7C
$GNRMC,013855.40,A,3039.25649512,N,12047.31068960,E,0.020,233.1,170120,5.8,W,D*3B
#HEADINGA,COM2,0,50.0,FINE,2088,437953.400,2811234,30,18;SOL_COMPUTED,NARROW_INT,0.4352,160.2924,-15.9550,0.0000,0.5943,1.1869,"999",39,37,37,33,3,01,3,f3*ab07b312
$GNGGA,013855.50,3039.25649511,N,12047.31068887,E,2,27,0.6,4.5447,M,9.8167,M,13,0*73
$GNRMC,013855.50,A,3039.25649511,N,12047.31068887,E,0.017,247.9,170120,5.8,W,D*3E
#HEADINGA,COM2,0,50.0,FINE,2088,437953.500,2811334,30,18;SOL_COMPUTED,NARROW_INT,0.4302,159.8354,-15.8851,0.0000,0.6022,1.2352,"999",39,37,37,34,3,01,3,f3*471feed2
$GNGGA,013855.60,3039.25649505,N,12047.31068865,E,2,27,0.6,4.5518,M,9.8167,M,13,0*72
$GNRMC,013855.60,A,3039.25649505,N,12047.31068865,E,0.003,197.7,170120,5.8,W,D*31
#HEADINGA,COM2,0,50.0,FINE,2088,437953.600,2811434,29,18;SOL_COMPUTED,NARROW_INT,0.4343,160.4264,-15.9910,0.0000,0.5964,1.2249,"999",39,37,37,34,3,01,3,f3*f437f55c
$GNGGA,013855.70,3039.25649527,N,12047.31068840,E,2,27,0.6,4.5572,M,9.8167,M,13,0*78
$GNRMC,013855.70,A,3039.25649527,N,12047.31068840,E,0.008,318.7,170120,5.8,W,D*39
#HEADINGA,COM2,0,50.0,FINE,2088,437953.700,2811534,29,18;SOL_COMPUTED,NARROW_INT,0.4357,160.1848,-15.4115,0.0000,0.5943,1.2225,"999",39,37,37,34,3,01,3,f3*ee8531f2
$GNGGA,013855.80,3039.25649497,N,12047.31068841,E,2,27,0.6,4.5613,M,9.8167,M,13,0*78
$GNRMC,013855.80,A,3039.25649497,N,12047.31068841,E,0.005,190.4,170120,5.8,W,D*31
#HEADINGA,COM2,0,50.0,FINE,2088,437953.800,2811634,29,18;SOL_COMPUTED,NARROW_INT,0.4304,160.2711,-15.7633,0.0000,0.6025,1.2367,"999",39,37,37,34,3,01,3,f3*e37a146c
$GNGGA,013855.90,3039.25649422,N,12047.31068814,E,2,27,0.6,4.5666,M,9.8167,M,13,0*75
$GNRMC,013855.90,A,3039.25649422,N,12047.31068814,E,0.022,197.6,170120,5.8,W,D*3E
#HEADINGA,COM2,0,50.0,FINE,2088,437953.900,2811735,29,18;SOL_COMPUTED,NARROW_INT,0.4308,159.7380,-15.4948,0.0000,0.6008,1.2370,"999",39,37,37,34,3,01,3,f3*31e170df
#REFSTATIONA,COM2,0,50.0,FINE,2088,437940.000,2811036,803,18;00000000,-2811023.329,4717645.324,3233007.504,0,RTCMV3,"0000"*7c83e8e2
$GNGGA,013856.00,3039.25649402,N,12047.31068815,E,2,27,0.6,4.5730,M,9.8167,M,14,0*79
$GNRMC,013856.00,A,3039.25649402,N,12047.31068815,E,0.008,152.3,170120,5.8,W,D*33
#HEADINGA,COM2,0,50.0,FINE,2088,437954.000,2811834,36,18;SOL_COMPUTED,NARROW_INT,0.4339,159.7111,-16.1659,0.0000,0.5986,1.2258,"999",39,37,37,34,3,01,3,f3*1f1819a3
$GNGGA,013856.10,3039.25649373,N,12047.31068788,E,2,27,0.6,4.5773,M,9.8167,M,14,0*75
$GNRMC,013856.10,A,3039.25649373,N,12047.31068788,E,0.014,233.1,170120,5.8,W,D*33
#HEADINGA,COM2,0,50.0,FINE,2088,437954.100,2811935,31,18;SOL_COMPUTED,NARROW_INT,0.4338,160.0073,-15.9662,0.0000,0.5988,1.2270,"999",39,37,37,34,3,01,3,f3*c97f63d2
$GNGGA,013856.20,3039.25649335,N,12047.31068796,E,2,27,0.6,4.5845,M,9.8167,M,14,0*71
$GNRMC,013856.20,A,3039.25649335,N,12047.31068796,E,0.014,150.6,170120,5.8,W,D*3C
#HEADINGA,COM2,0,50.0,FINE,2088,437954.200,2812036,32,18;SOL_COMPUTED,NARROW_INT,0.4337,160.0691,-16.1271,0.0000,0.5996,1.2270,"999",39,37,37,34,3,01,3,f3*897cc86a
$GNGGA,013856.30,3039.25649355,N,12047.31068766,E,2,27,0.6,4.5907,M,9.8167,M,12,0*78
$GNRMC,013856.30,A,3039.25649355,N,12047.31068766,E,0.006,47.1,170120,5.8,W,D*07
#HEADINGA,COM2,0,49.0,FINE,2088,437954.300,2812134,33,18;SOL_COMPUTED,NARROW_INT,0.4345,160.1900,-15.9553,0.0000,0.5977,1.2253,"999",39,37,37,34,3,01,3,f3*256120fb
$GNGGA,013856.40,3039.25649336,N,12047.31068737,E,2,27,0.6,4.5961,M,9.8167,M,12,0*7E
$GNRMC,013856.40,A,3039.25649336,N,12047.31068737,E,0.006,153.2,170120,5.8,W,D*36
#HEADINGA,COM2,0,49.0,FINE,2088,437954.400,2812233,30,18;SOL_COMPUTED,NARROW_INT,0.4338,160.1832,-16.0514,0.0000,0.5990,1.2270,"999",39,37,37,34,3,01,3,f3*5465df75
$GNGGA,013856.50,3039.25649291,N,12047.31068716,E,2,27,0.6,4.6048,M,9.8167,M,12,0*71
$GNRMC,013856.50,A,3039.25649291,N,12047.31068716,E,0.015,157.0,170120,5.8,W,D*3C
#HEADINGA,COM2,0,49.0,FINE,2088,437954.500,2812334,30,18;SOL_COMPUTED,NARROW_INT,0.4354,160.1523,-15.8072,0.0000,0.5959,1.2177,"999",39,37,37,34,3,01,3,f3*36f16cbb
$GNGGA,013856.60,3039.25649239,N,12047.31068676,E,2,27,0.6,4.6130,M,9.8167,M,12,0*79
$GNRMC,013856.60,A,3039.25649239,N,12047.31068676,E,0.017,190.6,170120,5.8,W,D*35
#HEADINGA,COM2,0,49.0,FINE,2088,437954.600,2812434,29,18;SOL_COMPUTED,NARROW_INT,0.4319,159.8714,-15.5829,0.0000,0.5998,1.2289,"999",39,37,37,34,3,01,3,f3*f67d9122
$GNGGA,013856.70,3039.25649204,N,12047.31068664,E,2,27,0.6,4.6234,M,9.8167,M,12,0*72
$GNRMC,013856.70,A,3039.25649204,N,12047.31068664,E,0.016,143.0,170120,5.8,W,D*30
#HEADINGA,COM2,0,49.0,FINE,2088,437954.700,2812534,30,18;SOL_COMPUTED,NARROW_INT,0.4330,160.2465,-15.9593,0.0000,0.5990,1.2251,"999",39,37,37,34,3,01,3,f3*1a8a1aed
$GNGGA,013856.80,3039.25649213,N,12047.31068659,E,2,27,0.6,4.6309,M,9.8167,M,12,0*7A
$GNRMC,013856.80,A,3039.25649213,N,12047.31068659,E,0.006,69.3,170120,5.8,W,D*0C
#HEADINGA,COM2,0,49.0,FINE,2088,437954.800,2812634,29,18;SOL_COMPUTED,NARROW_INT,0.4333,160.2257,-15.3698,0.0000,0.5964,1.2257,"999",39,37,37,34,3,01,3,f3*7b572dbc
$GNGGA,013856.90,3039.25649251,N,12047.31068623,E,2,27,0.6,4.6379,M,9.8167,M,12,0*77
$GNRMC,013856.90,A,3039.25649251,N,12047.31068623,E,0.009,1.8,170120,5.8,W,D*3C
#HEADINGA,COM2,0,49.0,FINE,2088,437954.900,2812735,29,18;SOL_COMPUTED,NARROW_INT,0.4329,159.8221,-15.8791,0.0000,0.5987,1.2241,"999",39,37,37,34,3,01,3,f3*904d583d
#REFSTATIONA,COM2,0,50.0,FINE,2088,437942.000,2812036,803,18;00000000,-2811023.329,4717645.324,3233007.504,0,RTCMV3,"0000"*f614ce7a
$GNGGA,013857.00,3039.25649244,N,12047.31068577,E,2,27,0.6,4.6458,M,9.8167,M,13,0*7C
$GNRMC,013857.00,A,3039.25649244,N,12047.31068577,E,0.005,203.9,170120,5.8,W,D*3F
#HEADINGA,COM2,0,49.0,FINE,2088,437955.000,2812834,36,18;SOL_COMPUTED,NARROW_INT,0.4337,160.0518,-16.1080,0.0000,0.5980,1.2204,"999",39,37,37,34,3,01,3,f3*712cdf0b
$GNGGA,013857.10,3039.25649235,N,12047.31068550,E,2,27,0.6,4.6532,M,9.8167,M,13,0*73
$GNRMC,013857.10,A,3039.25649235,N,12047.31068550,E,0.006,158.2,170120,5.8,W,D*38
#HEADINGA,COM2,0,49.0,FINE,2088,437955.100,2812935,30,18;SOL_COMPUTED,NARROW_INT,0.4336,160.4126,-15.8189,0.0000,0.5969,1.2226,"999",39,37,37,34,3,01,3,f3*fe0cd92c
$GNGGA,013857.20,3039.25649221,N,12047.31068529,E,2,27,0.6,4.6602,M,9.8167,M,13,0*7B
$GNRMC,013857.20,A,3039.25649221,N,12047.31068529,E,0.008,158.2,170120,5.8,W,D*3E
#HEADINGA,COM2,0,49.0,FINE,2088,437955.200,2813036,31,18;SOL_COMPUTED,NARROW_INT,0.4377,160.1480,-16.0009,0.0000,0.5921,1.2103,"999",39,37,37,34,3,01,3,f3*d62066b4
$GNGGA,013857.30,3039.25649228,N,12047.31068497,E,2,27,0.6,4.6680,M,9.8167,M,13,0*7D
$GNRMC,013857.30,A,3039.25649228,N,12047.31068497,E,0.002,258.2,170120,5.8,W,D*3B
#HEADINGA,COM2,0,49.0,FINE,2088,437955.300,2813134,30,18;SOL_COMPUTED,NARROW_INT,0.4351,160.1112,-15.9926,0.0000,0.5958,1.2177,"999",39,37,37,34,3,01,3,f3*3b7e5d82
$GNGGA,013857.40,3039.25649246,N,12047.31068485,E,2,27,0.6,4.6753,M,9.8167,M,13,0*7E
$GNRMC,013857.40,A,3039.25649246,N,12047.31068485,E,0.002,326.5,170120,5.8,W,D*38
#HEADINGA,COM2,0,49.0,FINE,2088,437955.400,2813234,30,18;SOL_COMPUTED,NARROW_INT,0.4338,159.9482,-16.2106,0.0000,0.5983,1.2203,"999",39,37,37,34,3,01,3,f3*f310e5f6
$GNGGA,013857.50,3039.25649265,N,12047.31068466,E,2,27,0.6,4.6820,M,9.8167,M,13,0*78
$GNRMC,013857.50,A,3039.25649265,N,12047.31068466,E,0.006,293.6,170120,5.8,W,D*3D
#HEADINGA,COM2,0,49.0,FINE,2088,437955.500,2813334,30,18;SOL_COMPUTED,NARROW_INT,0.4343,160.2141,-15.3847,0.0000,0.5948,1.2169,"999",39,37,37,34,3,01,3,f3*16963f8b
$GNGGA,013857.60,3039.25649270,N,12047.31068452,E,2,27,0.6,4.6891,M,9.8167,M,13,0*72
$GNRMC,013857.60,A,3039.25649270,N,12047.31068452,E,0.007,198.1,170120,5.8,W,D*33
#HEADINGA,COM2,0,49.0,FINE,2088,437955.600,2813434,29,18;SOL_COMPUTED,NARROW_INT,0.4337,160.1097,-16.4025,0.0000,0.5983,1.2152,"999",39,37,37,34,3,01,3,f3*6b9f16ec
$GNGGA,013857.70,3039.25649281,N,12047.31068456,E,2,27,0.6,4.6931,M,9.8167,M,13,0*72
$GNRMC,013857.70,A,3039.25649281,N,12047.31068456,E,0.007,152.4,170120,5.8,W,D*3B
#HEADINGA,COM2,0,49.0,FINE,2088,437955.700,2813534,30,18;SOL_COMPUTED,NARROW_INT,0.4342,160.1374,-15.6256,0.0000,0.5953,1.2162,"999",39,37,37,34,3,01,3,f3*77d0866a
$GNGGA,013857.80,3039.25649317,N,12047.31068461,E,2,27,0.6,4.6965,M,9.8167,M,13,0*76
$GNRMC,013857.80,A,3039.25649317,N,12047.31068461,E,0.007,58.4,170120,5.8,W,D*05
#HEADINGA,COM2,0,49.0,FINE,2088,437955.800,2813634,29,18;SOL_COMPUTED,NARROW_INT,0.4344,160.1492,-15.8662,0.0000,0.5961,1.2154,"999",39,37,37,34,3,01,3,f3*041455cb
$GNGGA,013857.90,3039.25649354,N,12047.31068436,E,2,27,0.6,4.7013,M,9.8167,M,13,0*7B
$GNRMC,013857.90,A,3039.25649354,N,12047.31068436,E,0.008,324.7,170120,5.8,W,D*35
#HEADINGA,COM2,0,49.0,FINE,2088,437955.900,2813734,30,18;SOL_COMPUTED,NARROW_INT,0.4323,159.9424,-15.5458,0.0000,0.5984,1.2214,"999",39,37,37,34,3,01,3,f3*32e929c2
#REFSTATIONA,COM2,0,49.0,FINE,2088,437942.000,2813036,803,18;00000000,-2811023.329,4717645.324,3233007.504,0,RTCMV3,"0000"*94869078
$GNGGA,013858.00,3039.25649405,N,12047.31068402,E,2,27,0.6,4.7059,M,9.8167,M,14,0*70
$GNRMC,013858.00,A,3039.25649405,N,12047.31068402,E,0.014,325.1,170120,5.8,W,D*3D
#HEADINGA,COM2,0,49.0,FINE,2088,437956.000,2813834,36,18;SOL_COMPUTED,NARROW_INT,0.4356,160.1617,-15.8003,0.0000,0.5943,1.2110,"999",39,37,37,34,3,01,3,f3*2624e323
$GNGGA,013858.10,3039.25649441,N,12047.31068366,E,2,27,0.6,4.7138,M,9.8167,M,14,0*72
$GNRMC,013858.10,A,3039.25649441,N,12047.31068366,E,0.003,87.5,170120,5.8,W,D*00
#HEADINGA,COM2,0,49.0,FINE,2088,437956.100,2813935,31,18;SOL_COMPUTED,NARROW_INT,0.4318,160.3597,-15.6756,0.0000,0.5988,1.2223,"999",39,37,37,34,3,01,3,f3*c03f5c1e
$GNGGA,013858.20,3039.25649465,N,12047.31068293,E,2,27,0.6,4.7209,M,9.8167,M,14,0*7D
$GNRMC,013858.20,A,3039.25649465,N,12047.31068293,E,0.013,240.5,170120,5.8,W,D*36
#HEADINGA,COM2,0,49.0,FINE,2088,437956.200,2814036,31,18;SOL_COMPUTED,NARROW_INT,0.4347,159.8871,-16.1398,0.0000,0.5967,1.2122,"999",39,37,37,34,3,01,3,f3*20ca11b3
$GNGGA,013858.30,3039.25649491,N,12047.31068204,E,2,27,0.6,4.7280,M,9.8167,M,13,0*7F
$GNRMC,013858.30,A,3039.25649491,N,12047.31068204,E,0.009,203.1,170120,5.8,W,D*3A
#HEADINGA,COM2,0,49.0,FINE,2088,437956.300,2814134,32,18;SOL_COMPUTED,NARROW_INT,0.4327,160.0286,-15.5070,0.0000,0.5975,1.2200,"999",39,37,37,34,3,01,3,f3*645898cf
$GNGGA,013858.40,3039.25649497,N,12047.31068151,E,2,27,0.6,4.7353,M,9.8167,M,13,0*72
$GNRMC,013858.40,A,3039.25649497,N,12047.31068151,E,0.011,155.6,170120,5.8,W,D*36
#HEADINGA,COM2,0,49.0,FINE,2088,437956.400,2814234,29,18;SOL_COMPUTED,NARROW_INT,0.4326,159.9976,-16.0329,0.0000,0.5994,1.2200,"999",39,37,37,34,3,01,3,f3*65d437f2
$GNGGA,013858.50,3039.25649507,N,12047.31068092,E,2,27,0.6,4.7427,M,9.8167,M,13,0*71
$GNRMC,013858.50,A,3039.25649507,N,12047.31068092,E,0.008,161.0,170120,5.8,W,D*38
#HEADINGA,COM2,0,49.0,FINE,2088,437956.500,2814334,29,18;SOL_COMPUTED,NARROW_INT,0.4327,160.0588,-16.1920,0.0000,0.5994,1.2152,"999",39,37,37,34,3,01,3,f3*9a093be8
$GNGGA,013858.60,3039.25649552,N,12047.31067977,E,2,27,0.6,4.7498,M,9.8167,M,13,0*7B
$GNRMC,013858.60,A,3039.25649552,N,12047.31067977,E,0.013,270.5,170120,5.8,W,D*3A
