
$GNGGA,014330.40,3039.25644352,N,12047.31055269,E,2,27,0.6,5.0543,M,9.8167,M,10,0*77
$GNRMC,014330.40,A,3039.25644352,N,12047.31055269,E,0.001,344.0,170120,5.8,W,D*34
#HEADINGA,COM2,0,48.0,FINE,2088,438228.400,116936,30,18;SOL_COMPUTED,NARROW_INT,0.8754,125.3121,-4.9213,0.0000,0.2743,0.5624,"999",41,38,38,13,3,01,3,73*29ea421d
$GNGGA,014330.50,3039.25644422,N,12047.31055255,E,2,27,0.6,5.0532,M,9.8167,M,10,0*7F
$GNRMC,014330.50,A,3039.25644422,N,12047.31055255,E,0.016,299.8,170120,5.8,W,D*35
#HEADINGA,COM2,0,48.0,FINE,2088,438228.500,117036,30,18;SOL_COMPUTED,NARROW_INT,0.8772,125.1677,-5.2035,0.0000,0.2738,0.5610,"999",41,38,38,14,3,01,3,73*908afde3
$GNGGA,014330.60,3039.25644472,N,12047.31055276,E,2,27,0.6,5.0518,M,9.8167,M,10,0*70
$GNRMC,014330.60,A,3039.25644472,N,12047.31055276,E,0.010,261.1,170120,5.8,W,D*3A
#HEADINGA,COM2,0,48.0,FINE,2088,438228.600,117135,30,18;SOL_COMPUTED,NARROW_INT,0.8737,125.2127,-5.1592,0.0000,0.2741,0.5612,"999",41,38,38,14,3,01,3,73*e5e4b83c
$GNGGA,014330.70,3039.25644482,N,12047.31055320,E,2,27,0.6,5.0496,M,9.8167,M,10,0*7B
$GNRMC,014330.70,A,3039.25644482,N,12047.31055320,E,0.017,193.7,170120,5.8,W,D*39
#HEADINGA,COM2,0,48.0,FINE,2088,438228.700,117235,30,18;SOL_COMPUTED,NARROW_INT,0.8729,125.3956,-4.8766,0.0000,0.2745,0.5624,"999",41,38,38,14,3,01,3,73*3e6083c6
$GNGGA,014330.80,3039.25644497,N,12047.31055403,E,2,27,0.6,5.0467,M,9.8167,M,10,0*78
$GNRMC,014330.80,A,3039.25644497,N,12047.31055403,E,0.017,147.0,170120,5.8,W,D*3A
#HEADINGA,COM2,0,48.0,FINE,2088,438228.800,117336,30,18;SOL_COMPUTED,NARROW_INT,0.8750,125.4824,-4.7973,0.0000,0.2739,0.5618,"999",41,38,38,14,3,01,3,73*f64395c3
$GNGGA,014330.90,3039.25644490,N,12047.31055516,E,2,27,0.6,5.0445,M,9.8167,M,10,0*7B
$GNRMC,014330.90,A,3039.25644490,N,12047.31055516,E,0.028,141.5,170120,5.8,W,D*36
#HEADINGA,COM2,0,48.0,FINE,2088,438228.900,117435,30,18;SOL_COMPUTED,NARROW_INT,0.8744,125.3543,-5.0014,0.0000,0.2740,0.5614,"999",41,38,38,14,3,01,3,73*bdbab7c1
#REFSTATIONA,COM2,0,48.0,FINE,2088,438218.000,116739,801,18;00000000,-2811023.329,4717645.324,3233007.504,0,RTCMV3,"0000"*132b46c8
$GNGGA,014331.00,3039.25644533,N,12047.31055577,E,2,27,0.6,5.0428,M,9.8167,M,11,0*76
$GNRMC,014331.00,A,3039.25644533,N,12047.31055577,E,0.004,196.1,170120,5.8,W,D*31
#HEADINGA,COM2,0,48.0,FINE,2088,438229.000,117536,36,18;SOL_COMPUTED,NARROW_INT,0.8724,125.4863,-4.6313,0.0000,0.2746,0.5632,"999",41,38,38,14,3,01,3,73*0afdc2c5
$GNGGA,014331.10,3039.25644609,N,12047.31055607,E,2,27,0.6,5.0402,M,9.8167,M,11,0*71
$GNRMC,014331.10,A,3039.25644609,N,12047.31055607,E,0.009,321.1,170120,5.8,W,D*3D
#HEADINGA,COM2,0,48.0,FINE,2088,438229.100,117636,31,18;SOL_COMPUTED,NARROW_INT,0.8748,125.4195,-4.9827,0.0000,0.2743,0.5619,"999",41,38,38,14,3,01,3,73*ae7661b5
$GNGGA,014331.20,3039.25644661,N,12047.31055609,E,2,27,0.6,5.0390,M,9.8167,M,11,0*7E
$GNRMC,014331.20,A,3039.25644661,N,12047.31055609,E,0.012,274.5,170120,5.8,W,D*31
#HEADINGA,COM2,0,48.0,FINE,2088,438229.200,117738,30,18;SOL_COMPUTED,NARROW_INT,0.8719,125.2315,-4.9767,0.0000,0.2749,0.5639,"999",41,38,38,14,3,01,3,73*84fb2043
$GNGGA,014331.30,3039.25644683,N,12047.31055659,E,2,27,0.6,5.0354,M,9.8167,M,10,0*7F
$GNRMC,014331.30,A,3039.25644683,N,12047.31055659,E,0.015,218.1,170120,5.8,W,D*30
#HEADINGA,COM2,0,48.0,FINE,2088,438229.300,117836,33,18;SOL_COMPUTED,NARROW_INT,0.8730,125.2664,-4.9729,0.0000,0.2747,0.5632,"999",41,38,38,14,3,01,3,73*d9b5d8a8
$GNGGA,014331.40,3039.25644703,N,12047.31055728,E,2,27,0.6,5.0330,M,9.8167,M,10,0*74
$GNRMC,014331.40,A,3039.25644703,N,12047.31055728,E,0.011,170.9,170120,5.8,W,D*38
#HEADINGA,COM2,0,48.0,FINE,2088,438229.400,117936,30,18;SOL_COMPUTED,NARROW_INT,0.8722,125.4281,-4.6141,0.0000,0.2753,0.5653,"999",41,38,38,14,3,01,3,73*65fc5ea3
$GNGGA,014331.50,3039.25644745,N,12047.31055813,E,2,27,0.6,5.0301,M,9.8167,M,10,0*72
$GNRMC,014331.50,A,3039.25644745,N,12047.31055813,E,0.008,129.5,170120,5.8,W,D*34
#HEADINGA,COM2,0,48.0,FINE,2088,438229.500,118036,30,18;SOL_COMPUTED,NARROW_INT,0.8728,125.3174,-4.9178,0.0000,0.2751,0.5623,"999",41,38,38,13,3,01,3,73*6c336b41
$GNGGA,014331.60,3039.25644793,N,12047.31055890,E,2,27,0.6,5.0270,M,9.8167,M,10,0*76
$GNRMC,014331.60,A,3039.25644793,N,12047.31055890,E,0.005,121.3,170120,5.8,W,D*34
#HEADINGA,COM2,0,48.0,FINE,2088,438229.600,118136,30,18;SOL_COMPUTED,NARROW_INT,0.8723,125.3163,-4.9197,0.0000,0.2753,0.5626,"999",41,38,38,13,3,01,3,73*85894eaf
$GNGGA,014331.70,3039.25644830,N,12047.31055953,E,2,27,0.6,5.0255,M,9.8167,M,10,0*78
$GNRMC,014331.70,A,3039.25644830,N,12047.31055953,E,0.006,152.0,170120,5.8,W,D*39
#HEADINGA,COM2,0,48.0,FINE,2088,438229.700,118236,30,18;SOL_COMPUTED,NARROW_INT,0.8733,125.4538,-5.0515,0.0000,0.2754,0.5618,"999",41,38,38,13,3,01,3,73*702cb833
$GNGGA,014331.80,3039.25644856,N,12047.31055994,E,2,27,0.6,5.0224,M,9.8167,M,10,0*7A
$GNRMC,014331.80,A,3039.25644856,N,12047.31055994,E,0.013,214.4,170120,5.8,W,D*3C
#HEADINGA,COM2,0,48.0,FINE,2088,438229.800,118336,29,18;SOL_COMPUTED,NARROW_INT,0.8745,125.2603,-4.7425,0.0000,0.2751,0.5632,"999",41,38,38,13,3,01,3,73*3795dc1a
$GNGGA,014331.90,3039.25644849,N,12047.31056019,E,2,27,0.6,5.0197,M,9.8167,M,10,0*71
$GNRMC,014331.90,A,3039.25644849,N,12047.31056019,E,0.018,200.0,170120,5.8,W,D*36
#HEADINGA,COM2,0,46.0,FINE,2088,438229.900,118436,30,18;SOL_COMPUTED,NARROW_INT,0.8742,125.2193,-5.2085,0.0000,0.2754,0.5620,"999",41,38,38,13,3,01,3,73*3785e712
#REFSTATIONA,COM2,0,48.0,FINE,2088,438219.000,117738,803,18;00000000,-2811023.329,4717645.324,3233007.504,0,RTCMV3,"0000"*4393bbe0
$GNGGA,014332.00,3039.25644893,N,12047.31056029,E,2,27,0.6,5.0168,M,9.8167,M,11,0*7E
$GNRMC,014332.00,A,3039.25644893,N,12047.31056029,E,0.011,242.4,170120,5.8,W,D*33
#HEADINGA,COM2,0,46.0,FINE,2088,438230.000,118536,37,18;SOL_COMPUTED,NARROW_INT,0.8737,125.3302,-4.9457,0.0000,0.2756,0.5628,"999",41,38,38,13,3,01,3,73*118d5ed8
$GNGGA,014332.10,3039.25644951,N,12047.31056057,E,2,27,0.6,5.0142,M,9.8167,M,11,0*71
$GNRMC,014332.10,A,3039.25644951,N,12047.31056057,E,0.002,297.9,170120,5.8,W,D*33
#HEADINGA,COM2,0,46.0,FINE,2088,438230.100,118637,30,18;SOL_COMPUTED,NARROW_INT,0.8734,125.1750,-5.1503,0.0000,0.2755,0.5626,"999",41,38,38,13,3,01,3,73*f5e9adc5
$GNGGA,014332.20,3039.25644996,N,12047.31056079,E,2,27,0.6,5.0121,M,9.8167,M,11,0*70
$GNRMC,014332.20,A,3039.25644996,N,12047.31056079,E,0.005,285.6,170120,5.8,W,D*3C
#HEADINGA,COM2,0,46.0,FINE,2088,438230.200,118739,31,18;SOL_COMPUTED,NARROW_INT,0.8719,125.2017,-5.0274,0.0000,0.2756,0.5632,"999",41,38,38,13,3,01,3,73*a20c7e85
$GNGGA,014332.30,3039.25645028,N,12047.31056112,E,2,27,0.6,5.0094,M,9.8167,M,11,0*7F
$GNRMC,014332.30,A,3039.25645028,N,12047.31056112,E,0.004,210.1,170120,5.8,W,D*36
#HEADINGA,COM2,0,46.0,FINE,2088,438230.300,118836,30,18;SOL_COMPUTED,NARROW_INT,0.8737,125.0264,-5.3966,0.0000,0.2761,0.5640,"999",41,38,38,14,3,01,3,73*aa95730c
$GNGGA,014332.40,3039.25645035,N,12047.31056146,E,2,27,0.6,5.0087,M,9.8167,M,11,0*77
$GNRMC,014332.40,A,3039.25645035,N,12047.31056146,E,0.009,132.9,170120,5.8,W,D*3A
#HEADINGA,COM2,0,46.0,FINE,2088,438230.400,118936,29,18;SOL_COMPUTED,NARROW_INT,0.8729,125.1646,-4.8439,0.0000,0.2761,0.5653,"999",41,38,38,14,3,01,3,73*01eda9d4
$GNGGA,014332.50,3039.25645054,N,12047.31056145,E,2,27,0.6,5.0080,M,9.8167,M,11,0*75
$GNRMC,014332.50,A,3039.25645054,N,12047.31056145,E,0.007,232.9,170120,5.8,W,D*32
#HEADINGA,COM2,0,46.0,FINE,2088,438230.500,119036,30,18;SOL_COMPUTED,NARROW_INT,0.8741,125.1648,-5.5034,0.0000,0.2760,0.5638,"999",41,38,38,14,3,01,3,73*19173479
$GNGGA,014332.60,3039.25645091,N,12047.31056136,E,2,27,0.6,5.0063,M,9.8167,M,11,0*76
$GNRMC,014332.60,A,3039.25645091,N,12047.31056136,E,0.010,278.5,170120,5.8,W,D*38
#HEADINGA,COM2,0,46.0,FINE,2088,438230.600,119136,30,18;SOL_COMPUTED,NARROW_INT,0.8736,125.2150,-5.4336,0.0000,0.2754,0.5622,"999",41,38,38,14,3,01,3,73*70c90440
$GNGGA,014332.70,3039.25645116,N,12047.31056147,E,2,27,0.6,5.0041,M,9.8167,M,11,0*7F
$GNRMC,014332.70,A,3039.25645116,N,12047.31056147,E,0.007,207.8,170120,5.8,W,D*32
#HEADINGA,COM2,0,46.0,FINE,2088,438230.700,119236,29,18;SOL_COMPUTED,NARROW_INT,0.8735,125.2902,-5.5346,0.0000,0.2756,0.5621,"999",41,38,38,14,3,01,3,73*dd6ef90a
$GNGGA,014332.80,3039.25645143,N,12047.31056178,E,2,27,0.6,5.0024,M,9.8167,M,11,0*7F
$GNRMC,014332.80,A,3039.25645143,N,12047.31056178,E,0.007,139.4,170120,5.8,W,D*33
#HEADINGA,COM2,0,46.0,FINE,2088,438230.800,119336,30,18;SOL_COMPUTED,NARROW_INT,0.8706,125.2184,-4.9139,0.0000,0.2767,0.5658,"999",41,38,38,14,3,01,3,73*4823de9b
$GNGGA,014332.90,3039.25645172,N,12047.31056201,E,2,27,0.6,5.0003,M,9.8167,M,11,0*74
$GNRMC,014332.90,A,3039.25645172,N,12047.31056201,E,0.004,193.9,170120,5.8,W,D*33
#HEADINGA,COM2,0,46.0,FINE,2088,438230.900,119436,30,18;SOL_COMPUTED,NARROW_INT,0.8731,125.2860,-5.4724,0.0000,0.2769,0.5624,"999",41,38,38,14,3,01,3,73*e8976b27
#REFSTATIONA,COM2,0,48.0,FINE,2088,438219.000,117738,1803,18;00000000,-2811023.329,4717645.324,3233007.504,0,RTCMV3,"0000"*45b8984c
$GNGGA,014333.00,3039.25645210,N,12047.31056205,E,2,27,0.6,4.9983,M,9.8167,M,12,0*75
$GNRMC,014333.00,A,3039.25645210,N,12047.31056205,E,0.006,268.3,170120,5.8,W,D*37
#HEADINGA,COM2,0,46.0,FINE,2088,438231.000,119536,36,18;SOL_COMPUTED,NARROW_INT,0.8732,125.2471,-5.1995,0.0000,0.2767,0.5635,"999",41,38,38,14,3,01,3,73*54bd9884
$GNGGA,014333.10,3039.25645208,N,12047.31056205,E,2,27,0.6,4.9974,M,9.8167,M,12,0*75
$GNRMC,014333.10,A,3039.25645208,N,12047.31056205,E,0.010,213.8,170120,5.8,W,D*3F
#HEADINGA,COM2,0,46.0,FINE,2088,438231.100,119636,31,18;SOL_COMPUTED,NARROW_INT,0.8698,125.4053,-5.0677,0.0000,0.2785,0.5676,"999",41,38,38,14,3,01,3,73*f81a8764
$GNGGA,014333.20,3039.25645204,N,12047.31056211,E,2,27,0.6,4.9951,M,9.8167,M,12,0*78
$GNRMC,014333.20,A,3039.25645204,N,12047.31056211,E,0.014,208.5,170120,5.8,W,D*36
#HEADINGA,COM2,0,46.0,FINE,2088,438231.200,119739,32,18;SOL_COMPUTED,NARROW_INT,0.8722,125.3238,-4.6515,0.0000,0.2774,0.5665,"999",41,38,38,14,3,01,3,73*19d392f9
$GNGGA,014333.30,3039.25645220,N,12047.31056230,E,2,27,0.6,4.9922,M,9.8167,M,12,0*78
$GNRMC,014333.30,A,3039.25645220,N,12047.31056230,E,0.006,203.9,170120,5.8,W,D*36
#HEADINGA,COM2,0,46.0,FINE,2088,438231.300,119836,31,18;SOL_COMPUTED,NARROW_INT,0.8714,125.2697,-4.9216,0.0000,0.2775,0.5673,"999",41,38,38,14,3,01,3,73*b897196f
$GNGGA,014333.40,3039.25645245,N,12047.31056238,E,2,27,0.6,4.9900,M,9.8167,M,12,0*74
$GNRMC,014333.40,A,3039.25645245,N,12047.31056238,E,0.004,253.2,170120,5.8,W,D*36
#HEADINGA,COM2,0,46.0,FINE,2088,438231.400,119936,31,18;SOL_COMPUTED,NARROW_INT,0.8723,125.2794,-4.9269,0.0000,0.2773,0.5662,"999",41,38,38,14,3,01,3,73*8eca7c86
$GNGGA,014333.50,3039.25645264,N,12047.31056278,E,2,27,0.6,4.9888,M,9.8167,M,12,0*73
$GNRMC,014333.50,A,3039.25645264,N,12047.31056278,E,0.008,97.3,170120,5.8,W,D*07
#HEADINGA,COM2,0,46.0,FINE,2088,438231.500,120036,30,18;SOL_COMPUTED,NARROW_INT,0.8713,125.2075,-5.0714,0.0000,0.2772,0.5656,"999",41,38,38,14,3,01,3,73*4413ca8a
$GNGGA,014333.60,3039.25645301,N,12047.31056328,E,2,27,0.6,4.9861,M,9.8167,M,12,0*71
$GNRMC,014333.60,A,3039.25645301,N,12047.31056328,E,0.007,100.3,170120,5.8,W,D*32
#HEADINGA,COM2,0,46.0,FINE,2088,438231.600,120136,29,18;SOL_COMPUTED,NARROW_INT,0.8710,125.4775,-4.9362,0.0000,0.2780,0.5667,"999",41,38,38,14,3,01,3,73*c9c7b7bd
$GNGGA,014333.70,3039.25645369,N,12047.31056373,E,2,27,0.6,4.9829,M,9.8167,M,12,0*7C
$GNRMC,014333.70,A,3039.25645369,N,12047.31056373,E,0.009,35.6,170120,5.8,W,D*0F
#HEADINGA,COM2,0,46.0,FINE,2088,438231.700,120236,30,18;SOL_COMPUTED,NARROW_INT,0.8726,125.3347,-4.9958,0.0000,0.2774,0.5662,"999",41,38,38,14,3,01,3,73*37e95564
$GNGGA,014333.80,3039.25645414,N,12047.31056386,E,2,27,0.6,4.9812,M,9.8167,M,12,0*7C
$GNRMC,014333.80,A,3039.25645414,N,12047.31056386,E,0.004,324.2,170120,5.8,W,D*3D
#HEADINGA,COM2,0,46.0,FINE,2088,438231.800,120336,29,18;SOL_COMPUTED,NARROW_INT,0.8717,125.2077,-5.0224,0.0000,0.2774,0.5666,"999",41,38,38,14,3,01,3,73*202472cf
$GNGGA,014333.90,3039.25645456,N,12047.31056419,E,2,27,0.6,4.9800,M,9.8167,M,12,0*79
$GNRMC,014333.90,A,3039.25645456,N,12047.31056419,E,0.005,73.3,170120,5.8,W,D*0A
#HEADINGA,COM2,0,46.0,FINE,2088,438231.900,120436,29,18;SOL_COMPUTED,NARROW_INT,0.8721,125.3386,-5.4336,0.0000,0.2777,0.5648,"999",41,38,38,14,3,01,3,73*d15928b7
#REFSTATIONA,COM2,0,46.0,FINE,2088,438219.000,119739,802,18;00000000,-2811023.329,4717645.324,3233007.504,0,RTCMV3,"0000"*21adbc62
$GNGGA,014334.00,3039.25645494,N,12047.31056467,E,2,27,0.6,4.9785,M,9.8167,M,13,0*73
$GNRMC,014334.00,A,3039.25645494,N,12047.31056467,E,0.005,136.0,170120,5.8,W,D*30
#HEADINGA,COM2,0,46.0,FINE,2088,438232.000,120536,37,18;SOL_COMPUTED,NARROW_INT,0.8718,125.3978,-4.5986,0.0000,0.2775,0.5664,"999",41,38,38,14,3,01,3,73*d47d473c
$GNGGA,014334.10,3039.25645504,N,12047.31056494,E,2,27,0.6,4.9768,M,9.8167,M,13,0*75
$GNRMC,014334.10,A,3039.25645504,N,12047.31056494,E,0.012,192.2,170120,5.8,W,D*3F
#HEADINGA,COM2,0,46.0,FINE,2088,438232.100,120637,31,18;SOL_COMPUTED,NARROW_INT,0.8728,125.2069,-5.1549,0.0000,0.2771,0.5652,"999",41,38,38,14,3,01,3,73*762ca930
$GNGGA,014334.20,3039.25645486,N,12047.31056475,E,2,27,0.6,4.9758,M,9.8167,M,13,0*71
$GNRMC,014334.20,A,3039.25645486,N,12047.31056475,E,0.027,217.8,170120,5.8,W,D*3A
#HEADINGA,COM2,0,46.0,FINE,2088,438232.200,120739,34,18;SOL_COMPUTED,NARROW_INT,0.8719,125.2586,-5.0371,0.0000,0.2776,0.5663,"999",41,38,38,14,3,01,3,73*753196cf
$GNGGA,014334.30,3039.25645521,N,12047.31056476,E,2,27,0.6,4.9732,M,9.8167,M,12,0*72
$GNRMC,014334.30,A,3039.25645521,N,12047.31056476,E,0.020,255.5,170120,5.8,W,D*38
#HEADINGA,COM2,0,46.0,FINE,2088,438232.300,120837,37,18;SOL_COMPUTED,NARROW_INT,0.8722,125.2193,-4.9725,0.0000,0.2768,0.5660,"999",41,38,38,14,3,01,3,73*b7c6213f
$GNGGA,014334.40,3039.25645569,N,12047.31056490,E,2,27,0.6,4.9712,M,9.8167,M,12,0*73
$GNRMC,014334.40,A,3039.25645569,N,12047.31056490,E,0.014,276.4,170120,5.8,W,D*3C
#HEADINGA,COM2,0,46.0,FINE,2088,438232.400,120936,30,18;SOL_COMPUTED,NARROW_INT,0.8740,125.3492,-4.6841,0.0000,0.2759,0.5645,"999",41,38,38,14,3,01,3,73*b654e438
$GNGGA,014334.50,3039.25645600,N,12047.31056540,E,2,27,0.6,4.9686,M,9.8167,M,12,0*7E
$GNRMC,014334.50,A,3039.25645600,N,12047.31056540,E,0.006,214.0,170120,5.8,W,D*3E
#HEADINGA,COM2,0,46.0,FINE,2088,438232.500,121036,30,18;SOL_COMPUTED,NARROW_INT,0.8707,125.4158,-5.1449,0.0000,0.2774,0.5660,"999",41,38,38,14,3,01,3,73*3b6db417
$GNGGA,014334.60,3039.25645591,N,12047.31056629,E,2,27,0.6,4.9655,M,9.8167,M,12,0*74
$GNRMC,014334.60,A,3039.25645591,N,12047.31056629,E,0.021,159.2,170120,5.8,W,D*37
#HEADINGA,COM2,0,46.0,FINE,2088,438232.600,121136,30,18;SOL_COMPUTED,NARROW_INT,0.8697,125.4277,-4.8331,0.0000,0.2775,0.5675,"999",41,38,38,14,3,01,3,73*81639e16
$GNGGA,014334.70,3039.25645571,N,12047.31056662,E,2,27,0.6,4.9632,M,9.8167,M,12,0*75
$GNRMC,014334.70,A,3039.25645571,N,12047.31056662,E,0.027,199.5,170120,5.8,W,D*3A
#HEADINGA,COM2,0,46.0,FINE,2088,438232.700,121236,29,18;SOL_COMPUTED,NARROW_INT,0.8728,125.2334,-5.1295,0.0000,0.2763,0.5646,"999",41,38,38,14,3,01,3,73*c740e5a2
$GNGGA,014334.80,3039.25645571,N,12047.31056679,E,2,27,0.6,4.9606,M,9.8167,M,12,0*77
$GNRMC,014334.80,A,3039.25645571,N,12047.31056679,E,0.023,219.8,170120,5.8,W,D*3D
#HEADINGA,COM2,0,46.0,FINE,2088,438232.800,121336,30,18;SOL_COMPUTED,NARROW_INT,0.8728,125.1853,-5.3412,0.0000,0.2764,0.5645,"999",41,38,38,14,3,01,3,73*2265c71c
$GNGGA,014334.90,3039.25645612,N,12047.31056736,E,2,27,0.6,4.9594,M,9.8167,M,12,0*72
$GNRMC,014334.90,A,3039.25645612,N,12047.31056736,E,0.002,148.4,170120,5.8,W,D*38
#HEADINGA,COM2,0,49.0,FINE,2088,438232.900,121436,29,18;SOL_COMPUTED,NARROW_INT,0.8748,125.3072,-5.4030,0.0000,0.2762,0.5634,"999",41,38,38,14,3,01,3,73*e57ea36c
#REFSTATIONA,COM2,0,46.0,FINE,2088,438220.000,120739,801,18;00000000,-2811023.329,4717645.324,3233007.504,0,RTCMV3,"0000"*18a23a72
$GNGGA,014335.00,3039.25645699,N,12047.31056789,E,2,27,0.6,4.9572,M,9.8167,M,13,0*74
$GNRMC,014335.00,A,3039.25645699,N,12047.31056789,E,0.014,348.9,170120,5.8,W,D*3F
#HEADINGA,COM2,0,49.0,FINE,2088,438233.000,121536,37,18;SOL_COMPUTED,NARROW_INT,0.8711,125.2435,-4.5316,0.0000,0.2765,0.5661,"999",41,38,38,14,3,01,3,73*5c85186b
$GNGGA,014335.10,3039.25645759,N,12047.31056838,E,2,27,0.6,4.9551,M,9.8167,M,13,0*7C
$GNRMC,014335.10,A,3039.25645759,N,12047.31056838,E,0.007,325.8,170120,5.8,W,D*3E
#HEADINGA,COM2,0,49.0,FINE,2088,438233.100,121637,31,18;SOL_COMPUTED,NARROW_INT,0.8730,125.4037,-5.1184,0.0000,0.2764,0.5638,"999",41,38,38,14,3,01,3,73*c581dea4
$GNGGA,014335.20,3039.25645787,N,12047.31056907,E,2,27,0.6,4.9522,M,9.8167,M,13,0*75
$GNRMC,014335.20,A,3039.25645787,N,12047.31056907,E,0.006,165.9,170120,5.8,W,D*35
#HEADINGA,COM2,0,49.0,FINE,2088,438233.200,121739,32,18;SOL_COMPUTED,NARROW_INT,0.8750,125.2378,-5.3549,0.0000,0.2758,0.5623,"999",41,38,38,14,3,01,3,73*d04c31a0
$GNGGA,014335.30,3039.25645802,N,12047.31056991,E,2,27,0.6,4.9486,M,9.8167,M,13,0*76
$GNRMC,014335.30,A,3039.25645802,N,12047.31056991,E,0.013,148.9,170120,5.8,W,D*32
#HEADINGA,COM2,0,49.0,FINE,2088,438233.300,121836,31,18;SOL_COMPUTED,NARROW_INT,0.8744,125.3783,-4.8863,0.0000,0.2761,0.5637,"999",41,38,38,14,3,01,3,73*69b016c1
$GNGGA,014335.40,3039.25645824,N,12047.31057024,E,2,27,0.6,4.9472,M,9.8167,M,13,0*78
$GNRMC,014335.40,A,3039.25645824,N,12047.31057024,E,0.008,215.8,170120,5.8,W,D*37
#HEADINGA,COM2,0,49.0,FINE,2088,438233.400,121936,30,18;SOL_COMPUTED,NARROW_INT,0.8728,125.3558,-4.9424,0.0000,0.2765,0.5646,"999",41,38,38,14,3,01,3,73*af76b399
$GNGGA,014335.50,3039.25645846,N,12047.31057056,E,2,27,0.6,4.9450,M,9.8167,M,13,0*78
$GNRMC,014335.50,A,3039.25645846,N,12047.31057056,E,0.008,238.2,170120,5.8,W,D*32
#HEADINGA,COM2,0,49.0,FINE,2088,438233.500,122036,30,18;SOL_COMPUTED,NARROW_INT,0.8740,125.4222,-5.0550,0.0000,0.2763,0.5862,"999",41,38,38,15,3,01,3,73*19e30f45
$GNGGA,014335.60,3039.25645854,N,12047.31057097,E,2,27,0.6,4.9430,M,9.8167,M,13,0*73
$GNRMC,014335.60,A,3039.25645854,N,12047.31057097,E,0.008,201.7,170120,5.8,W,D*30
#HEADINGA,COM2,0,49.0,FINE,2088,438233.600,122136,29,18;SOL_COMPUTED,NARROW_INT,0.8734,125.2408,-5.2930,0.0000,0.2763,0.5861,"999",41,38,38,15,3,01,3,73*30a7b7d9
$GNGGA,014335.70,3039.25645880,N,12047.31057152,E,2,27,0.6,4.9403,M,9.8167,M,13,0*73
$GNRMC,014335.70,A,3039.25645880,N,12047.31057152,E,0.004,219.8,170120,5.8,W,D*3A
#HEADINGA,COM2,0,49.0,FINE,2088,438233.700,122236,30,18;SOL_COMPUTED,NARROW_INT,0.8736,125.3421,-5.2635,0.0000,0.2762,0.5860,"999",41,38,38,15,3,01,3,73*ac3a3202
$GNGGA,014335.80,3039.25645902,N,12047.31057208,E,2,27,0.6,4.9380,M,9.8167,M,13,0*77
$GNRMC,014335.80,A,3039.25645902,N,12047.31057208,E,0.003,200.4,170120,5.8,W,D*31
#HEADINGA,COM2,0,49.0,FINE,2088,438233.800,122336,30,18;SOL_COMPUTED,NARROW_INT,0.8709,125.3143,-4.8406,0.0000,0.2770,0.5888,"999",41,38,38,15,3,01,3,73*4fd6ccba
$GNGGA,014335.90,3039.25645907,N,12047.31057257,E,2,27,0.6,4.9354,M,9.8167,M,13,0*70
$GNRMC,014335.90,A,3039.25645907,N,12047.31057257,E,0.010,198.9,170120,5.8,W,D*32
#HEADINGA,COM2,0,49.0,FINE,2088,438233.900,122436,29,18;SOL_COMPUTED,NARROW_INT,0.8736,125.3387,-5.0086,0.0000,0.2763,0.5878,"999",41,38,38,15,3,01,3,73*42f37baa
#REFSTATIONA,COM2,0,49.0,FINE,2088,438220.000,121739,801,18;00000000,-2811023.329,4717645.324,3233007.504,0,RTCMV3,"0000"*66dc0984
$GNGGA,014336.00,3039.25645936,N,12047.31057302,E,2,27,0.6,4.9329,M,9.8167,M,14,0*74
$GNRMC,014336.00,A,3039.25645936,N,12047.31057302,E,0.007,238.8,170120,5.8,W,D*35
#HEADINGA,COM2,0,49.0,FINE,2088,438234.000,122536,37,18;SOL_COMPUTED,NARROW_INT,0.8737,125.4164,-5.1099,0.0000,0.2762,0.5867,"999",41,38,38,15,3,01,3,73*d822953a
$GNGGA,014336.10,3039.25645953,N,12047.31057319,E,2,27,0.6,4.9307,M,9.8167,M,14,0*70
$GNRMC,014336.10,A,3039.25645953,N,12047.31057319,E,0.018,237.0,170120,5.8,W,D*34
#HEADINGA,COM2,0,49.0,FINE,2088,438234.100,122637,30,18;SOL_COMPUTED,NARROW_INT,0.8744,125.1901,-5.3012,0.0000,0.2758,0.5850,"999",41,38,38,14,3,01,3,73*fd430217
$GNGGA,014336.20,3039.25645968,N,12047.31057322,E,2,27,0.6,4.9290,M,9.8167,M,14,0*7C
$GNRMC,014336.20,A,3039.25645968,N,12047.31057322,E,0.018,244.9,170120,5.8,W,D*3A
#HEADINGA,COM2,0,49.0,FINE,2088,438234.200,122739,31,18;SOL_COMPUTED,NARROW_INT,0.8735,125.1579,-5.0551,0.0000,0.2759,0.5867,"999",41,38,38,14,3,01,3,73*de951f79
$GNGGA,014336.30,3039.25645992,N,12047.31057359,E,2,27,0.6,4.9271,M,9.8167,M,14,0*7B
$GNRMC,014336.30,A,3039.25645992,N,12047.31057359,E,0.008,212.1,170120,5.8,W,D*38
#HEADINGA,COM2,0,49.0,FINE,2088,438234.300,122836,30,18;SOL_COMPUTED,NARROW_INT,0.8743,125.1351,-5.4613,0.0000,0.2756,0.5820,"999",41,38,38,15,3,01,3,73*652215d6
$GNGGA,014336.40,3039.25646027,N,12047.31057398,E,2,27,0.6,4.9249,M,9.8167,M,14,0*7E
$GNRMC,014336.40,A,3039.25646027,N,12047.31057398,E,0.008,228.0,170120,5.8,W,D*3E
#HEADINGA,COM2,0,49.0,FINE,2088,438234.400,122936,30,18;SOL_COMPUTED,NARROW_INT,0.8747,125.2864,-5.1917,0.0000,0.2756,0.5824,"999",41,38,38,15,3,01,3,73*51229c00
$GNGGA,014336.50,3039.25646063,N,12047.31057460,E,2,27,0.6,4.9207,M,9.8167,M,13,0*72
$GNRMC,014336.50,A,3039.25646063,N,12047.31057460,E,0.009,229.7,170120,5.8,W,D*38
#HEADINGA,COM2,0,49.0,FINE,2088,438234.500,123036,32,18;SOL_COMPUTED,NARROW_INT,0.8739,125.2443,-5.2631,0.0000,0.2758,0.5828,"999",41,38,38,15,3,01,3,73*70a9b316
$GNGGA,014336.60,3039.25646088,N,12047.31057537,E,2,27,0.6,4.9176,M,9.8167,M,13,0*72
$GNRMC,014336.60,A,3039.25646088,N,12047.31057537,E,0.008,168.6,170120,5.8,W,D*3B
#HEADINGA,COM2,0,49.0,FINE,2088,438234.600,123136,30,18;SOL_COMPUTED,NARROW_INT,0.8735,125.1807,-5.4234,0.0000,0.2756,0.5825,"999",41,38,38,15,3,01,3,73*20637dbe
$GNGGA,014336.70,3039.25646106,N,12047.31057625,E,2,27,0.6,4.9144,M,9.8167,M,13,0*75
$GNRMC,014336.70,A,3039.25646106,N,12047.31057625,E,0.012,158.1,170120,5.8,W,D*32
#HEADINGA,COM2,0,49.0,FINE,2088,438234.700,123235,30,18;SOL_COMPUTED,NARROW_INT,0.8707,125.4378,-4.8434,0.0000,0.2767,0.5861,"999",41,38,38,15,3,01,3,73*1c307a4c
$GNGGA,014336.80,3039.25646126,N,12047.31057706,E,2,27,0.6,4.9116,M,9.8167,M,13,0*7F
$GNRMC,014336.80,A,3039.25646126,N,12047.31057706,E,0.009,143.6,170120,5.8,W,D*38
#HEADINGA,COM2,0,49.0,FINE,2088,438234.800,123336,30,18;SOL_COMPUTED,NARROW_INT,0.8736,125.2725,-5.3141,0.0000,0.2760,0.5840,"999",41,38,38,15,3,01,3,73*d16a1c98
$GNGGA,014336.90,3039.25646157,N,12047.31057777,E,2,27,0.6,4.9086,M,9.8167,M,13,0*76
$GNRMC,014336.90,A,3039.25646157,N,12047.31057777,E,0.004,159.0,170120,5.8,W,D*39
#HEADINGA,COM2,0,49.0,FINE,2088,438234.900,123436,29,18;SOL_COMPUTED,NARROW_INT,0.8735,125.2671,-5.2187,0.0000,0.2762,0.5843,"999",41,38,38,15,3,01,3,73*e640e23b
#REFSTATIONA,COM2,0,49.0,FINE,2088,438221.000,122936,605,18;00000000,-2811023.329,4717645.324,3233007.504,0,RTCMV3,"0000"*ff280dd0
$GNGGA,014337.00,3039.25646171,N,12047.31057802,E,2,27,0.6,4.9061,M,9.8167,M,14,0*79
$GNRMC,014337.00,A,3039.25646171,N,12047.31057802,E,0.014,233.1,170120,5.8,W,D*37
#HEADINGA,COM2,0,49.0,FINE,2088,438235.000,123536,36,18;SOL_COMPUTED,NARROW_INT,0.8733,125.1493,-4.9425,0.0000,0.2761,0.5850,"999",41,38,38,15,3,01,3,73*327ef3de
$GNGGA,014337.10,3039.25646211,N,12047.31057810,E,2,27,0.6,4.9041,M,9.8167,M,14,0*7C
$GNRMC,014337.10,A,3039.25646211,N,12047.31057810,E,0.014,261.6,170120,5.8,W,D*30
#HEADINGA,COM2,0,49.0,FINE,2088,438235.100,123637,30,18;SOL_COMPUTED,NARROW_INT,0.8771,125.3379,-5.2143,0.0000,0.2751,0.5823,"999",41,38,38,15,3,01,3,73*daf3aeef
$GNGGA,014337.20,3039.25646272,N,12047.31057802,E,2,27,0.6,4.9018,M,9.8167,M,14,0*75
$GNRMC,014337.20,A,3039.25646272,N,12047.31057802,E,0.020,289.8,170120,5.8,W,D*3A
#HEADINGA,COM2,0,49.0,FINE,2088,438235.200,123739,31,18;SOL_COMPUTED,NARROW_INT,0.8750,125.3129,-5.2269,0.0000,0.2758,0.5838,"999",41,38,38,15,3,01,3,73*7b1498b8
$GNGGA,014337.30,3039.25646316,N,12047.31057809,E,2,27,0.6,4.8986,M,9.8167,M,14,0*73
$GNRMC,014337.30,A,3039.25646316,N,12047.31057809,E,0.016,273.1,170120,5.8,W,D*3A
#HEADINGA,COM2,0,49.0,FINE,2088,438235.300,123836,30,18;SOL_COMPUTED,NARROW_INT,0.8747,125.2064,-5.1588,0.0000,0.2756,0.5841,"999",41,38,38,15,3,01,3,73*b5bf7707
$GNGGA,014337.40,3039.25646322,N,12047.31057837,E,2,27,0.6,4.8954,M,9.8167,M,14,0*71
$GNRMC,014337.40,A,3039.25646322,N,12047.31057837,E,0.014,214.2,170120,5.8,W,D*37
#HEADINGA,COM2,0,49.0,FINE,2088,438235.400,123936,31,18;SOL_COMPUTED,NARROW_INT,0.8767,125.1628,-5.2526,0.0000,0.2750,0.5825,"999",41,38,38,15,3,01,3,73*bc7519cf
$GNGGA,014337.50,3039.25646340,N,12047.31057877,E,2,27,0.6,4.8919,M,9.8167,M,14,0*79
$GNRMC,014337.50,A,3039.25646340,N,12047.31057877,E,0.010,206.4,170120,5.8,W,D*37
#HEADINGA,COM2,0,49.0,FINE,2088,438235.500,124036,30,18;SOL_COMPUTED,NARROW_INT,0.8742,125.4227,-4.7665,0.0000,0.2762,0.5833,"999",41,38,38,16,3,01,3,73*99936d2b
$GNGGA,014337.60,3039.25646349,N,12047.31057960,E,2,27,0.6,4.8894,M,9.8167,M,14,0*70
$GNRMC,014337.60,A,3039.25646349,N,12047.31057960,E,0.015,135.6,170120,5.8,W,D*3E
#HEADINGA,COM2,0,49.0,FINE,2088,438235.600,124136,30,18;SOL_COMPUTED,NARROW_INT,0.8745,125.1538,-5.3596,0.0000,0.2765,0.5834,"999",41,38,38,16,3,01,3,73*74b24405
$GNGGA,014337.70,3039.25646381,N,12047.31057979,E,2,27,0.6,4.8873,M,9.8167,M,14,0*74
$GNRMC,014337.70,A,3039.25646381,N,12047.31057979,E,0.011,249.1,170120,5.8,W,D*38
#HEADINGA,COM2,0,49.0,FINE,2088,438235.700,124236,29,18;SOL_COMPUTED,NARROW_INT,0.8739,125.2580,-5.0606,0.0000,0.2769,0.5847,"999",41,38,38,16,3,01,3,73*792b36cb
$GNGGA,014337.80,3039.25646421,N,12047.31058012,E,2,27,0.6,4.8843,M,9.8167,M,14,0*7E
$GNRMC,014337.80,A,3039.25646421,N,12047.31058012,E,0.006,266.4,170120,5.8,W,D*3F
#HEADINGA,COM2,0,49.0,FINE,2088,438235.800,124336,29,18;SOL_COMPUTED,NARROW_INT,0.8733,125.2792,-5.5153,0.0000,0.2766,0.5821,"999",41,38,38,16,3,01,3,73*cd52d976
$GNGGA,014337.90,3039.25646482,N,12047.31058044,E,2,27,0.6,4.8813,M,9.8167,M,14,0*70
$GNRMC,014337.90,A,3039.25646482,N,12047.31058044,E,0.009,319.2,170120,5.8,W,D*34
#HEADINGA,COM2,0,49.0,FINE,2088,438235.900,124436,29,18;SOL_COMPUTED,NARROW_INT,0.8744,125.2075,-5.3008,0.0000,0.2760,0.5816,"999",41,38,38,16,3,01,3,73*538b4afb
#REFSTATIONA,COM2,0,49.0,FINE,2088,438221.000,122936,1604,18;00000000,-2811023.329,4717645.324,3233007.504,0,RTCMV3,"0000"*4bb66769
$GNGGA,014338.00,3039.25646538,N,12047.31058101,E,2,27,0.6,4.8785,M,9.8167,M,15,0*77
$GNRMC,014338.00,A,3039.25646538,N,12047.31058101,E,0.007,24.4,170120,5.8,W,D*07
#HEADINGA,COM2,0,49.0,FINE,2088,438236.000,124536,37,18;SOL_COMPUTED,NARROW_INT,0.8729,125.3139,-5.0338,0.0000,0.2765,0.5831,"999",41,38,38,16,3,01,3,73*11650cda
$GNGGA,014338.10,3039.25646604,N,12047.31058135,E,2,27,0.6,4.8759,M,9.8167,M,15,0*7C
$GNRMC,014338.10,A,3039.25646604,N,12047.31058135,E,0.007,316.7,170120,5.8,W,D*3C
#HEADINGA,COM2,0,49.0,FINE,2088,438236.100,124637,31,18;SOL_COMPUTED,NARROW_INT,0.8752,125.2720,-5.5803,0.0000,0.2759,0.5805,"999",41,38,38,16,3,01,3,73*343ed42d
$GNGGA,014338.20,3039.25646635,N,12047.31058194,E,2,27,0.6,4.8724,M,9.8167,M,15,0*7C
$GNRMC,014338.20,A,3039.25646635,N,12047.31058194,E,0.006,158.6,170120,5.8,W,D*3E
#HEADINGA,COM2,0,49.0,FINE,2088,438236.200,124740,31,18;SOL_COMPUTED,NARROW_INT,0.8760,125.2400,-5.5847,0.0000,0.2756,0.5810,"999",41,38,38,16,3,01,3,73*e9d3db59
$GNGGA,014338.30,3039.25646632,N,12047.31058240,E,2,27,0.6,4.8695,M,9.8167,M,15,0*7B
$GNRMC,014338.30,A,3039.25646632,N,12047.31058240,E,0.013,180.4,170120,5.8,W,D*31
#HEADINGA,COM2,0,49.0,FINE,2088,438236.300,124836,31,18;SOL_COMPUTED,NARROW_INT,0.8724,125.2049,-5.2455,0.0000,0.2766,0.5845,"999",41,38,38,16,3,01,3,73*a3413819
$GNGGA,014338.40,3039.25646672,N,12047.31058241,E,2,27,0.6,4.8668,M,9.8167,M,15,0*7B
$GNRMC,014338.40,A,3039.25646672,N,12047.31058241,E,0.013,271.9,170120,5.8,W,D*33
#HEADINGA,COM2,0,49.0,FINE,2088,438236.400,124937,30,18;SOL_COMPUTED,NARROW_INT,0.8754,125.2254,-5.5893,0.0000,0.2762,0.5818,"999",41,38,38,16,3,01,3,73*3d3b2047
$GNGGA,014338.50,3039.25646718,N,12047.31058279,E,2,27,0.6,4.8651,M,9.8167,M,15,0*76
$GNRMC,014338.50,A,3039.25646718,N,12047.31058279,E,0.005,0.3,170120,5.8,W,D*3D
#HEADINGA,COM2,0,49.0,FINE,2088,438236.500,125036,30,18;SOL_COMPUTED,NARROW_INT,0.8742,125.2835,-5.4574,0.0000,0.2766,0.5808,"999",41,38,38,16,3,01,3,73*bd44c943
$GNGGA,014338.60,3039.25646757,N,12047.31058315,E,2,27,0.6,4.8626,M,9.8167,M,15,0*75
$GNRMC,014338.60,A,3039.25646757,N,12047.31058315,E,0.006,310.7,170120,5.8,W,D*3B
#HEADINGA,COM2,0,49.0,FINE,2088,438236.600,125136,29,18;SOL_COMPUTED,NARROW_INT,0.8733,125.1304,-5.1676,0.0000,0.2765,0.5828,"999",41,38,38,16,3,01,3,73*0c630833
$GNGGA,014338.70,3039.25646772,N,12047.31058340,E,2,27,0.6,4.8603,M,9.8167,M,15,0*74
$GNRMC,014338.70,A,3039.25646772,N,12047.31058340,E,0.012,218.1,170120,5.8,W,D*37
#HEADINGA,COM2,0,49.0,FINE,2088,438236.700,125235,30,18;SOL_COMPUTED,NARROW_INT,0.8719,125.2024,-5.5210,0.0000,0.2772,0.5822,"999",41,38,38,16,3,01,3,73*568cd3d5
$GNGGA,014338.80,3039.25646779,N,12047.31058359,E,2,27,0.6,4.8571,M,9.8167,M,15,0*7E
$GNRMC,014338.80,A,3039.25646779,N,12047.31058359,E,0.017,215.5,170120,5.8,W,D*37
#HEADINGA,COM2,0,49.0,FINE,2088,438236.800,125336,29,18;SOL_COMPUTED,NARROW_INT,0.8736,125.2332,-5.2282,0.0000,0.2767,0.5818,"999",41,38,38,16,3,01,3,73*1a61d5c9
$GNGGA,014338.90,3039.25646792,N,12047.31058385,E,2,27,0.6,4.8528,M,9.8167,M,15,0*77
$GNRMC,014338.90,A,3039.25646792,N,12047.31058385,E,0.012,222.9,170120,5.8,W,D*3F
#HEADINGA,COM2,0,49.0,FINE,2088,438236.900,125436,29,18;SOL_COMPUTED,NARROW_INT,0.8731,125.2305,-5.2654,0.0000,0.2768,0.5826,"999",41,38,38,16,3,01,3,73*92f2e55c
#REFSTATIONA,COM2,0,49.0,FINE,2088,438221.000,124637,902,18;00000000,-2811023.329,4717645.324,3233007.504,0,RTCMV3,"0000"*2e898874
$GNGGA,014339.00,3039.25646800,N,12047.31058376,E,2,27,0.6,4.8509,M,9.8167,M,16,0*77
$GNRMC,014339.00,A,3039.25646800,N,12047.31058376,E,0.018,232.6,170120,5.8,W,D*3B
#HEADINGA,COM2,0,49.0,FINE,2088,438237.000,125535,36,18;SOL_COMPUTED,NARROW_INT,0.8720,125.3417,-4.9601,0.0000,0.2770,0.5836,"999",41,38,38,16,3,01,3,73*45cd2c1c
$GNGGA,014339.10,3039.25646825,N,12047.31058357,E,2,27,0.6,4.8485,M,9.8167,M,16,0*77
$GNRMC,014339.10,A,3039.25646825,N,12047.31058357,E,0.019,263.9,170120,5.8,W,D*34
#HEADINGA,COM2,0,49.0,FINE,2088,438237.100,125636,31,18;SOL_COMPUTED,NARROW_INT,0.8737,125.3515,-5.1084,0.0000,0.2768,0.5829,"999",41,38,38,16,3,01,3,73*0401d591
$GNGGA,014339.20,3039.25646841,N,12047.31058342,E,2,27,0.6,4.8460,M,9.8167,M,16,0*79
$GNRMC,014339.20,A,3039.25646841,N,12047.31058342,E,0.019,255.2,170120,5.8,W,D*3F
#HEADINGA,COM2,0,49.0,FINE,2088,438237.200,125739,31,18;SOL_COMPUTED,NARROW_INT,0.8734,125.2836,-5.1157,0.0000,0.2768,0.5833,"999",41,38,38,16,3,01,3,73*6533f373
$GNGGA,014339.30,3039.25646864,N,12047.31058365,E,2,27,0.6,4.8437,M,9.8167,M,15,0*7B
$GNRMC,014339.30,A,3039.25646864,N,12047.31058365,E,0.012,261.0,170120,5.8,W,D*32
#HEADINGA,COM2,0,49.0,FINE,2088,438237.300,125836,33,18;SOL_COMPUTED,NARROW_INT,0.8746,125.4032,-4.9938,0.0000,0.2767,0.5815,"999",41,38,38,16,3,01,3,73*54074ebd
$GNGGA,014339.40,3039.25646872,N,12047.31058401,E,2,27,0.6,4.8418,M,9.8167,M,15,0*73
$GNRMC,014339.40,A,3039.25646872,N,12047.31058401,E,0.009,230.3,170120,5.8,W,D*3A
#HEADINGA,COM2,0,49.0,FINE,2088,438237.400,125936,30,18;SOL_COMPUTED,NARROW_INT,0.8739,125.2263,-4.7672,0.0000,0.2766,0.5823,"999",41,38,38,16,3,01,3,73*0cd46799
$GNGGA,014339.50,3039.25646882,N,12047.31058452,E,2,27,0.6,4.8386,M,9.8167,M,15,0*7B
$GNRMC,014339.50,A,3039.25646882,N,12047.31058452,E,0.009,212.6,170120,5.8,W,D*37
#HEADINGA,COM2,0,49.0,FINE,2088,438237.500,126036,29,18;SOL_COMPUTED,NARROW_INT,0.8726,125.2188,-5.2492,0.0000,0.2776,0.5822,"999",41,38,38,16,3,01,3,73*2c7c7aff
$GNGGA,014339.60,3039.25646887,N,12047.31058517,E,2,27,0.6,4.8349,M,9.8167,M,15,0*7E
$GNRMC,014339.60,A,3039.25646887,N,12047.31058517,E,0.008,178.0,170120,5.8,W,D*39
#HEADINGA,COM2,0,49.0,FINE,2088,438237.600,126136,29,18;SOL_COMPUTED,NARROW_INT,0.8728,125.3450,-4.8829,0.0000,0.2776,0.5830,"999",41,38,38,16,3,01,3,73*a159e78b
$GNGGA,014339.70,3039.25646889,N,12047.31058576,E,2,27,0.6,4.8329,M,9.8167,M,15,0*70
$GNRMC,014339.70,A,3039.25646889,N,12047.31058576,E,0.007,203.6,170120,5.8,W,D*37
#HEADINGA,COM2,0,49.0,FINE,2088,438237.700,126235,30,18;SOL_COMPUTED,NARROW_INT,0.8737,125.2004,-5.2090,0.0000,0.2773,0.5814,"999",41,38,38,16,3,01,3,73*380d373d
$GNGGA,014339.80,3039.25646901,N,12047.31058642,E,2,27,0.6,4.8300,M,9.8167,M,15,0*71
$GNRMC,014339.80,A,3039.25646901,N,12047.31058642,E,0.006,146.2,170120,5.8,W,D*3A
#HEADINGA,COM2,0,49.0,FINE,2088,438237.800,126336,29,18;SOL_COMPUTED,NARROW_INT,0.8715,125.5427,-5.0175,0.0000,0.2785,0.5826,"999",41,38,38,16,3,01,3,73*06d97107
$GNGGA,014339.90,3039.25646925,N,12047.31058690,E,2,27,0.6,4.8276,M,9.8167,M,15,0*79
$GNRMC,014339.90,A,3039.25646925,N,12047.31058690,E,0.003,54.6,170120,5.8,W,D*01
#HEADINGA,COM2,0,49.0,FINE,2088,438237.900,126435,30,18;SOL_COMPUTED,NARROW_INT,0.8742,125.3617,-5.1339,0.0000,0.2773,0.5805,"999",41,38,38,16,3,01,3,73*ec127aee
#REFSTATIONA,COM2,0,49.0,FINE,2088,438222.000,125739,801,18;00000000,-2811023.329,4717645.324,3233007.504,0,RTCMV3,"0000"*d48cf3d8
$GNGGA,014340.00,3039.25646974,N,12047.31058707,E,2,27,0.6,4.8241,M,9.8167,M,16,0*72
$GNRMC,014340.00,A,3039.25646974,N,12047.31058707,E,0.014,320.4,170120,5.8,W,D*39
#HEADINGA,COM2,0,49.0,FINE,2088,438238.000,126536,37,18;SOL_COMPUTED,NARROW_INT,0.8741,125.1272,-5.4006,0.0000,0.2771,0.5799,"999",41,38,38,16,3,01,3,73*2a4ec724
$GNGGA,014340.10,3039.25647013,N,12047.31058780,E,2,27,0.6,4.8208,M,9.8167,M,16,0*78
$GNRMC,014340.10,A,3039.25647013,N,12047.31058780,E,0.008,47.5,170120,5.8,W,D*00
#HEADINGA,COM2,0,49.0,FINE,2088,438238.100,126636,31,18;SOL_COMPUTED,NARROW_INT,0.8734,125.1816,-5.5998,0.0000,0.2771,0.5789,"999",41,38,38,16,3,01,3,73*f0a4a8ce
$GNGGA,014340.20,3039.25647030,N,12047.31058870,E,2,27,0.6,4.8162,M,9.8167,M,16,0*75
$GNRMC,014340.20,A,3039.25647030,N,12047.31058870,E,0.010,109.7,170120,5.8,W,D*32
#HEADINGA,COM2,0,49.0,FINE,2088,438238.200,126739,31,18;SOL_COMPUTED,NARROW_INT,0.8742,125.1931,-5.0670,0.0000,0.2766,0.5794,"999",41,38,38,16,3,01,3,73*5baa5b2b
$GNGGA,014340.30,3039.25647043,N,12047.31058958,E,2,27,0.6,4.8124,M,9.8167,M,15,0*7A
$GNRMC,014340.30,A,3039.25647043,N,12047.31058958,E,0.007,111.9,170120,5.8,W,D*3D
#HEADINGA,COM2,0,49.0,FINE,2088,438238.300,126836,32,18;SOL_COMPUTED,NARROW_INT,0.8730,125.3317,-4.9770,0.0000,0.2770,0.5788,"999",41,38,38,16,3,01,3,73*66dc93fe
$GNGGA,014340.40,3039.25647043,N,12047.31059015,E,2,27,0.6,4.8099,M,9.8167,M,15,0*7B
$GNRMC,014340.40,A,3039.25647043,N,12047.31059015,E,0.006,199.3,170120,5.8,W,D*30
#HEADINGA,COM2,0,49.0,FINE,2088,438238.400,126936,29,18;SOL_COMPUTED,NARROW_INT,0.8727,125.3427,-4.8702,0.0000,0.2777,0.5793,"999",41,38,38,16,3,01,3,73*fe17ace1
$GNGGA,014340.50,3039.25647050,N,12047.31059047,E,2,27,0.6,4.8080,M,9.8167,M,15,0*77
$GNRMC,014340.50,A,3039.25647050,N,12047.31059047,E,0.010,244.8,170120,5.8,W,D*3B
#HEADINGA,COM2,0,49.0,FINE,2088,438238.500,127036,30,18;SOL_COMPUTED,NARROW_INT,0.8736,125.2706,-5.3012,0.0000,0.2776,0.5785,"999",41,38,38,16,3,01,3,73*840d88c7
$GNGGA,014340.60,3039.25647063,N,12047.31059078,E,2,27,0.6,4.8046,M,9.8167,M,15,0*72
$GNRMC,014340.60,A,3039.25647063,N,12047.31059078,E,0.012,249.9,170120,5.8,W,D*3A
#HEADINGA,COM2,0,49.0,FINE,2088,438238.600,127136,29,18;SOL_COMPUTED,NARROW_INT,0.8745,125.3776,-4.5619,0.0000,0.2771,0.5790,"999",41,38,38,16,3,01,3,73*dd0b91ed
$GNGGA,014340.70,3039.25647059,N,12047.31059112,E,2,27,0.6,4.8018,M,9.8167,M,15,0*7C
$GNRMC,014340.70,A,3039.25647059,N,12047.31059112,E,0.013,223.4,170120,5.8,W,D*3F
#HEADINGA,COM2,0,49.0,FINE,2088,438238.700,127235,30,18;SOL_COMPUTED,NARROW_INT,0.8744,125.2852,-4.7659,0.0000,0.2771,0.5788,"999",41,38,38,16,3,01,3,73*a0f01517
$GNGGA,014340.80,3039.25647079,N,12047.31059168,E,2,27,0.6,4.7982,M,9.8167,M,15,0*79
$GNRMC,014340.80,A,3039.25647079,N,12047.31059168,E,0.003,227.4,170120,5.8,W,D*3A
#HEADINGA,COM2,0,49.0,FINE,2088,438238.800,127336,29,18;SOL_COMPUTED,NARROW_INT,0.8751,125.4869,-4.8466,0.0000,0.2772,0.5782,"999",41,38,38,16,3,01,3,73*066b4ac7
$GNGGA,014340.90,3039.25647079,N,12047.31059249,E,2,27,0.6,4.7941,M,9.8167,M,15,0*77
$GNRMC,014340.90,A,3039.25647079,N,12047.31059249,E,0.010,149.3,170120,5.8,W,D*35
#HEADINGA,COM2,0,49.0,FINE,2088,438238.900,127435,30,18;SOL_COMPUTED,NARROW_INT,0.8747,125.3983,-5.0166,0.0000,0.2770,0.5769,"999",41,38,38,16,3,01,3,73*e6e28498
#REFSTATIONA,COM2,0,49.0,FINE,2088,438223.000,126739,801,18;00000000,-2811023.329,4717645.324,3233007.504,0,RTCMV3,"0000"*7a68d2f8
$GNGGA,014341.00,3039.25647085,N,12047.31059331,E,2,27,0.6,4.7911,M,9.8167,M,16,0*74
$GNRMC,014341.00,A,3039.25647085,N,12047.31059331,E,0.011,121.1,170120,5.8,W,D*3D
#HEADINGA,COM2,0,51.0,FINE,2088,438239.000,127536,37,18;SOL_COMPUTED,NARROW_INT,0.8729,125.4400,-5.3004,0.0000,0.2777,0.5781,"999",41,38,38,16,3,01,3,73*ab15e526
$GNGGA,014341.10,3039.25647102,N,12047.31059417,E,2,27,0.6,4.7887,M,9.8167,M,16,0*76
$GNRMC,014341.10,A,3039.25647102,N,12047.31059417,E,0.012,114.3,170120,5.8,W,D*36
#HEADINGA,COM2,0,51.0,FINE,2088,438239.100,127636,31,18;SOL_COMPUTED,NARROW_INT,0.8731,125.4250,-4.8044,0.0000,0.2768,0.5792,"999",41,38,38,16,3,01,3,73*46786c80
$GNGGA,014341.20,3039.25647152,N,12047.31059472,E,2,27,0.6,4.7854,M,9.8167,M,16,0*7D
$GNRMC,014341.20,A,3039.25647152,N,12047.31059472,E,0.005,353.7,170120,5.8,W,D*30
#HEADINGA,COM2,0,51.0,FINE,2088,438239.200,127739,32,18;SOL_COMPUTED,NARROW_INT,0.8730,125.2960,-5.1205,0.0000,0.2770,0.5783,"999",41,38,38,16,3,01,3,73*c2ba0b14
$GNGGA,014341.30,3039.25647286,N,12047.31059550,E,2,28,0.6,4.7826,M,9.8167,M,15,0*7E
$GNRMC,014341.30,A,3039.25647286,N,12047.31059550,E,0.011,282.5,170120,5.8,W,D*30
#HEADINGA,COM2,0,51.0,FINE,2088,438239.300,127836,34,18;SOL_COMPUTED,NARROW_INT,0.8751,125.2971,-5.6460,0.0000,0.2760,0.5731,"999",41,38,38,16,3,01,3,73*288a024b
$GNGGA,014341.40,3039.25647407,N,12047.31059627,E,2,28,0.6,4.7801,M,9.8167,M,15,0*70
$GNRMC,014341.40,A,3039.25647407,N,12047.31059627,E,0.008,264.8,170120,5.8,W,D*36
#HEADINGA,COM2,0,51.0,FINE,2088,438239.400,127936,30,18;SOL_COMPUTED,NARROW_INT,0.8732,125.2860,-5.2434,0.0000,0.2768,0.5764,"999",41,38,38,16,3,01,3,73*1b9baa5f
$GNGGA,014341.50,3039.25647511,N,12047.31059726,E,2,28,0.6,4.7778,M,9.8167,M,15,0*76
$GNRMC,014341.50,A,3039.25647511,N,12047.31059726,E,0.005,205.8,170120,5.8,W,D*3B
#HEADINGA,COM2,0,51.0,FINE,2088,438239.500,128035,30,18;SOL_COMPUTED,NARROW_INT,0.8743,125.3096,-5.3881,0.0000,0.2765,0.5753,"999",41,38,38,16,3,01,3,73*09404e0e
$GNGGA,014341.60,3039.25647627,N,12047.31059843,E,2,28,0.6,4.7752,M,9.8167,M,15,0*77
$GNRMC,014341.60,A,3039.25647627,N,12047.31059843,E,0.004,73.4,170120,5.8,W,D*0C
#HEADINGA,COM2,0,51.0,FINE,2088,438239.600,128136,30,18;SOL_COMPUTED,NARROW_INT,0.8739,125.2819,-5.5496,0.0000,0.2767,0.5751,"999",41,38,38,16,3,01,3,73*06fc4b8e
$GNGGA,014341.70,3039.25647751,N,12047.31059929,E,2,28,0.6,4.7733,M,9.8167,M,15,0*7C
$GNRMC,014341.70,A,3039.25647751,N,12047.31059929,E,0.007,329.8,170120,5.8,W,D*33
#HEADINGA,COM2,0,51.0,FINE,2088,438239.700,128236,29,18;SOL_COMPUTED,NARROW_INT,0.8751,125.2620,-5.2943,0.0000,0.2761,0.5750,"999",41,38,38,16,3,01,3,73*d7a21108
$GNGGA,014341.80,3039.25647834,N,12047.31060014,E,2,28,0.6,4.7721,M,9.8167,M,15,0*71
$GNRMC,014341.80,A,3039.25647834,N,12047.31060014,E,0.006,201.3,170120,5.8,W,D*3C
#HEADINGA,COM2,0,51.0,FINE,2088,438239.800,128336,30,18;SOL_COMPUTED,NARROW_INT,0.8731,125.2313,-5.2160,0.0000,0.2767,0.5764,"999",41,38,38,16,3,01,3,73*b95ead55
$GNGGA,014341.90,3039.25647937,N,12047.31060080,E,2,28,0.6,4.7702,M,9.8167,M,15,0*7E
$GNRMC,014341.90,A,3039.25647937,N,12047.31060080,E,0.009,259.6,170120,5.8,W,D*35
#HEADINGA,COM2,0,51.0,FINE,2088,438239.900,128436,30,18;SOL_COMPUTED,NARROW_INT,0.8725,125.2279,-5.1764,0.0000,0.2767,0.5770,"999",41,38,38,16,3,01,3,73*48187832
#REFSTATIONA,COM2,0,51.0,FINE,2088,438224.000,127739,801,18;00000000,-2811023.329,4717645.324,3233007.504,0,RTCMV3,"0000"*c34788bb
$GNGGA,014342.00,3039.25648079,N,12047.31060179,E,2,28,0.6,4.7674,M,9.8167,M,16,0*7C
$GNRMC,014342.00,A,3039.25648079,N,12047.31060179,E,0.011,349.8,170120,5.8,W,D*33
#HEADINGA,COM2,0,51.0,FINE,2088,438240.000,128536,36,18;SOL_COMPUTED,NARROW_INT,0.8719,125.4450,-5.2226,0.0000,0.2763,0.5748,"999",41,38,38,16,3,01,3,73*76d2b95d
$GNGGA,014342.10,3039.25648197,N,12047.31060273,E,2,28,0.6,4.7647,M,9.8167,M,16,0*75
$GNRMC,014342.10,A,3039.25648197,N,12047.31060273,E,0.007,4.4,170120,5.8,W,D*3B
#HEADINGA,COM2,0,51.0,FINE,2088,438240.100,128636,31,18;SOL_COMPUTED,NARROW_INT,0.8712,125.2948,-5.0185,0.0000,0.2767,0.5757,"999",41,38,38,16,3,01,3,73*603cbce9
$GNGGA,014342.20,3039.25648290,N,12047.31060358,E,2,28,0.6,4.7632,M,9.8167,M,16,0*78
$GNRMC,014342.20,A,3039.25648290,N,12047.31060358,E,0.002,212.3,170120,5.8,W,D*33
#HEADINGA,COM2,0,51.0,FINE,2088,438240.200,128739,31,18;SOL_COMPUTED,NARROW_INT,0.8725,125.2760,-5.1509,0.0000,0.2769,0.5763,"999",41,38,38,16,3,01,3,73*fa409209
$GNGGA,014342.30,3039.25648373,N,12047.31060465,E,2,28,0.6,4.7602,M,9.8167,M,16,0*7F
$GNRMC,014342.30,A,3039.25648373,N,12047.31060465,E,0.008,144.2,170120,5.8,W,D*3C
#HEADINGA,COM2,0,51.0,FINE,2088,438240.300,128836,30,18;SOL_COMPUTED,NARROW_INT,0.8726,125.3711,-5.1840,0.0000,0.2771,0.5753,"999",41,38,38,16,3,01,3,73*3c7ebc3f
$GNGGA,014342.40,3039.25648447,N,12047.31060558,E,2,28,0.6,4.7586,M,9.8167,M,16,0*78
$GNRMC,014342.40,A,3039.25648447,N,12047.31060558,E,0.008,150.5,170120,5.8,W,D*36
#HEADINGA,COM2,0,51.0,FINE,2088,438240.400,128936,30,18;SOL_COMPUTED,NARROW_INT,0.8737,125.4302,-5.4248,0.0000,0.2765,0.5732,"999",41,38,38,16,3,01,3,73*4dd5072b
$GNGGA,014342.50,3039.25648516,N,12047.31060642,E,2,28,0.6,4.7576,M,9.8167,M,16,0*7B
$GNRMC,014342.50,A,3039.25648516,N,12047.31060642,E,0.008,158.1,170120,5.8,W,D*36
#HEADINGA,COM2,0,51.0,FINE,2088,438240.500,129036,30,18;SOL_COMPUTED,NARROW_INT,0.8729,125.3298,-5.5213,0.0000,0.2767,0.5735,"999",41,38,38,16,3,01,3,73*6cb3851c
$GNGGA,014342.60,3039.25648638,N,12047.31060723,E,2,28,0.6,4.7556,M,9.8167,M,16,0*73
$GNRMC,014342.60,A,3039.25648638,N,12047.31060723,E,0.010,1.7,170120,5.8,W,D*3E
#HEADINGA,COM2,0,51.0,FINE,2088,438240.600,129136,29,18;SOL_COMPUTED,NARROW_INT,0.8716,125.3905,-4.7508,0.0000,0.2769,0.5760,"999",41,38,38,16,3,01,3,73*cc86bc20
$GNGGA,014342.70,3039.25648719,N,12047.31060808,E,2,28,0.6,4.7534,M,9.8167,M,16,0*72
$GNRMC,014342.70,A,3039.25648719,N,12047.31060808,E,0.003,140.3,170120,5.8,W,D*39
#HEADINGA,COM2,0,51.0,FINE,2088,438240.700,129236,29,18;SOL_COMPUTED,NARROW_INT,0.8719,125.2840,-5.4223,0.0000,0.2774,0.5742,"999",41,38,38,16,3,01,3,73*5bb516da
$GNGGA,014342.80,3039.25648789,N,12047.31060910,E,2,28,0.6,4.7525,M,9.8167,M,16,0*7C
$GNRMC,014342.80,A,3039.25648789,N,12047.31060910,E,0.013,111.4,170120,5.8,W,D*35
#HEADINGA,COM2,0,51.0,FINE,2088,438240.800,129336,29,18;SOL_COMPUTED,NARROW_INT,0.8725,125.3342,-5.3128,0.0000,0.2776,0.5745,"999",41,38,38,16,3,01,3,73*516c2217
$GNGGA,014342.90,3039.25648871,N,12047.31061005,E,2,28,0.6,4.7504,M,9.8167,M,16,0*7A
$GNRMC,014342.90,A,3039.25648871,N,12047.31061005,E,0.007,102.3,170120,5.8,W,D*30
#HEADINGA,COM2,0,51.0,FINE,2088,438240.900,129436,29,18;SOL_COMPUTED,NARROW_INT,0.8733,125.2150,-5.2957,0.0000,0.2765,0.5740,"999",41,38,38,16,3,01,3,73*c1117a0f
#REFSTATIONA,COM2,0,51.0,FINE,2088,438224.000,127739,1801,18;00000000,-2811023.329,4717645.324,3233007.504,0,RTCMV3,"0000"*eba050cc
$GNGGA,014343.00,3039.25648956,N,12047.31061073,E,2,28,0.6,4.7493,M,9.8167,M,17,0*79
$GNRMC,014343.00,A,3039.25648956,N,12047.31061073,E,0.003,43.9,170120,5.8,W,D*07
#HEADINGA,COM2,0,51.0,FINE,2088,438241.000,129536,37,18;SOL_COMPUTED,NARROW_INT,0.8739,125.2792,-5.4313,0.0000,0.2764,0.5739,"999",41,38,38,16,3,01,3,73*3155635a
$GNGGA,014343.10,3039.25649016,N,12047.31061113,E,2,28,0.6,4.7480,M,9.8167,M,17,0*71
$GNRMC,014343.10,A,3039.25649016,N,12047.31061113,E,0.007,236.9,170120,5.8,W,D*39
#HEADINGA,COM2,0,51.0,FINE,2088,438241.100,129636,31,18;SOL_COMPUTED,NARROW_INT,0.8739,125.1847,-5.4622,0.0000,0.2768,0.5738,"999",41,38,38,16,3,01,3,73*970f70b4
$GNGGA,014343.20,3039.25649086,N,12047.31061173,E,2,28,0.6,4.7467,M,9.8167,M,17,0*74
$GNRMC,014343.20,A,3039.25649086,N,12047.31061173,E,0.001,91.4,170120,5.8,W,D*01
#HEADINGA,COM2,0,51.0,FINE,2088,438241.200,129739,32,18;SOL_COMPUTED,NARROW_INT,0.8738,125.2508,-5.1101,0.0000,0.2762,0.5738,"999",41,38,38,16,3,01,3,73*3b9c60c3
$GNGGA,014343.30,3039.25649183,N,12047.31061260,E,2,28,0.6,4.7457,M,9.8167,M,16,0*72
$GNRMC,014343.30,A,3039.25649183,N,12047.31061260,E,0.010,73.0,170120,5.8,W,D*0D
#HEADINGA,COM2,0,51.0,FINE,2088,438241.300,129836,33,18;SOL_COMPUTED,NARROW_INT,0.8726,125.2615,-5.4836,0.0000,0.2773,0.5743,"999",41,38,38,16,3,01,3,73*107b8600
$GNGGA,014343.40,3039.25649285,N,12047.31061344,E,2,28,0.6,4.7441,M,9.8167,M,16,0*70
$GNRMC,014343.40,A,3039.25649285,N,12047.31061344,E,0.009,58.5,170120,5.8,W,D*0C
#HEADINGA,COM2,0,51.0,FINE,2088,438241.400,129936,30,18;SOL_COMPUTED,NARROW_INT,0.8759,125.3031,-5.2858,0.0000,0.2762,0.5727,"999",41,38,38,16,3,01,3,73*c7da8273
$GNGGA,014343.50,3039.25649351,N,12047.31061400,E,2,28,0.6,4.7441,M,9.8167,M,16,0*7E
$GNRMC,014343.50,A,3039.25649351,N,12047.31061400,E,0.006,166.2,170120,5.8,W,D*36
#HEADINGA,COM2,0,51.0,FINE,2088,438241.500,130036,30,18;SOL_COMPUTED,NARROW_INT,0.8753,125.3950,-5.2517,0.0000,0.2770,0.5731,"999",41,38,38,16,3,01,3,73*2ce6a9a9
$GNGGA,014343.60,3039.25649412,N,12047.31061451,E,2,28,0.6,4.7429,M,9.8167,M,16,0*77
$GNRMC,014343.60,A,3039.25649412,N,12047.31061451,E,0.009,197.2,170120,5.8,W,D*30
#HEADINGA,COM2,0,51.0,FINE,2088,438241.600,130136,29,18;SOL_COMPUTED,NARROW_INT,0.8736,125.2464,-5.4528,0.0000,0.2774,0.5737,"999",41,38,38,16,3,01,3,73*38f4b661
$GNGGA,014343.70,3039.25649500,N,12047.31061496,E,2,28,0.6,4.7413,M,9.8167,M,16,0*76
$GNRMC,014343.70,A,3039.25649500,N,12047.31061496,E,0.008,255.3,170120,5.8,W,D*35
#HEADINGA,COM2,0,51.0,FINE,2088,438241.700,130235,30,18;SOL_COMPUTED,NARROW_INT,0.8753,125.3141,-5.0656,0.0000,0.2768,0.5735,"999",41,38,38,16,3,01,3,73*56c3d98e
$GNGGA,014343.80,3039.25649576,N,12047.31061567,E,2,28,0.6,4.7394,M,9.8167,M,16,0*7F
$GNRMC,014343.80,A,3039.25649576,N,12047.31061567,E,0.006,173.2,170120,5.8,W,D*3C
#HEADINGA,COM2,0,51.0,FINE,2088,438241.800,130336,29,18;SOL_COMPUTED,NARROW_INT,0.8755,125.2022,-5.5404,0.0000,0.2767,0.5723,"999",41,38,38,16,3,01,3,73*77d9f312
$GNGGA,014343.90,3039.25649651,N,12047.31061644,E,2,28,0.6,4.7376,M,9.8167,M,16,0*76
$GNRMC,014343.90,A,3039.25649651,N,12047.31061644,E,0.007,146.6,170120,5.8,W,D*3A
#HEADINGA,COM2,0,51.0,FINE,2088,438241.900,130435,30,18;SOL_COMPUTED,NARROW_INT,0.8767,125.1537,-5.4938,0.0000,0.2760,0.5706,"999",41,38,38,16,3,01,3,73*24153f02
#REFSTATIONA,COM2,0,51.0,FINE,2088,438225.000,129739,801,18;00000000,-2811023.329,4717645.324,3233007.504,0,RTCMV3,"0000"*201a705b
$GNGGA,014344.00,3039.25649720,N,12047.31061718,E,2,28,0.6,4.7355,M,9.8167,M,17,0*77
$GNRMC,014344.00,A,3039.25649720,N,12047.31061718,E,0.008,169.6,170120,5.8,W,D*39
#HEADINGA,COM2,0,54.0,FINE,2088,438242.000,130536,37,18;SOL_COMPUTED,NARROW_INT,0.8741,125.0164,-5.4644,0.0000,0.2762,0.5718,"999",41,38,38,16,3,01,3,73*11f820bd
$GNGGA,014344.10,3039.25649781,N,12047.31061811,E,2,28,0.6,4.7334,M,9.8167,M,17,0*7C
$GNRMC,014344.10,A,3039.25649781,N,12047.31061811,E,0.013,140.8,170120,5.8,W,D*3A
#HEADINGA,COM2,0,54.0,FINE,2088,438242.100,130637,31,18;SOL_COMPUTED,NARROW_INT,0.8746,125.0906,-5.5809,0.0000,0.2763,0.5712,"999",41,38,38,16,3,01,3,73*2e399f57
$GNGGA,014344.20,3039.25649862,N,12047.31061882,E,2,28,0.6,4.7320,M,9.8167,M,17,0*72
$GNRMC,014344.20,A,3039.25649862,N,12047.31061882,E,0.005,130.7,170120,5.8,W,D*3E
#HEADINGA,COM2,0,54.0,FINE,2088,438242.200,130739,32,18;SOL_COMPUTED,NARROW_INT,0.8771,125.1518,-5.6013,0.0000,0.2759,0.5699,"999",41,38,38,16,3,01,3,73*ab0eb2d5
$GNGGA,014344.30,3039.25649983,N,12047.31061948,E,2,28,0.6,4.7292,M,9.8167,M,16,0*73
$GNRMC,014344.30,A,3039.25649983,N,12047.31061948,E,0.007,321.2,170120,5.8,W,D*33
#HEADINGA,COM2,0,54.0,FINE,2088,438242.300,130835,33,18;SOL_COMPUTED,NARROW_INT,0.8750,125.2876,-5.1598,0.0000,0.2770,0.5733,"999",41,38,38,16,3,01,3,73*1ef1371a
$GNGGA,014344.40,3039.25650106,N,12047.31061999,E,2,28,0.6,4.7249,M,9.8167,M,16,0*73
$GNRMC,014344.40,A,3039.25650106,N,12047.31061999,E,0.013,300.8,170120,5.8,W,D*39
#HEADINGA,COM2,0,54.0,FINE,2088,438242.400,130935,30,18;SOL_COMPUTED,NARROW_INT,0.8739,125.3614,-5.0883,0.0000,0.2772,0.5750,"999",41,38,38,16,3,01,3,73*74ca930e
$GNGGA,014344.50,3039.25650215,N,12047.31062048,E,2,28,0.6,4.7218,M,9.8167,M,16,0*71
$GNRMC,014344.50,A,3039.25650215,N,12047.31062048,E,0.008,309.3,170120,5.8,W,D*37
#HEADINGA,COM2,0,54.0,FINE,2088,438242.500,131035,30,18;SOL_COMPUTED,NARROW_INT,0.8753,125.3310,-5.5123,0.0000,0.2768,0.5728,"999",41,38,38,16,3,01,3,73*e8b751f3
$GNGGA,014344.60,3039.25650299,N,12047.31062094,E,2,28,0.6,4.7202,M,9.8167,M,16,0*7C
$GNRMC,014344.60,A,3039.25650299,N,12047.31062094,E,0.004,249.0,170120,5.8,W,D*3B
#HEADINGA,COM2,0,54.0,FINE,2088,438242.600,131135,30,18;SOL_COMPUTED,NARROW_INT,0.8745,125.2878,-5.4193,0.0000,0.2770,0.5736,"999",41,38,38,16,3,01,3,73*046708fe
$GNGGA,014344.70,3039.25650378,N,12047.31062157,E,2,28,0.6,4.7173,M,9.8167,M,16,0*78
$GNRMC,014344.70,A,3039.25650378,N,12047.31062157,E,0.006,190.2,170120,5.8,W,D*3D
#HEADINGA,COM2,0,54.0,FINE,2088,438242.700,131235,29,18;SOL_COMPUTED,NARROW_INT,0.8745,125.3130,-5.1337,0.0000,0.2770,0.5746,"999",41,38,38,16,3,01,3,73*4906fdc6
$GNGGA,014344.80,3039.25650451,N,12047.31062235,E,2,28,0.6,4.7144,M,9.8167,M,16,0*78
$GNRMC,014344.80,A,3039.25650451,N,12047.31062235,E,0.008,144.5,170120,5.8,W,D*39
#HEADINGA,COM2,0,54.0,FINE,2088,438242.800,131335,30,18;SOL_COMPUTED,NARROW_INT,0.8738,125.4551,-5.0701,0.0000,0.2775,0.5753,"999",41,38,38,16,3,01,3,73*7219b854
$GNGGA,014344.90,3039.25650541,N,12047.31062282,E,2,28,0.6,4.7114,M,9.8167,M,16,0*70
$GNRMC,014344.90,A,3039.25650541,N,12047.31062282,E,0.004,262.2,170120,5.8,W,D*38
#HEADINGA,COM2,0,54.0,FINE,2088,438242.900,131434,30,18;SOL_COMPUTED,NARROW_INT,0.8745,125.5325,-4.7549,0.0000,0.2773,0.5755,"999",41,38,38,16,3,01,3,73*3108c3c6
#REFSTATIONA,COM2,0,54.0,FINE,2088,438226.000,130739,800,18;00000000,-2811023.329,4717645.324,3233007.504,0,RTCMV3,"0000"*64050658
$GNGGA,014345.00,3039.25650630,N,12047.31062325,E,2,28,0.6,4.7079,M,9.8167,M,17,0*7A
$GNRMC,014345.00,A,3039.25650630,N,12047.31062325,E,0.006,280.5,170120,5.8,W,D*30
#HEADINGA,COM2,0,54.0,FINE,2088,438243.000,131535,36,18;SOL_COMPUTED,NARROW_INT,0.8740,125.2491,-5.1036,0.0000,0.2775,0.5760,"999",41,38,38,16,3,01,3,73*d371fcc5
$GNGGA,014345.10,3039.25650713,N,12047.31062354,E,2,28,0.6,4.7042,M,9.8167,M,17,0*75
$GNRMC,014345.10,A,3039.25650713,N,12047.31062354,E,0.009,268.3,170120,5.8,W,D*38
#HEADINGA,COM2,0,54.0,FINE,2088,438243.100,131635,31,18;SOL_COMPUTED,NARROW_INT,0.8751,125.2462,-5.3349,0.0000,0.2773,0.5757,"999",41,38,38,16,3,01,3,73*175915f8
$GNGGA,014345.20,3039.25650780,N,12047.31062427,E,2,28,0.6,4.7003,M,9.8167,M,17,0*7A
$GNRMC,014345.20,A,3039.25650780,N,12047.31062427,E,0.008,168.6,170120,5.8,W,D*35
#HEADINGA,COM2,0,54.0,FINE,2088,438243.200,131738,31,18;SOL_COMPUTED,NARROW_INT,0.8715,125.4196,-4.7103,0.0000,0.2785,0.5794,"999",41,38,38,16,3,01,3,73*489b6905
$GNGGA,014345.30,3039.25650862,N,12047.31062490,E,2,28,0.6,4.6974,M,9.8167,M,17,0*7C
$GNRMC,014345.30,A,3039.25650862,N,12047.31062490,E,0.002,177.6,170120,5.8,W,D*3F
#HEADINGA,COM2,0,54.0,FINE,2088,438243.300,131835,30,18;SOL_COMPUTED,NARROW_INT,0.8746,125.3280,-4.9566,0.0000,0.2776,0.5766,"999",41,38,38,16,3,01,3,73*daa3610d
$GNGGA,014345.40,3039.25650937,N,12047.31062516,E,2,28,0.6,4.6945,M,9.8167,M,17,0*77
$GNRMC,014345.40,A,3039.25650937,N,12047.31062516,E,0.013,278.5,170120,5.8,W,D*39
#HEADINGA,COM2,0,54.0,FINE,2088,438243.400,131935,30,18;SOL_COMPUTED,NARROW_INT,0.8759,125.2929,-5.4539,0.0000,0.2777,0.5757,"999",41,38,38,16,3,01,3,73*933331ae
$GNGGA,014345.50,3039.25651013,N,12047.31062545,E,2,28,0.6,4.6911,M,9.8167,M,17,0*7F
$GNRMC,014345.50,A,3039.25651013,N,12047.31062545,E,0.012,275.6,170120,5.8,W,D*3F
#HEADINGA,COM2,0,54.0,FINE,2088,438243.500,132035,30,18;SOL_COMPUTED,NARROW_INT,0.8742,125.2790,-4.9223,0.0000,0.2779,0.5778,"999",41,38,38,16,3,01,3,73*b515d767
$GNGGA,014345.60,3039.25651081,N,12047.31062594,E,2,28,0.6,4.6878,M,9.8167,M,17,0*75
$GNRMC,014345.60,A,3039.25651081,N,12047.31062594,E,0.004,269.5,170120,5.8,W,D*32
#HEADINGA,COM2,0,54.0,FINE,2088,438243.600,132135,30,18;SOL_COMPUTED,NARROW_INT,0.8735,125.2353,-4.9864,0.0000,0.2783,0.5783,"999",41,38,38,16,3,01,3,73*80bcd2c7
$GNGGA,014345.70,3039.25651129,N,12047.31062662,E,2,28,0.6,4.6844,M,9.8167,M,17,0*72
$GNRMC,014345.70,A,3039.25651129,N,12047.31062662,E,0.007,163.4,170120,5.8,W,D*31
#HEADINGA,COM2,0,54.0,FINE,2088,438243.700,132235,30,18;SOL_COMPUTED,NARROW_INT,0.8742,125.1029,-5.3741,0.0000,0.2777,0.5765,"999",41,38,38,16,3,01,3,73*ddcf467b
$GNGGA,014345.80,3039.25651177,N,12047.31062711,E,2,28,0.6,4.6819,M,9.8167,M,17,0*7B
$GNRMC,014345.80,A,3039.25651177,N,12047.31062711,E,0.007,199.6,170120,5.8,W,D*37
#HEADINGA,COM2,0,54.0,FINE,2088,438243.800,132335,29,18;SOL_COMPUTED,NARROW_INT,0.8762,125.1632,-5.4366,0.0000,0.2773,0.5750,"999",41,38,38,16,3,01,3,73*59ff62d7
$GNGGA,014345.90,3039.25651225,N,12047.31062774,E,2,28,0.6,4.6786,M,9.8167,M,17,0*74
$GNRMC,014345.90,A,3039.25651225,N,12047.31062774,E,0.006,165.5,170120,5.8,W,D*30
#HEADINGA,COM2,0,54.0,FINE,2088,438243.900,132435,29,18;SOL_COMPUTED,NARROW_INT,0.8749,125.0223,-5.0373,0.0000,0.2773,0.5768,"999",41,38,38,16,3,01,3,73*6ae98704
#REFSTATIONA,COM2,0,54.0,FINE,2088,438226.000,130739,1800,18;00000000,-2811023.329,4717645.324,3233007.504,0,RTCMV3,"0000"*16ace8c7
$GNGGA,014346.00,3039.25651303,N,12047.31062820,E,2,28,0.6,4.6760,M,9.8167,M,18,0*72
$GNRMC,014346.00,A,3039.25651303,N,12047.31062820,E,0.006,338.5,170120,5.8,W,D*3B
#HEADINGA,COM2,0,54.0,FINE,2088,438244.000,132535,36,18;SOL_COMPUTED,NARROW_INT,0.8731,125.1940,-5.1661,0.0000,0.2784,0.5671,"999",41,38,38,15,3,01,3,73*928aa3f5
$GNGGA,014346.10,3039.25651382,N,12047.31062880,E,2,28,0.6,4.6729,M,9.8167,M,18,0*7D
$GNRMC,014346.10,A,3039.25651382,N,12047.31062880,E,0.006,8.2,170120,5.8,W,D*3E
#HEADINGA,COM2,0,54.0,FINE,2088,438244.100,132636,31,18;SOL_COMPUTED,NARROW_INT,0.8739,125.2933,-5.3755,0.0000,0.2790,0.5661,"999",41,38,38,15,3,01,3,73*7b2a0fd9
$GNGGA,014346.20,3039.25651420,N,12047.31062868,E,2,28,0.6,4.6713,M,9.8167,M,18,0*7E
$GNRMC,014346.20,A,3039.25651420,N,12047.31062868,E,0.015,257.3,170120,5.8,W,D*3F
#HEADINGA,COM2,0,54.0,FINE,2088,438244.200,132738,31,18;SOL_COMPUTED,NARROW_INT,0.8738,125.2007,-5.2786,0.0000,0.2779,0.5638,"999",41,38,38,15,3,01,3,73*bf766cea
$GNGGA,014346.30,3039.25651444,N,12047.31062834,E,2,28,0.6,4.6689,M,9.8167,M,18,0*76
$GNRMC,014346.30,A,3039.25651444,N,12047.31062834,E,0.021,245.1,170120,5.8,W,D*33
#HEADINGA,COM2,0,54.0,FINE,2088,438244.300,132835,31,18;SOL_COMPUTED,NARROW_INT,0.8735,125.1448,-5.2779,0.0000,0.2777,0.5637,"999",41,38,38,15,3,01,3,73*350f0475
$GNGGA,014346.40,3039.25651463,N,12047.31062815,E,2,28,0.6,4.6671,M,9.8167,M,18,0*70
$GNRMC,014346.40,A,3039.25651463,N,12047.31062815,E,0.020,236.3,170120,5.8,W,D*35
#HEADINGA,COM2,0,54.0,FINE,2088,438244.400,132936,30,18;SOL_COMPUTED,NARROW_INT,0.8755,125.1242,-5.1035,0.0000,0.2769,0.5624,"999",41,38,38,15,3,01,3,73*6f33cdad
$GNGGA,014346.50,3039.25651496,N,12047.31062795,E,2,28,0.6,4.6655,M,9.8167,M,18,0*7A
$GNRMC,014346.50,A,3039.25651496,N,12047.31062795,E,0.017,250.2,170120,5.8,W,D*3C
#HEADINGA,COM2,0,54.0,FINE,2088,438244.500,133035,30,18;SOL_COMPUTED,NARROW_INT,0.8760,125.2719,-5.0271,0.0000,0.2769,0.5622,"999",41,38,38,15,3,01,3,73*4e70fc84
$GNGGA,014346.60,3039.25651559,N,12047.31062794,E,2,28,0.6,4.6633,M,9.8167,M,18,0*7A
$GNRMC,014346.60,A,3039.25651559,N,12047.31062794,E,0.012,292.1,170120,5.8,W,D*34
#HEADINGA,COM2,0,54.0,FINE,2088,438244.600,133135,30,18;SOL_COMPUTED,NARROW_INT,0.8753,125.2849,-4.9073,0.0000,0.2765,0.5628,"999",41,38,38,15,3,01,3,73*0e6046a4
$GNGGA,014346.70,3039.25651605,N,12047.31062800,E,2,28,0.6,4.6616,M,9.8167,M,18,0*74
$GNRMC,014346.70,A,3039.25651605,N,12047.31062800,E,0.009,273.2,170120,5.8,W,D*3B
#HEADINGA,COM2,0,54.0,FINE,2088,438244.700,133234,30,18;SOL_COMPUTED,NARROW_INT,0.8748,125.1103,-5.0850,0.0000,0.2762,0.5625,"999",41,38,38,15,3,01,3,73*fb69a949
$GNGGA,014346.80,3039.25651613,N,12047.31062823,E,2,28,0.6,4.6610,M,9.8167,M,18,0*7B
$GNRMC,014346.80,A,3039.25651613,N,12047.31062823,E,0.012,184.6,170120,5.8,W,D*37
#HEADINGA,COM2,0,54.0,FINE,2088,438244.800,133335,30,18;SOL_COMPUTED,NARROW_INT,0.8766,125.1506,-5.3811,0.0000,0.2760,0.5608,"999",41,38,38,15,3,01,3,73*cf58f9a5
$GNGGA,014346.90,3039.25651608,N,12047.31062844,E,2,28,0.6,4.6608,M,9.8167,M,18,0*78
$GNRMC,014346.90,A,3039.25651608,N,12047.31062844,E,0.018,187.5,170120,5.8,W,D*37
#HEADINGA,COM2,0,54.0,FINE,2088,438244.900,133435,30,18;SOL_COMPUTED,NARROW_INT,0.8776,125.1380,-5.2595,0.0000,0.2763,0.5607,"999",41,38,38,15,3,01,3,73*efc95eae
#REFSTATIONA,COM2,0,54.0,FINE,2088,438226.000,130739,2801,18;00000000,-2811023.329,4717645.324,3233007.504,0,RTCMV3,"0000"*fb3bc71d
$GNGGA,014347.00,3039.25651618,N,12047.31062838,E,2,28,0.6,4.6607,M,9.8167,M,19,0*74
$GNRMC,014347.00,A,3039.25651618,N,12047.31062838,E,0.016,221.7,170120,5.8,W,D*36
#HEADINGA,COM2,0,57.0,FINE,2088,438245.000,133535,36,18;SOL_COMPUTED,NARROW_INT,0.8777,124.8166,-6.0884,0.0000,0.2756,0.5588,"999",41,38,38,15,3,01,3,73*a606ec0c
$GNGGA,014347.10,3039.25651657,N,12047.31062804,E,2,28,0.6,4.6606,M,9.8167,M,19,0*70
$GNRMC,014347.10,A,3039.25651657,N,12047.31062804,E,0.018,265.1,170120,5.8,W,D*3B
#HEADINGA,COM2,0,57.0,FINE,2088,438245.100,133636,31,18;SOL_COMPUTED,NARROW_INT,0.8763,124.9855,-5.1360,0.0000,0.2757,0.5615,"999",41,38,38,15,3,01,3,73*8d287b15
$GNGGA,014347.20,3039.25651695,N,12047.31062739,E,2,28,0.6,4.6614,M,9.8167,M,19,0*7F
$GNRMC,014347.20,A,3039.25651695,N,12047.31062739,E,0.022,277.3,170120,5.8,W,D*3F
#HEADINGA,COM2,0,57.0,FINE,2088,438245.200,133738,32,18;SOL_COMPUTED,NARROW_INT,0.8760,125.2441,-5.0420,0.0000,0.2765,0.5629,"999",41,38,38,15,3,01,3,73*ec065256
$GNGGA,014347.30,3039.25651744,N,12047.31062709,E,2,28,0.6,4.6615,M,9.8167,M,19,0*71
$GNRMC,014347.30,A,3039.25651744,N,12047.31062709,E,0.014,297.6,170120,5.8,W,D*3E
#HEADINGA,COM2,0,57.0,FINE,2088,438245.300,133835,31,18;SOL_COMPUTED,NARROW_INT,0.8744,125.1907,-5.2397,0.0000,0.2767,0.5866,"999",41,38,38,16,3,01,3,73*ad396e3f
$GNGGA,014347.40,3039.25651749,N,12047.31062665,E,2,28,0.6,4.6603,M,9.8167,M,19,0*77
$GNRMC,014347.40,A,3039.25651749,N,12047.31062665,E,0.021,243.2,170120,5.8,W,D*34
#HEADINGA,COM2,0,57.0,FINE,2088,438245.400,133935,30,18;SOL_COMPUTED,NARROW_INT,0.8742,125.1861,-5.1100,0.0000,0.2767,0.5871,"999",41,38,38,16,3,01,3,73*e5736fe8
$GNGGA,014347.50,3039.25651739,N,12047.31062634,E,2,28,0.6,4.6612,M,9.8167,M,19,0*75
$GNRMC,014347.50,A,3039.25651739,N,12047.31062634,E,0.016,216.3,170120,5.8,W,D*33
#HEADINGA,COM2,0,57.0,FINE,2088,438245.500,134035,30,18;SOL_COMPUTED,NARROW_INT,0.8770,125.0202,-5.1463,0.0000,0.2755,0.5851,"999",41,38,38,16,3,01,3,73*9771dad7
$GNGGA,014347.60,3039.25651762,N,12047.31062635,E,2,28,0.6,4.6614,M,9.8167,M,19,0*7F
$GNRMC,014347.60,A,3039.25651762,N,12047.31062635,E,0.004,207.4,170120,5.8,W,D*3B
#HEADINGA,COM2,0,57.0,FINE,2088,438245.600,134135,30,18;SOL_COMPUTED,NARROW_INT,0.8739,125.2413,-5.2389,0.0000,0.2773,0.5890,"999",41,38,38,16,3,01,3,73*7dff11fa
$GNGGA,014347.70,3039.25651728,N,12047.31062656,E,2,28,0.6,4.6607,M,9.8167,M,19,0*77
$GNRMC,014347.70,A,3039.25651728,N,12047.31062656,E,0.024,171.0,170120,5.8,W,D*35
#HEADINGA,COM2,0,57.0,FINE,2088,438245.700,134235,30,18;SOL_COMPUTED,NARROW_INT,0.8727,125.5683,-4.4492,0.0000,0.2771,0.5885,"999",41,38,38,16,3,01,3,73*c1903684
$GNGGA,014347.80,3039.25651730,N,12047.31062697,E,2,28,0.6,4.6585,M,9.8167,M,19,0*75
$GNRMC,014347.80,A,3039.25651730,N,12047.31062697,E,0.017,162.9,170120,5.8,W,D*35
#HEADINGA,COM2,0,57.0,FINE,2088,438245.800,134335,30,18;SOL_COMPUTED,NARROW_INT,0.8736,125.7755,-3.7490,0.0000,0.2770,0.5898,"999",41,38,38,16,3,01,3,73*6c042421
$GNGGA,014347.90,3039.25651783,N,12047.31062789,E,2,28,0.6,4.6561,M,9.8167,M,19,0*78
$GNRMC,014347.90,A,3039.25651783,N,12047.31062789,E,0.023,78.2,170120,5.8,W,D*04
