
$GNGGA,070626.30,3039.10500625,N,12047.27856994,E,4,30,0.6,4.4374,M,9.8160,M,15,0*70
$GNRMC,070626.30,A,3039.10500625,N,12047.27856994,E,0.086,274.5,170120,5.8,W,D*3E
#HEADINGA,COM2,0,46.0,FINE,2088,457604.300,3666685,17,18;SOL_COMPUTED,NARROW_INT,0.4376,159.3501,-14.7833,0.0000,0.6140,1.6987,"999",33,29,29,18,3,01,3,f3*e75aec91
$GNGGA,070626.40,3039.10500629,N,12047.27856950,E,4,30,0.6,4.4370,M,9.8160,M,15,0*77
$GNRMC,070626.40,A,3039.10500629,N,12047.27856950,E,0.014,275.2,170120,5.8,W,D*30
#HEADINGA,COM2,0,46.0,FINE,2088,457604.400,3666785,16,18;SOL_COMPUTED,NARROW_INT,0.4365,159.3049,-15.1805,0.0000,0.6171,1.7019,"999",33,29,29,18,3,01,3,f3*e736c5ff
$GNGGA,070626.50,3039.10500529,N,12047.27857149,E,4,30,0.6,4.4412,M,9.8160,M,15,0*77
$GNRMC,070626.50,A,3039.10500529,N,12047.27857149,E,0.072,120.1,170120,5.8,W,D*33
#HEADINGA,COM2,0,46.0,FINE,2088,457604.500,3666885,16,18;SOL_COMPUTED,NARROW_INT,0.4349,159.7061,-15.2895,0.0000,0.6198,1.7088,"999",33,29,29,18,3,01,3,f3*12ae945b
$GNGGA,070626.60,3039.10500601,N,12047.27857204,E,4,30,0.6,4.4325,M,9.8160,M,15,0*74
$GNRMC,070626.60,A,3039.10500601,N,12047.27857204,E,0.031,33.0,170120,5.8,W,D*06
#HEADINGA,COM2,0,46.0,FINE,2088,457604.600,3666985,16,18;SOL_COMPUTED,NARROW_INT,0.4363,159.2246,-14.9923,0.0000,0.6170,1.7025,"999",33,29,29,18,3,01,3,f3*40cc4606
$GNGGA,070626.70,3039.10500398,N,12047.27857203,E,4,30,0.6,4.4393,M,9.8160,M,15,0*7A
$GNRMC,070626.70,A,3039.10500398,N,12047.27857203,E,0.073,180.3,170120,5.8,W,D*39
#HEADINGA,COM2,0,46.0,FINE,2088,457604.700,3667084,17,18;SOL_COMPUTED,NARROW_INT,0.4325,159.4217,-15.6442,0.0000,0.6243,1.7157,"999",33,29,29,18,3,01,3,f3*9adce58d
$GNGGA,070626.80,3039.10500496,N,12047.27857295,E,4,30,0.6,4.4318,M,9.8160,M,15,0*70
$GNRMC,070626.80,A,3039.10500496,N,12047.27857295,E,0.046,39.0,170120,5.8,W,D*06
#HEADINGA,COM2,0,46.0,FINE,2088,457604.800,3667184,20,18;SOL_COMPUTED,NARROW_INT,0.4348,159.2809,-15.8891,0.0000,0.6217,1.7075,"999",33,29,29,18,3,01,3,f3*922cc68e
$GNGGA,070626.90,3039.10500486,N,12047.27856906,E,4,30,0.6,4.4283,M,9.8160,M,15,0*73
$GNRMC,070626.90,A,3039.10500486,N,12047.27856906,E,0.121,268.2,170120,5.8,W,D*32
#HEADINGA,COM2,0,46.0,FINE,2088,457604.900,3667284,16,18;SOL_COMPUTED,NARROW_INT,0.4329,159.0394,-15.2267,0.0000,0.6224,1.7158,"999",33,29,29,18,3,01,3,f3*4a04c9fc
#REFSTATIONA,COM2,0,44.0,FINE,2088,457561.000,3664585,2803,18;00000000,-2811044.342,4717820.352,3232735.546,0,RTCMV3,"0000"*ae3ef8a8
$GNGGA,070627.00,3039.10500540,N,12047.27857013,E,4,30,0.6,4.4289,M,9.8160,M,16,0*75
$GNRMC,070627.00,A,3039.10500540,N,12047.27857013,E,0.039,59.8,170120,5.8,W,D*0F
#HEADINGA,COM2,0,46.0,FINE,2088,457605.000,3667384,22,18;SOL_COMPUTED,NARROW_INT,0.4350,159.1565,-15.1049,0.0000,0.6192,1.7076,"999",33,29,29,18,3,01,3,f3*767bf0b7
$GNGGA,070627.10,3039.10500625,N,12047.27857105,E,4,30,0.6,4.4265,M,9.8160,M,16,0*70
$GNRMC,070627.10,A,3039.10500625,N,12047.27857105,E,0.042,42.9,170120,5.8,W,D*0F
#HEADINGA,COM2,0,46.0,FINE,2088,457605.100,3667484,17,18;SOL_COMPUTED,NARROW_INT,0.4351,159.5085,-15.7861,0.0000,0.6217,1.7111,"999",33,29,29,18,3,01,3,f3*4ed5f58a
$GNGGA,070627.20,3039.10500587,N,12047.27857001,E,4,30,0.6,4.4314,M,9.8160,M,16,0*7A
$GNRMC,070627.20,A,3039.10500587,N,12047.27857001,E,0.035,247.4,170120,5.8,W,D*38
#HEADINGA,COM2,0,46.0,FINE,2088,457605.200,3667585,18,18;SOL_COMPUTED,NARROW_INT,0.4356,159.0515,-15.8013,0.0000,0.6212,1.7099,"999",33,29,29,18,3,01,3,f3*6cf3635b
$GNGGA,070627.30,3039.10500626,N,12047.27857045,E,4,30,0.6,4.4253,M,9.8160,M,16,0*71
$GNRMC,070627.30,A,3039.10500626,N,12047.27857045,E,0.020,45.0,170120,5.8,W,D*01
#HEADINGA,COM2,0,46.0,FINE,2088,457605.300,3667685,16,18;SOL_COMPUTED,NARROW_INT,0.4321,159.2153,-14.5755,0.0000,0.6213,1.7209,"999",33,29,29,18,3,01,3,f3*187c58a2
$GNGGA,070627.40,3039.10500730,N,12047.27857054,E,4,30,0.6,4.4279,M,9.8160,M,16,0*78
$GNRMC,070627.40,A,3039.10500730,N,12047.27857054,E,0.037,4.3,170120,5.8,W,D*30
#HEADINGA,COM2,0,46.0,FINE,2088,457605.400,3667785,17,18;SOL_COMPUTED,NARROW_INT,0.4343,159.2850,-15.1315,0.0000,0.6200,1.7129,"999",33,29,29,18,3,01,3,f3*524fffe6
$GNGGA,070627.50,3039.10500624,N,12047.27857148,E,4,30,0.6,4.4259,M,9.8160,M,16,0*73
$GNRMC,070627.50,A,3039.10500624,N,12047.27857148,E,0.048,142.7,170120,5.8,W,D*36
#HEADINGA,COM2,0,46.0,FINE,2088,457605.500,3667884,17,18;SOL_COMPUTED,NARROW_INT,0.4325,159.4194,-15.4521,0.0000,0.6225,1.7146,"999",33,29,29,18,3,01,3,f3*02fd023b
$GNGGA,070627.60,3039.10500650,N,12047.27856979,E,4,30,0.6,4.4264,M,9.8160,M,16,0*76
$GNRMC,070627.60,A,3039.10500650,N,12047.27856979,E,0.053,280.3,170120,5.8,W,D*3E
#HEADINGA,COM2,0,46.0,FINE,2088,457605.600,3667985,16,18;SOL_COMPUTED,NARROW_INT,0.4354,159.0814,-15.7107,0.0000,0.6191,1.7034,"999",33,29,29,18,3,01,3,f3*2a71755e
$GNGGA,070627.70,3039.10500533,N,12047.27857059,E,4,30,0.6,4.4332,M,9.8160,M,16,0*79
$GNRMC,070627.70,A,3039.10500533,N,12047.27857059,E,0.049,149.5,170120,5.8,W,D*38
#HEADINGA,COM2,0,46.0,FINE,2088,457605.700,3668084,16,18;SOL_COMPUTED,NARROW_INT,0.4335,159.4202,-15.0336,0.0000,0.6200,1.7115,"999",33,29,29,18,3,01,3,f3*704dbfb4
$GNGGA,070627.80,3039.10500656,N,12047.27857039,E,4,30,0.6,4.4360,M,9.8160,M,16,0*77
$GNRMC,070627.80,A,3039.10500656,N,12047.27857039,E,0.045,352.0,170120,5.8,W,D*30
#HEADINGA,COM2,0,46.0,FINE,2088,457605.800,3668184,19,18;SOL_COMPUTED,NARROW_INT,0.4342,159.1374,-15.3275,0.0000,0.6205,1.7120,"999",33,29,29,18,3,01,3,f3*c36220ed
$GNGGA,070627.90,3039.10500428,N,12047.27856869,E,4,30,0.6,4.4359,M,9.8160,M,16,0*7B
$GNRMC,070627.90,A,3039.10500428,N,12047.27856869,E,0.097,212.7,170120,5.8,W,D*3B
#HEADINGA,COM2,0,46.0,FINE,2088,457605.900,3668284,16,18;SOL_COMPUTED,NARROW_INT,0.4318,158.6563,-15.6952,0.0000,0.6250,1.7207,"999",33,29,29,18,3,01,3,f3*69d38fde
#REFSTATIONA,COM2,0,44.0,FINE,2088,457561.000,3664585,3804,18;00000000,-2811044.342,4717820.352,3232735.546,0,RTCMV3,"0000"*5dd6c1c8
$GNGGA,070628.00,3039.10500594,N,12047.27856927,E,4,30,0.6,4.4341,M,9.8160,M,17,0*78
$GNRMC,070628.00,A,3039.10500594,N,12047.27856927,E,0.062,16.8,170120,5.8,W,D*03
#HEADINGA,COM2,0,46.0,FINE,2088,457606.000,3668384,22,18;SOL_COMPUTED,NARROW_INT,0.4345,159.0892,-15.1499,0.0000,0.6183,1.7078,"999",33,29,29,18,3,01,3,f3*7d558e72
$GNGGA,070628.10,3039.10500487,N,12047.27857122,E,4,30,0.6,4.4326,M,9.8160,M,17,0*77
$GNRMC,070628.10,A,3039.10500487,N,12047.27857122,E,0.072,122.5,170120,5.8,W,D*37
#HEADINGA,COM2,0,46.0,FINE,2088,457606.100,3668484,17,18;SOL_COMPUTED,NARROW_INT,0.4325,159.1049,-15.1245,0.0000,0.6216,1.7153,"999",33,29,29,18,3,01,3,f3*f9fc9e0a
$GNGGA,070628.20,3039.10500523,N,12047.27857126,E,4,30,0.6,4.4379,M,9.8160,M,17,0*75
$GNRMC,070628.20,A,3039.10500523,N,12047.27857126,E,0.013,5.2,170120,5.8,W,D*3B
#HEADINGA,COM2,0,46.0,FINE,2088,457606.200,3668585,17,18;SOL_COMPUTED,NARROW_INT,0.4348,159.5803,-15.9071,0.0000,0.6209,1.7053,"999",33,29,29,18,3,01,3,f3*154c2281
$GNGGA,070628.30,3039.10500418,N,12047.27857077,E,4,30,0.6,4.4476,M,9.8160,M,16,0*71
$GNRMC,070628.30,A,3039.10500418,N,12047.27857077,E,0.041,202.0,170120,5.8,W,D*36
#HEADINGA,COM2,0,46.0,FINE,2088,457606.300,3668684,17,18;SOL_COMPUTED,NARROW_INT,0.4343,159.0676,-15.8445,0.0000,0.6214,1.7111,"999",33,29,29,19,3,01,3,f3*aff09c22
$GNGGA,070628.40,3039.10500467,N,12047.27857169,E,4,30,0.6,4.4431,M,9.8160,M,16,0*73
$GNRMC,070628.40,A,3039.10500467,N,12047.27857169,E,0.034,58.3,170120,5.8,W,D*0B
#HEADINGA,COM2,0,46.0,FINE,2088,457606.400,3668785,16,18;SOL_COMPUTED,NARROW_INT,0.4357,159.1893,-15.7622,0.0000,0.6198,1.7072,"999",33,29,29,19,3,01,3,f3*248636c5
$GNGGA,070628.50,3039.10500451,N,12047.27857141,E,4,30,0.6,4.4441,M,9.8160,M,16,0*7A
$GNRMC,070628.50,A,3039.10500451,N,12047.27857141,E,0.011,237.1,170120,5.8,W,D*3B
#HEADINGA,COM2,0,46.0,FINE,2088,457606.500,3668884,17,18;SOL_COMPUTED,NARROW_INT,0.4351,159.0650,-16.9463,0.0000,0.6243,1.7085,"999",33,29,29,19,3,01,3,f3*07e41a59
$GNGGA,070628.60,3039.10500534,N,12047.27857158,E,4,30,0.6,4.4345,M,9.8160,M,16,0*70
$GNRMC,070628.60,A,3039.10500534,N,12047.27857158,E,0.030,10.3,170120,5.8,W,D*04
#HEADINGA,COM2,0,46.0,FINE,2088,457606.600,3668984,17,18;SOL_COMPUTED,NARROW_INT,0.4332,159.2888,-15.1712,0.0000,0.6211,1.7146,"999",33,29,29,19,3,01,3,f3*b58e1b22
$GNGGA,070628.70,3039.10500416,N,12047.27857098,E,4,30,0.6,4.4439,M,9.8160,M,16,0*71
$GNRMC,070628.70,A,3039.10500416,N,12047.27857098,E,0.046,203.7,170120,5.8,W,D*3C
#HEADINGA,COM2,0,46.0,FINE,2088,457606.700,3669084,19,18;SOL_COMPUTED,NARROW_INT,0.4349,158.8064,-15.2877,0.0000,0.6188,1.7081,"999",33,29,29,19,3,01,3,f3*dfa1d98c
$GNGGA,070628.80,3039.10500381,N,12047.27857120,E,4,30,0.6,4.4385,M,9.8160,M,16,0*75
$GNRMC,070628.80,A,3039.10500381,N,12047.27857120,E,0.014,152.0,170120,5.8,W,D*3F
#HEADINGA,COM2,0,46.0,FINE,2088,457606.800,3669184,16,18;SOL_COMPUTED,NARROW_INT,0.4324,158.8729,-15.2202,0.0000,0.6228,1.7184,"999",33,29,29,19,3,01,3,f3*bde20ac5
$GNGGA,070628.90,3039.10500407,N,12047.27857161,E,4,30,0.6,4.4338,M,9.8160,M,16,0*7E
$GNRMC,070628.90,A,3039.10500407,N,12047.27857161,E,0.016,53.6,170120,5.8,W,D*06
#HEADINGA,COM2,0,46.0,FINE,2088,457606.900,3669284,16,18;SOL_COMPUTED,NARROW_INT,0.4317,159.2170,-15.7410,0.0000,0.6252,1.7207,"999",33,29,29,19,3,01,3,f3*711b99cc
#REFSTATIONA,COM2,0,46.0,FINE,2088,457561.000,3668585,804,18;00000000,-2811044.342,4717820.352,3232735.546,0,RTCMV3,"0000"*dc54e5bf
$GNGGA,070629.00,3039.10500442,N,12047.27857045,E,4,30,0.6,4.4420,M,9.8160,M,17,0*7F
$GNRMC,070629.00,A,3039.10500442,N,12047.27857045,E,0.038,288.9,170120,5.8,W,D*3F
#HEADINGA,COM2,0,46.0,FINE,2088,457607.000,3669384,22,18;SOL_COMPUTED,NARROW_INT,0.4347,158.8384,-15.7706,0.0000,0.6209,1.7096,"999",33,29,29,19,3,01,3,f3*9df5f2f0
$GNGGA,070629.10,3039.10500353,N,12047.27857122,E,4,30,0.6,4.4449,M,9.8160,M,17,0*76
$GNRMC,070629.10,A,3039.10500353,N,12047.27857122,E,0.040,143.0,170120,5.8,W,D*3B
#HEADINGA,COM2,0,46.0,FINE,2088,457607.100,3669484,17,18;SOL_COMPUTED,NARROW_INT,0.4329,158.5516,-14.7817,0.0000,0.6205,1.7172,"999",33,29,29,19,3,01,3,f3*2916f2b0
$GNGGA,070629.20,3039.10500407,N,12047.27857094,E,4,30,0.6,4.4441,M,9.8160,M,17,0*77
$GNRMC,070629.20,A,3039.10500407,N,12047.27857094,E,0.021,336.0,170120,5.8,W,D*35
#HEADINGA,COM2,0,44.0,FINE,2088,457607.200,3669586,17,18;SOL_COMPUTED,NARROW_INT,0.4335,159.0166,-15.3559,0.0000,0.6215,1.7147,"999",33,29,29,19,3,01,3,f3*dbc987b5
$GNGGA,070629.30,3039.10500472,N,12047.27857146,E,4,30,0.6,4.4370,M,9.8160,M,17,0*7F
$GNRMC,070629.30,A,3039.10500472,N,12047.27857146,E,0.028,34.6,170120,5.8,W,D*06
#HEADINGA,COM2,0,44.0,FINE,2088,457607.300,3669685,16,18;SOL_COMPUTED,NARROW_INT,0.4341,159.3816,-15.9558,0.0000,0.6226,1.7122,"999",33,29,29,19,3,01,3,f3*d207019f
$GNGGA,070629.40,3039.10500587,N,12047.27857023,E,4,30,0.6,4.4319,M,9.8160,M,17,0*7E
$GNRMC,070629.40,A,3039.10500587,N,12047.27857023,E,0.056,317.4,170120,5.8,W,D*31
#HEADINGA,COM2,0,44.0,FINE,2088,457607.400,3669784,17,18;SOL_COMPUTED,NARROW_INT,0.4344,158.7254,-16.3990,0.0000,0.6052,1.4334,"999",33,29,29,19,3,01,3,f3*7b7146b5
$GNGGA,070629.50,3039.10500377,N,12047.27857110,E,4,30,0.6,4.4397,M,9.8160,M,17,0*71
$GNRMC,070629.50,A,3039.10500377,N,12047.27857110,E,0.080,160.3,170120,5.8,W,D*36
#HEADINGA,COM2,0,44.0,FINE,2088,457607.500,3669884,17,18;SOL_COMPUTED,NARROW_INT,0.4335,159.2072,-16.3400,0.0000,0.6055,1.4352,"999",33,29,29,19,3,01,3,f3*5e14d629
$GNGGA,070629.60,3039.10500389,N,12047.27857098,E,4,30,0.6,4.4447,M,9.8160,M,17,0*78
$GNRMC,070629.60,A,3039.10500389,N,12047.27857098,E,0.006,317.7,170120,5.8,W,D*3D
#HEADINGA,COM2,0,44.0,FINE,2088,457607.600,3669984,17,18;SOL_COMPUTED,NARROW_INT,0.4327,159.1339,-16.0941,0.0000,0.6066,1.4395,"999",33,29,29,19,3,01,3,f3*eee37ab3
$GNGGA,070629.70,3039.10500430,N,12047.27857156,E,4,30,0.6,4.4437,M,9.8160,M,17,0*78
$GNRMC,070629.70,A,3039.10500430,N,12047.27857156,E,0.023,50.9,170120,5.8,W,D*03
#HEADINGA,COM2,0,44.0,FINE,2088,457607.700,3670084,16,18;SOL_COMPUTED,NARROW_INT,0.4361,159.2222,-14.7602,0.0000,0.5984,1.4291,"999",33,29,29,19,3,01,3,f3*284e87ba
$GNGGA,070629.80,3039.10500638,N,12047.27857157,E,4,30,0.6,4.4428,M,9.8160,M,17,0*72
$GNRMC,070629.80,A,3039.10500638,N,12047.27857157,E,0.075,0.2,170120,5.8,W,D*3A
#HEADINGA,COM2,0,44.0,FINE,2088,457607.800,3670184,19,18;SOL_COMPUTED,NARROW_INT,0.4359,158.8347,-14.3389,0.0000,0.5980,1.4303,"999",33,29,29,19,3,01,3,f3*89c96136
$GNGGA,070629.90,3039.10500679,N,12047.27856942,E,4,30,0.6,4.4402,M,9.8160,M,17,0*73
$GNRMC,070629.90,A,3039.10500679,N,12047.27856942,E,0.068,282.5,170120,5.8,W,D*30
#HEADINGA,COM2,0,44.0,FINE,2088,457607.900,3670284,15,18;SOL_COMPUTED,NARROW_INT,0.4370,158.7590,-14.8486,0.0000,0.5978,1.4266,"999",33,29,29,19,3,01,3,f3*d5d30a4f
#REFSTATIONA,COM2,0,46.0,FINE,2088,457561.000,3668585,1803,18;00000000,-2811044.342,4717820.352,3232735.546,0,RTCMV3,"0000"*c0862a84
$GNGGA,070630.00,3039.10500704,N,12047.27856911,E,4,30,0.6,4.4357,M,9.8160,M,18,0*77
$GNRMC,070630.00,A,3039.10500704,N,12047.27856911,E,0.013,313.1,170120,5.8,W,D*3D
#HEADINGA,COM2,0,44.0,FINE,2088,457608.000,3670384,21,18;SOL_COMPUTED,NARROW_INT,0.4363,159.0692,-15.5757,0.0000,0.6003,1.4277,"999",33,29,29,19,3,01,3,f3*b03cc41e
$GNGGA,070630.10,3039.10500607,N,12047.27857043,E,4,30,0.6,4.4378,M,9.8160,M,18,0*76
$GNRMC,070630.10,A,3039.10500607,N,12047.27857043,E,0.054,130.4,170120,5.8,W,D*34
#HEADINGA,COM2,0,44.0,FINE,2088,457608.100,3670484,18,18;SOL_COMPUTED,NARROW_INT,0.4339,159.2778,-16.1028,0.0000,0.6044,1.4342,"999",33,29,29,19,3,01,3,f3*50f892e9
$GNGGA,070630.20,3039.10500514,N,12047.27857126,E,4,30,0.6,4.4389,M,9.8160,M,18,0*78
$GNRMC,070630.20,A,3039.10500514,N,12047.27857126,E,0.042,142.3,170120,5.8,W,D*31
#HEADINGA,COM2,0,44.0,FINE,2088,457608.200,3670585,18,18;SOL_COMPUTED,NARROW_INT,0.4341,159.4789,-15.5728,0.0000,0.6024,1.4332,"999",33,29,29,19,3,01,3,f3*c77f8fdf
$GNGGA,070630.30,3039.10500591,N,12047.27857150,E,4,30,0.6,4.4386,M,9.8160,M,16,0*74
$GNRMC,070630.30,A,3039.10500591,N,12047.27857150,E,0.028,15.5,170120,5.8,W,D*05
#HEADINGA,COM2,0,44.0,FINE,2088,457608.300,3670684,17,18;SOL_COMPUTED,NARROW_INT,0.4364,159.5494,-15.0378,0.0000,0.5970,1.4251,"999",33,29,29,19,3,01,3,f3*b0cf3490
$GNGGA,070630.40,3039.10500624,N,12047.27857095,E,4,30,0.6,4.4329,M,9.8160,M,16,0*73
$GNRMC,070630.40,A,3039.10500624,N,12047.27857095,E,0.021,304.8,170120,5.8,W,D*30
#HEADINGA,COM2,0,44.0,FINE,2088,457608.400,3670784,17,18;SOL_COMPUTED,NARROW_INT,0.4333,159.0796,-14.5994,0.0000,0.6000,1.4343,"999",33,29,29,19,3,01,3,f3*ab694705
$GNGGA,070630.50,3039.10500681,N,12047.27856959,E,4,30,0.6,4.4310,M,9.8160,M,16,0*7F
$GNRMC,070630.50,A,3039.10500681,N,12047.27856959,E,0.047,296.0,170120,5.8,W,D*34
#HEADINGA,COM2,0,44.0,FINE,2088,457608.500,3670884,17,18;SOL_COMPUTED,NARROW_INT,0.4358,159.3237,-15.4514,0.0000,0.5980,1.4245,"999",33,29,29,19,3,01,3,f3*1db49ce5
$GNGGA,070630.60,3039.10500565,N,12047.27857033,E,4,30,0.6,4.4370,M,9.8160,M,16,0*77
$GNRMC,070630.60,A,3039.10500565,N,12047.27857033,E,0.048,151.0,170120,5.8,W,D*3D
#HEADINGA,COM2,0,44.0,FINE,2088,457608.600,3670984,17,18;SOL_COMPUTED,NARROW_INT,0.4341,159.2804,-15.8044,0.0000,0.6015,1.4295,"999",33,29,29,19,3,01,3,f3*57772748
$GNGGA,070630.70,3039.10500466,N,12047.27857203,E,4,30,0.6,4.4343,M,9.8160,M,16,0*75
$GNRMC,070630.70,A,3039.10500466,N,12047.27857203,E,0.064,124.1,170120,5.8,W,D*32
#HEADINGA,COM2,0,44.0,FINE,2088,457608.700,3671084,19,18;SOL_COMPUTED,NARROW_INT,0.4332,159.3653,-16.1513,0.0000,0.6037,1.4323,"999",33,29,29,19,3,01,3,f3*c7f7686a
$GNGGA,070630.80,3039.10500257,N,12047.27857344,E,4,30,0.6,4.4436,M,9.8160,M,16,0*79
$GNRMC,070630.80,A,3039.10500257,N,12047.27857344,E,0.087,149.7,170120,5.8,W,D*3B
#HEADINGA,COM2,0,44.0,FINE,2088,457608.800,3671184,16,18;SOL_COMPUTED,NARROW_INT,0.4331,159.6182,-15.9296,0.0000,0.6029,1.4326,"999",33,29,29,19,3,01,3,f3*ccfd4d0c
$GNGGA,070630.90,3039.10500458,N,12047.27857038,E,4,30,0.6,4.4286,M,9.8160,M,16,0*74
$GNRMC,070630.90,A,3039.10500458,N,12047.27857038,E,0.119,307.2,170120,5.8,W,D*30
#HEADINGA,COM2,0,44.0,FINE,2088,457608.900,3671284,15,18;SOL_COMPUTED,NARROW_INT,0.4344,159.1101,-16.7113,0.0000,0.6040,1.4271,"999",33,29,29,19,3,01,3,f3*f966424b
#REFSTATIONA,COM2,0,44.0,FINE,2088,457592.000,3670585,803,18;00000000,-2811044.342,4717820.352,3232735.546,0,RTCMV3,"0000"*a8e5f237
$GNGGA,070631.00,3039.10500320,N,12047.27857159,E,4,30,0.6,4.4406,M,9.8160,M,17,0*7D
$GNRMC,070631.00,A,3039.10500320,N,12047.27857159,E,0.062,142.8,170120,5.8,W,D*32
#HEADINGA,COM2,0,44.0,FINE,2088,457609.000,3671384,21,18;SOL_COMPUTED,NARROW_INT,0.4349,159.2868,-16.3259,0.0000,0.6021,1.4262,"999",33,29,29,19,3,01,3,f3*cae83b8a
$GNGGA,070631.10,3039.10500302,N,12047.27857329,E,4,30,0.6,4.4397,M,9.8160,M,17,0*76
$GNRMC,070631.10,A,3039.10500302,N,12047.27857329,E,0.053,96.8,170120,5.8,W,D*0C
#HEADINGA,COM2,0,44.0,FINE,2088,457609.100,3671484,16,18;SOL_COMPUTED,NARROW_INT,0.4346,159.5489,-14.6446,0.0000,0.5972,1.4275,"999",33,29,29,19,3,01,3,f3*c8ad22f2
$GNGGA,070631.20,3039.10500371,N,12047.27856992,E,4,30,0.6,4.4358,M,9.8160,M,17,0*79
$GNRMC,070631.20,A,3039.10500371,N,12047.27856992,E,0.108,283.2,170120,5.8,W,D*33
#HEADINGA,COM2,0,44.0,FINE,2088,457609.200,3671585,17,18;SOL_COMPUTED,NARROW_INT,0.4370,158.9381,-15.1770,0.0000,0.5962,1.4198,"999",33,29,29,19,3,01,3,f3*768296f7
$GNGGA,070631.30,3039.10500360,N,12047.27857252,E,4,30,0.6,4.4338,M,9.8160,M,16,0*79
$GNRMC,070631.30,A,3039.10500360,N,12047.27857252,E,0.081,92.8,170120,5.8,W,D*0C
#HEADINGA,COM2,0,44.0,FINE,2088,457609.300,3671684,17,18;SOL_COMPUTED,NARROW_INT,0.4333,159.2392,-14.0175,0.0000,0.5981,1.4326,"999",33,29,29,19,3,01,3,f3*7b18a67e
$GNGGA,070631.40,3039.10500376,N,12047.27857256,E,4,30,0.6,4.4378,M,9.8160,M,16,0*79
$GNRMC,070631.40,A,3039.10500376,N,12047.27857256,E,0.006,10.2,170120,5.8,W,D*07
#HEADINGA,COM2,0,44.0,FINE,2088,457609.400,3671784,17,18;SOL_COMPUTED,NARROW_INT,0.4350,159.1968,-14.0868,0.0000,0.5960,1.4259,"999",33,29,29,19,3,01,3,f3*24dc7450
$GNGGA,070631.50,3039.10500272,N,12047.27857164,E,4,30,0.6,4.4440,M,9.8160,M,16,0*73
$GNRMC,070631.50,A,3039.10500272,N,12047.27857164,E,0.047,217.2,170120,5.8,W,D*31
#HEADINGA,COM2,0,44.0,FINE,2088,457609.500,3671884,17,18;SOL_COMPUTED,NARROW_INT,0.4328,158.9077,-15.4107,0.0000,0.6037,1.4338,"999",33,29,29,19,3,01,3,f3*2e413a87
$GNGGA,070631.60,3039.10500323,N,12047.27857248,E,4,30,0.6,4.4361,M,9.8160,M,16,0*7C
$GNRMC,070631.60,A,3039.10500323,N,12047.27857248,E,0.032,55.0,170120,5.8,W,D*0E
#HEADINGA,COM2,0,44.0,FINE,2088,457609.600,3671984,17,18;SOL_COMPUTED,NARROW_INT,0.4333,159.4282,-15.3855,0.0000,0.6024,1.4323,"999",33,29,29,19,3,01,3,f3*07c329b6
$GNGGA,070631.70,3039.10500294,N,12047.27857076,E,4,30,0.6,4.4486,M,9.8160,M,16,0*71
$GNRMC,070631.70,A,3039.10500294,N,12047.27857076,E,0.054,259.0,170120,5.8,W,D*33
#HEADINGA,COM2,0,44.0,FINE,2088,457609.700,3672084,19,18;SOL_COMPUTED,NARROW_INT,0.4367,159.5835,-16.6652,0.0000,0.6015,1.4207,"999",33,29,29,19,3,01,3,f3*1ec0161d
$GNGGA,070631.80,3039.10500350,N,12047.27857132,E,4,30,0.6,4.4515,M,9.8160,M,16,0*7D
$GNRMC,070631.80,A,3039.10500350,N,12047.27857132,E,0.027,41.0,170120,5.8,W,D*0B
#HEADINGA,COM2,0,44.0,FINE,2088,457609.800,3672184,15,18;SOL_COMPUTED,NARROW_INT,0.4373,159.7600,-15.8705,0.0000,0.5979,1.4186,"999",33,29,29,19,3,01,3,f3*be5fc9e3
$GNGGA,070631.90,3039.10500439,N,12047.27856952,E,4,30,0.6,4.4432,M,9.8160,M,16,0*7F
$GNRMC,070631.90,A,3039.10500439,N,12047.27856952,E,0.064,299.7,170120,5.8,W,D*3A
#HEADINGA,COM2,0,44.0,FINE,2088,457609.900,3672284,15,18;SOL_COMPUTED,NARROW_INT,0.4353,159.1047,-16.2200,0.0000,0.6027,1.4264,"999",33,29,29,19,3,01,3,f3*269d8d5d
#REFSTATIONA,COM2,0,44.0,FINE,2088,457593.000,3671585,803,18;00000000,-2811044.342,4717820.352,3232735.546,0,RTCMV3,"0000"*96484f7c
$GNGGA,070632.00,3039.10500388,N,12047.27856993,E,4,30,0.6,4.4412,M,9.8160,M,17,0*76
$GNRMC,070632.00,A,3039.10500388,N,12047.27856993,E,0.022,145.3,170120,5.8,W,D*34
#HEADINGA,COM2,0,44.0,FINE,2088,457610.000,3672384,21,18;SOL_COMPUTED,NARROW_INT,0.4366,159.3678,-15.3851,0.0000,0.5986,1.4219,"999",33,29,29,19,3,01,3,f3*f6af4f84
$GNGGA,070632.10,3039.10500380,N,12047.27857005,E,4,30,0.6,4.4436,M,9.8160,M,17,0*7E
$GNRMC,070632.10,A,3039.10500380,N,12047.27857005,E,0.005,126.5,170120,5.8,W,D*3C
#HEADINGA,COM2,0,44.0,FINE,2088,457610.100,3672484,17,18;SOL_COMPUTED,NARROW_INT,0.4343,159.5427,-18.8718,0.0000,0.6126,1.4266,"999",33,29,29,19,3,01,3,f3*9e9d435a
$GNGGA,070632.20,3039.10500573,N,12047.27856865,E,4,30,0.6,4.4375,M,9.8160,M,17,0*78
$GNRMC,070632.20,A,3039.10500573,N,12047.27856865,E,0.082,327.8,170120,5.8,W,D*3B
#HEADINGA,COM2,0,45.0,FINE,2088,457610.200,3672585,19,18;SOL_COMPUTED,NARROW_INT,0.4390,158.8112,-14.7957,0.0000,0.6195,1.6895,"999",33,29,29,18,3,01,3,f3*d35876c2
$GNGGA,070632.30,3039.10500450,N,12047.27857006,E,4,30,0.6,4.4426,M,9.8160,M,16,0*75
$GNRMC,070632.30,A,3039.10500450,N,12047.27857006,E,0.062,135.3,170120,5.8,W,D*32
#HEADINGA,COM2,0,45.0,FINE,2088,457610.300,3672684,17,18;SOL_COMPUTED,NARROW_INT,0.4367,159.2283,-15.1280,0.0000,0.6237,1.6989,"999",33,29,29,18,3,01,3,f3*9384d6df
$GNGGA,070632.40,3039.10500487,N,12047.27857052,E,4,30,0.6,4.4416,M,9.8160,M,16,0*7A
$GNRMC,070632.40,A,3039.10500487,N,12047.27857052,E,0.020,47.1,170120,5.8,W,D*0E
#HEADINGA,COM2,0,45.0,FINE,2088,457610.400,3672784,17,18;SOL_COMPUTED,NARROW_INT,0.4335,158.9110,-14.6204,0.0000,0.6269,1.7119,"999",33,29,29,18,3,01,3,f3*ddc734df
$GNGGA,070632.50,3039.10500517,N,12047.27857115,E,4,30,0.6,4.4434,M,9.8160,M,16,0*71
$GNRMC,070632.50,A,3039.10500517,N,12047.27857115,E,0.022,61.4,170120,5.8,W,D*06
#HEADINGA,COM2,0,45.0,FINE,2088,457610.500,3672884,17,18;SOL_COMPUTED,NARROW_INT,0.4344,159.0675,-15.0256,0.0000,0.6273,1.7103,"999",33,29,29,18,3,01,3,f3*2325daa5
$GNGGA,070632.60,3039.10500529,N,12047.27857108,E,4,30,0.6,4.4383,M,9.8160,M,16,0*78
$GNRMC,070632.60,A,3039.10500529,N,12047.27857108,E,0.005,332.7,170120,5.8,W,D*37
#HEADINGA,COM2,0,45.0,FINE,2088,457610.600,3672984,17,18;SOL_COMPUTED,NARROW_INT,0.4384,159.1294,-15.1083,0.0000,0.6210,1.6933,"999",33,29,29,18,3,01,3,f3*69099f42
$GNGGA,070632.70,3039.10500596,N,12047.27856898,E,4,30,0.6,4.4355,M,9.8160,M,16,0*77
$GNRMC,070632.70,A,3039.10500596,N,12047.27856898,E,0.070,290.4,170120,5.8,W,D*3B
#HEADINGA,COM2,0,45.0,FINE,2088,457610.700,3673084,19,18;SOL_COMPUTED,NARROW_INT,0.4371,158.4952,-14.0139,0.0000,0.6201,1.6990,"999",33,29,29,18,3,01,3,f3*3f8fa7fe
$GNGGA,070632.80,3039.10500529,N,12047.27857073,E,4,30,0.6,4.4434,M,9.8160,M,16,0*70
$GNRMC,070632.80,A,3039.10500529,N,12047.27857073,E,0.060,114.2,170120,5.8,W,D*34
#HEADINGA,COM2,0,45.0,FINE,2088,457610.800,3673184,16,18;SOL_COMPUTED,NARROW_INT,0.4378,158.8892,-14.7884,0.0000,0.6212,1.6961,"999",33,29,29,18,3,01,3,f3*b9032243
$GNGGA,070632.90,3039.10500596,N,12047.27857097,E,4,30,0.6,4.4429,M,9.8160,M,16,0*73
$GNRMC,070632.90,A,3039.10500596,N,12047.27857097,E,0.025,17.4,170120,5.8,W,D*0E
#HEADINGA,COM2,0,45.0,FINE,2088,457610.900,3673284,16,18;SOL_COMPUTED,NARROW_INT,0.4344,158.9992,-14.2937,0.0000,0.6249,1.7104,"999",33,29,29,18,3,01,3,f3*4c665978
#REFSTATIONA,COM2,0,45.0,FINE,2088,457593.000,3672585,803,18;00000000,-2811044.342,4717820.352,3232735.546,0,RTCMV3,"0000"*dba6dd10
$GNGGA,070633.00,3039.10500507,N,12047.27857090,E,4,30,0.6,4.4398,M,9.8160,M,17,0*78
$GNRMC,070633.00,A,3039.10500507,N,12047.27857090,E,0.032,183.9,170120,5.8,W,D*3E
#HEADINGA,COM2,0,45.0,FINE,2088,457611.000,3673384,21,18;SOL_COMPUTED,NARROW_INT,0.4378,159.3301,-14.5174,0.0000,0.6203,1.6967,"999",33,29,29,18,3,01,3,f3*24b80fe4
$GNGGA,070633.10,3039.10500528,N,12047.27857034,E,4,30,0.6,4.4370,M,9.8160,M,17,0*7C
$GNRMC,070633.10,A,3039.10500528,N,12047.27857034,E,0.019,293.1,170120,5.8,W,D*3F
#HEADINGA,COM2,0,45.0,FINE,2088,457611.100,3673484,17,18;SOL_COMPUTED,NARROW_INT,0.4361,159.2482,-13.4789,0.0000,0.6191,1.6993,"999",33,29,29,18,3,01,3,f3*e5122599
$GNGGA,070633.20,3039.10500662,N,12047.27856896,E,4,30,0.6,4.4392,M,9.8160,M,17,0*7F
$GNRMC,070633.20,A,3039.10500662,N,12047.27856896,E,0.065,318.4,170120,5.8,W,D*3C
#HEADINGA,COM2,0,45.0,FINE,2088,457611.200,3673585,17,18;SOL_COMPUTED,NARROW_INT,0.4342,159.1186,-14.1441,0.0000,0.6157,1.7079,"999",33,29,29,19,3,01,3,f3*2a1389c7
$GNGGA,070633.30,3039.10500592,N,12047.27856935,E,4,30,0.6,4.4440,M,9.8160,M,16,0*73
$GNRMC,070633.30,A,3039.10500592,N,12047.27856935,E,0.028,154.4,170120,5.8,W,D*3A
#HEADINGA,COM2,0,45.0,FINE,2088,457611.300,3673685,16,18;SOL_COMPUTED,NARROW_INT,0.4367,158.9587,-15.0329,0.0000,0.6152,1.6981,"999",33,29,29,19,3,01,3,f3*836ec8b7
$GNGGA,070633.40,3039.10500574,N,12047.27856967,E,4,30,0.6,4.4441,M,9.8160,M,16,0*7A
$GNRMC,070633.40,A,3039.10500574,N,12047.27856967,E,0.012,122.9,170120,5.8,W,D*37
#HEADINGA,COM2,0,45.0,FINE,2088,457611.400,3673785,16,18;SOL_COMPUTED,NARROW_INT,0.4336,159.2135,-13.8287,0.0000,0.6163,1.7102,"999",33,29,29,19,3,01,3,f3*ec726fdb
$GNGGA,070633.50,3039.10500658,N,12047.27857060,E,4,30,0.6,4.4394,M,9.8160,M,16,0*76
$GNRMC,070633.50,A,3039.10500658,N,12047.27857060,E,0.042,43.6,170120,5.8,W,D*08
#HEADINGA,COM2,0,45.0,FINE,2088,457611.500,3673885,16,18;SOL_COMPUTED,NARROW_INT,0.4383,159.4968,-14.5141,0.0000,0.6113,1.6921,"999",33,29,29,19,3,01,3,f3*7f2ab7ad
$GNGGA,070633.60,3039.10500622,N,12047.27857035,E,4,30,0.6,4.4438,M,9.8160,M,16,0*79
$GNRMC,070633.60,A,3039.10500622,N,12047.27857035,E,0.015,210.4,170120,5.8,W,D*32
#HEADINGA,COM2,0,45.0,FINE,2088,457611.600,3673984,17,18;SOL_COMPUTED,NARROW_INT,0.4350,159.0993,-14.2787,0.0000,0.6153,1.7055,"999",33,29,29,19,3,01,3,f3*c6f7c463
$GNGGA,070633.70,3039.10500693,N,12047.27856671,E,4,30,0.6,4.4326,M,9.8160,M,16,0*7D
$GNRMC,070633.70,A,3039.10500693,N,12047.27856671,E,0.116,282.7,170120,5.8,W,D*34
#HEADINGA,COM2,0,45.0,FINE,2088,457611.700,3674084,19,18;SOL_COMPUTED,NARROW_INT,0.4369,158.8817,-13.9110,0.0000,0.6114,1.6976,"999",33,29,29,19,3,01,3,f3*77ae9c57
$GNGGA,070633.80,3039.10500395,N,12047.27856935,E,4,30,0.6,4.4474,M,9.8160,M,16,0*7E
$GNRMC,070633.80,A,3039.10500395,N,12047.27856935,E,0.135,142.6,170120,5.8,W,D*38
#HEADINGA,COM2,0,45.0,FINE,2088,457611.800,3674184,16,18;SOL_COMPUTED,NARROW_INT,0.4343,159.1147,-14.8383,0.0000,0.6177,1.7079,"999",33,29,29,19,3,01,3,f3*b5f8dcb2
$GNGGA,070633.90,3039.10500527,N,12047.27856797,E,4,30,0.6,4.4493,M,9.8160,M,16,0*7F
$GNRMC,070633.90,A,3039.10500527,N,12047.27856797,E,0.064,318.0,170120,5.8,W,D*3E
#HEADINGA,COM2,0,45.0,FINE,2088,457611.900,3674284,15,18;SOL_COMPUTED,NARROW_INT,0.4368,158.8665,-15.3703,0.0000,0.6156,1.6989,"999",33,29,29,19,3,01,3,f3*f2becb54
#REFSTATIONA,COM2,0,45.0,FINE,2088,457593.000,3673585,804,18;00000000,-2811044.342,4717820.352,3232735.546,0,RTCMV3,"0000"*0a87c402
$GNGGA,070634.00,3039.10500461,N,12047.27856975,E,4,30,0.6,4.4484,M,9.8160,M,17,0*77
$GNRMC,070634.00,A,3039.10500461,N,12047.27856975,E,0.060,113.2,170120,5.8,W,D*3E
#HEADINGA,COM2,0,45.0,FINE,2088,457612.000,3674384,22,18;SOL_COMPUTED,NARROW_INT,0.4369,159.2272,-14.4083,0.0000,0.6127,1.6977,"999",33,29,29,19,3,01,3,f3*78cb8c79
$GNGGA,070634.10,3039.10500520,N,12047.27856846,E,4,30,0.6,4.4464,M,9.8160,M,17,0*7D
$GNRMC,070634.10,A,3039.10500520,N,12047.27856846,E,0.045,297.6,170120,5.8,W,D*36
#HEADINGA,COM2,0,45.0,FINE,2088,457612.100,3674484,17,18;SOL_COMPUTED,NARROW_INT,0.4381,159.0840,-14.9688,0.0000,0.6128,1.6941,"999",33,29,29,19,3,01,3,f3*9ee8aa28
$GNGGA,070634.20,3039.10500452,N,12047.27856987,E,4,30,0.6,4.4431,M,9.8160,M,17,0*76
$GNRMC,070634.20,A,3039.10500452,N,12047.27856987,E,0.050,119.3,170120,5.8,W,D*39
#HEADINGA,COM2,0,45.0,FINE,2088,457612.200,3674585,18,18;SOL_COMPUTED,NARROW_INT,0.4367,158.7285,-14.1055,0.0000,0.6124,1.6985,"999",33,29,29,19,3,01,3,f3*b1cc3699
$GNGGA,070634.30,3039.10500570,N,12047.27856776,E,4,30,0.6,4.4437,M,9.8160,M,17,0*70
$GNRMC,070634.30,A,3039.10500570,N,12047.27856776,E,0.078,302.9,170120,5.8,W,D*31
#HEADINGA,COM2,0,45.0,FINE,2088,457612.300,3674685,17,18;SOL_COMPUTED,NARROW_INT,0.4374,159.2957,-14.7533,0.0000,0.6128,1.6935,"999",33,29,29,18,3,01,3,f3*36cc7ba3
$GNGGA,070634.40,3039.10500537,N,12047.27857117,E,4,30,0.6,4.4424,M,9.8160,M,17,0*76
$GNRMC,070634.40,A,3039.10500537,N,12047.27857117,E,0.107,96.3,170120,5.8,W,D*08
#HEADINGA,COM2,0,45.0,FINE,2088,457612.400,3674785,16,18;SOL_COMPUTED,NARROW_INT,0.4357,159.5804,-14.6264,0.0000,0.5958,1.4231,"999",33,29,29,18,3,01,3,f3*b238b7e4
$GNGGA,070634.50,3039.10500665,N,12047.27857039,E,4,30,0.6,4.4390,M,9.8160,M,17,0*76
$GNRMC,070634.50,A,3039.10500665,N,12047.27857039,E,0.052,332.3,170120,5.8,W,D*3C
#HEADINGA,COM2,0,45.0,FINE,2088,457612.500,3674885,17,18;SOL_COMPUTED,NARROW_INT,0.4347,160.2059,-15.2213,0.0000,0.5980,1.4261,"999",33,29,29,18,3,01,3,f3*5d839db5
$GNGGA,070634.60,3039.10500502,N,12047.27856790,E,4,30,0.6,4.4440,M,9.8160,M,17,0*78
$GNRMC,070634.60,A,3039.10500502,N,12047.27856790,E,0.097,232.9,170120,5.8,W,D*3A
#HEADINGA,COM2,0,45.0,FINE,2088,457612.600,3674985,16,18;SOL_COMPUTED,NARROW_INT,0.4362,158.5494,-15.2474,0.0000,0.5978,1.4215,"999",33,29,29,18,3,01,3,f3*eb67ec71
$GNGGA,070634.70,3039.10500395,N,12047.27857013,E,4,30,0.6,4.4430,M,9.8160,M,17,0*7B
$GNRMC,070634.70,A,3039.10500395,N,12047.27857013,E,0.079,118.9,170120,5.8,W,D*35
#HEADINGA,COM2,0,45.0,FINE,2088,457612.700,3675084,17,18;SOL_COMPUTED,NARROW_INT,0.4326,159.3695,-14.6918,0.0000,0.6000,1.4342,"999",33,29,29,18,3,01,3,f3*8a7b7ab7
$GNGGA,070634.80,3039.10500615,N,12047.27856987,E,4,30,0.6,4.4363,M,9.8160,M,17,0*7D
$GNRMC,070634.80,A,3039.10500615,N,12047.27856987,E,0.079,354.0,170120,5.8,W,D*31
#HEADINGA,COM2,0,45.0,FINE,2088,457612.800,3675184,20,18;SOL_COMPUTED,NARROW_INT,0.4346,159.0206,-14.1617,0.0000,0.5963,1.4279,"999",33,29,29,18,3,01,3,f3*1e065719
$GNGGA,070634.90,3039.10500518,N,12047.27857020,E,4,30,0.6,4.4422,M,9.8160,M,17,0*75
$GNRMC,070634.90,A,3039.10500518,N,12047.27857020,E,0.036,163.4,170120,5.8,W,D*32
#HEADINGA,COM2,0,45.0,FINE,2088,457612.900,3675284,16,18;SOL_COMPUTED,NARROW_INT,0.4372,159.2195,-14.9034,0.0000,0.5945,1.4191,"999",33,29,29,18,3,01,3,f3*2d43a499
#REFSTATIONA,COM2,0,45.0,FINE,2088,457593.000,3673585,1804,18;00000000,-2811044.342,4717820.352,3232735.546,0,RTCMV3,"0000"*536d7388
$GNGGA,070635.00,3039.10500508,N,12047.27856793,E,4,30,0.6,4.4442,M,9.8160,M,18,0*7B
$GNRMC,070635.00,A,3039.10500508,N,12047.27856793,E,0.070,267.3,170120,5.8,W,D*37
#HEADINGA,COM2,0,45.0,FINE,2088,457613.000,3675384,22,18;SOL_COMPUTED,NARROW_INT,0.4385,158.3252,-14.2437,0.0000,0.5926,1.4170,"999",33,29,29,18,3,01,3,f3*096d3ee6
$GNGGA,070635.10,3039.10500544,N,12047.27856795,E,4,30,0.6,4.4436,M,9.8160,M,18,0*77
$GNRMC,070635.10,A,3039.10500544,N,12047.27856795,E,0.013,2.7,170120,5.8,W,D*38
#HEADINGA,COM2,0,45.0,FINE,2088,457613.100,3675484,17,18;SOL_COMPUTED,NARROW_INT,0.4372,158.7421,-14.3105,0.0000,0.5932,1.4188,"999",33,29,29,18,3,01,3,f3*842688da
$GNGGA,070635.20,3039.10500580,N,12047.27856853,E,4,30,0.6,4.4382,M,9.8160,M,18,0*71
$GNRMC,070635.20,A,3039.10500580,N,12047.27856853,E,0.022,54.3,170120,5.8,W,D*03
#HEADINGA,COM2,0,45.0,FINE,2088,457613.200,3675586,17,18;SOL_COMPUTED,NARROW_INT,0.4407,159.1417,-14.1587,0.0000,0.5872,1.4056,"999",33,29,29,18,3,01,3,f3*6f8d30f3
$GNGGA,070635.30,3039.10500669,N,12047.27857024,E,4,30,0.6,4.4330,M,9.8160,M,18,0*74
$GNRMC,070635.30,A,3039.10500669,N,12047.27857024,E,0.062,59.0,170120,5.8,W,D*05
#HEADINGA,COM2,0,44.0,FINE,2088,457613.300,3675685,17,18;SOL_COMPUTED,NARROW_INT,0.4379,159.1884,-14.6524,0.0000,0.5924,1.4147,"999",33,29,29,19,3,01,3,f3*eb7166bb
$GNGGA,070635.40,3039.10500603,N,12047.27856972,E,4,30,0.6,4.4376,M,9.8160,M,18,0*76
$GNRMC,070635.40,A,3039.10500603,N,12047.27856972,E,0.029,214.5,170120,5.8,W,D*34
#HEADINGA,COM2,0,44.0,FINE,2088,457613.400,3675784,17,18;SOL_COMPUTED,NARROW_INT,0.4369,159.3176,-12.9380,0.0000,0.5892,1.4173,"999",33,29,29,19,3,01,3,f3*89017d5c
$GNGGA,070635.50,3039.10500587,N,12047.27856803,E,4,30,0.6,4.4408,M,9.8160,M,18,0*71
$GNRMC,070635.50,A,3039.10500587,N,12047.27856803,E,0.053,263.8,170120,5.8,W,D*3D
#HEADINGA,COM2,0,44.0,FINE,2088,457613.500,3675885,17,18;SOL_COMPUTED,NARROW_INT,0.4364,158.9545,-13.6521,0.0000,0.5923,1.4209,"999",33,29,29,19,3,01,3,f3*7c02ba68
$GNGGA,070635.60,3039.10500583,N,12047.27856862,E,4,30,0.6,4.4496,M,9.8160,M,18,0*76
$GNRMC,070635.60,A,3039.10500583,N,12047.27856862,E,0.018,94.7,170120,5.8,W,D*07
#HEADINGA,COM2,0,44.0,FINE,2088,457613.600,3675985,16,18;SOL_COMPUTED,NARROW_INT,0.4363,158.9503,-13.8257,0.0000,0.5926,1.4209,"999",33,29,29,19,3,01,3,f3*dba25919
$GNGGA,070635.70,3039.10500528,N,12047.27856937,E,4,30,0.6,4.4388,M,9.8160,M,18,0*7F
$GNRMC,070635.70,A,3039.10500528,N,12047.27856937,E,0.031,130.0,170120,5.8,W,D*35
#HEADINGA,COM2,0,44.0,FINE,2088,457613.700,3676085,19,18;SOL_COMPUTED,NARROW_INT,0.4406,159.0220,-14.2880,0.0000,0.5879,1.4073,"999",33,29,29,19,3,01,3,f3*4766717c
$GNGGA,070635.80,3039.10500351,N,12047.27857189,E,4,30,0.6,4.4402,M,9.8160,M,18,0*71
$GNRMC,070635.80,A,3039.10500351,N,12047.27857189,E,0.101,129.2,170120,5.8,W,D*36
#HEADINGA,COM2,0,44.0,FINE,2088,457613.800,3676185,16,18;SOL_COMPUTED,NARROW_INT,0.4362,159.5050,-15.4396,0.0000,0.5964,1.4211,"999",33,29,29,19,3,01,3,f3*54c021e2
$GNGGA,070635.90,3039.10500292,N,12047.27857092,E,4,30,0.6,4.4385,M,9.8160,M,18,0*7D
$GNRMC,070635.90,A,3039.10500292,N,12047.27857092,E,0.037,235.1,170120,5.8,W,D*3B
#HEADINGA,COM2,0,44.0,FINE,2088,457613.900,3676284,16,18;SOL_COMPUTED,NARROW_INT,0.4342,159.0680,-14.0738,0.0000,0.5960,1.4273,"999",33,29,29,19,3,01,3,f3*e4b4dd32
#REFSTATIONA,COM2,0,45.0,FINE,2088,457593.000,3673585,2804,18;00000000,-2811044.342,4717820.352,3232735.546,0,RTCMV3,"0000"*f713f14d
$GNGGA,070636.00,3039.10500358,N,12047.27857253,E,4,30,0.6,4.4416,M,9.8160,M,19,0*73
$GNRMC,070636.00,A,3039.10500358,N,12047.27857253,E,0.055,65.0,170120,5.8,W,D*0B
#HEADINGA,COM2,0,44.0,FINE,2088,457614.000,3676385,21,18;SOL_COMPUTED,NARROW_INT,0.4355,159.6376,-15.6294,0.0000,0.5977,1.4227,"999",33,29,29,19,3,01,3,f3*ab1ed2a9
$GNGGA,070636.10,3039.10500292,N,12047.27857303,E,4,30,0.6,4.4455,M,9.8160,M,19,0*76
$GNRMC,070636.10,A,3039.10500292,N,12047.27857303,E,0.028,147.0,170120,5.8,W,D*32
#HEADINGA,COM2,0,44.0,FINE,2088,457614.100,3676485,17,18;SOL_COMPUTED,NARROW_INT,0.4366,159.0437,-13.7738,0.0000,0.5922,1.4195,"999",33,29,29,19,3,01,3,f3*cd2122a6
$GNGGA,070636.20,3039.10500296,N,12047.27857099,E,4,30,0.6,4.4383,M,9.8160,M,19,0*7D
$GNRMC,070636.20,A,3039.10500296,N,12047.27857099,E,0.063,271.5,170120,5.8,W,D*39
#HEADINGA,COM2,0,44.0,FINE,2088,457614.200,3676586,18,18;SOL_COMPUTED,NARROW_INT,0.4373,158.4585,-13.1264,0.0000,0.5907,1.4180,"999",33,29,29,19,3,01,3,f3*9d85a985
$GNGGA,070636.30,3039.10500356,N,12047.27857284,E,4,30,0.6,4.4391,M,9.8160,M,18,0*7D
$GNRMC,070636.30,A,3039.10500356,N,12047.27857284,E,0.061,69.5,170120,5.8,W,D*02
#HEADINGA,COM2,0,44.0,FINE,2088,457614.300,3676686,17,18;SOL_COMPUTED,NARROW_INT,0.4364,159.5314,-13.9388,0.0000,0.5924,1.4215,"999",33,29,29,19,3,01,3,f3*8830b906
$GNGGA,070636.40,3039.10500267,N,12047.27857155,E,4,30,0.6,4.4436,M,9.8160,M,18,0*7C
$GNRMC,070636.40,A,3039.10500267,N,12047.27857155,E,0.051,231.3,170120,5.8,W,D*33
#HEADINGA,COM2,0,44.0,FINE,2088,457614.400,3676785,17,18;SOL_COMPUTED,NARROW_INT,0.4356,159.1694,-15.6775,0.0000,0.5989,1.4239,"999",33,29,29,19,3,01,3,f3*f8bd9481
$GNGGA,070636.50,3039.10500266,N,12047.27857075,E,4,30,0.6,4.4401,M,9.8160,M,18,0*7B
$GNRMC,070636.50,A,3039.10500266,N,12047.27857075,E,0.025,268.9,170120,5.8,W,D*35
#HEADINGA,COM2,0,44.0,FINE,2088,457614.500,3676885,16,18;SOL_COMPUTED,NARROW_INT,0.4360,159.3185,-14.0772,0.0000,0.5937,1.4235,"999",33,29,29,19,3,01,3,f3*d5aead2f
$GNGGA,070636.60,3039.10500123,N,12047.27857177,E,4,30,0.6,4.4470,M,9.8160,M,18,0*7F
$GNRMC,070636.60,A,3039.10500123,N,12047.27857177,E,0.060,148.1,170120,5.8,W,D*3F
#HEADINGA,COM2,0,44.0,FINE,2088,457614.600,3676985,16,18;SOL_COMPUTED,NARROW_INT,0.4360,159.3310,-13.9316,0.0000,0.5935,1.4236,"999",33,29,29,19,3,01,3,f3*c48fa509
$GNGGA,070636.70,3039.10500265,N,12047.27857008,E,4,29,0.6,4.4407,M,9.8160,M,18,0*7E
$GNRMC,070636.70,A,3039.10500265,N,12047.27857008,E,0.073,314.0,170120,5.8,W,D*3E
#HEADINGA,COM2,0,44.0,FINE,2088,457614.700,3677084,17,18;SOL_COMPUTED,NARROW_INT,0.4383,159.5048,-14.3315,0.0000,0.5912,1.4162,"999",33,29,29,19,3,01,3,f3*34b1aef7
$GNGGA,070636.80,3039.10500226,N,12047.27856974,E,4,29,0.6,4.4450,M,9.8160,M,18,0*77
$GNRMC,070636.80,A,3039.10500226,N,12047.27856974,E,0.018,216.8,170120,5.8,W,D*33
#HEADINGA,COM2,0,44.0,FINE,2088,457614.800,3677184,19,18;SOL_COMPUTED,NARROW_INT,0.4341,159.4017,-12.7996,0.0000,0.5940,1.4319,"999",33,29,29,19,3,01,3,f3*871f9288
$GNGGA,070636.90,3039.10500204,N,12047.27857082,E,4,29,0.6,4.4532,M,9.8160,M,18,0*72
$GNRMC,070636.90,A,3039.10500204,N,12047.27857082,E,0.035,103.3,170120,5.8,W,D*30
#HEADINGA,COM2,0,44.0,FINE,2088,457614.900,3677284,16,18;SOL_COMPUTED,NARROW_INT,0.4361,159.3309,-14.6001,0.0000,0.5948,1.4232,"999",33,29,29,19,3,01,3,f3*ff8dc57d
#REFSTATIONA,COM2,0,44.0,FINE,2088,457593.000,3676586,803,18;00000000,-2811044.342,4717820.352,3232735.546,0,RTCMV3,"0000"*d7149928
$GNGGA,070637.00,3039.10500291,N,12047.27857203,E,4,29,0.6,4.4514,M,9.8160,M,19,0*78
$GNRMC,070637.00,A,3039.10500291,N,12047.27857203,E,0.049,50.1,170120,5.8,W,D*01
#HEADINGA,COM2,0,44.0,FINE,2088,457615.000,3677385,21,18;SOL_COMPUTED,NARROW_INT,0.4378,159.0063,-13.5577,0.0000,0.5903,1.4181,"999",33,29,29,19,3,01,3,f3*78e629b1
$GNGGA,070637.10,3039.10499675,N,12047.27857244,E,4,29,0.6,4.4549,M,9.8160,M,19,0*7D
$GNRMC,070637.10,A,3039.10499675,N,12047.27857244,E,0.222,176.7,170120,5.8,W,D*30
#HEADINGA,COM2,0,44.0,FINE,2088,457615.100,3677485,17,18;SOL_COMPUTED,NARROW_INT,0.4354,158.9554,-12.7169,0.0000,0.5924,1.4287,"999",33,29,29,19,3,01,3,f3*2a321bc0
$GNGGA,070637.20,3039.10498384,N,12047.27857457,E,4,29,0.6,4.4442,M,9.8160,M,19,0*7A
$GNRMC,070637.20,A,3039.10498384,N,12047.27857457,E,0.468,171.9,170120,5.8,W,D*3C
#HEADINGA,COM2,0,44.0,FINE,2088,457615.200,3677586,18,18;SOL_COMPUTED,NARROW_INT,0.4355,159.6142,-14.3616,0.0000,0.6214,1.7023,"999",33,29,29,18,3,01,3,f3*24b5c49f
$GNGGA,070637.30,3039.10496569,N,12047.27858351,E,4,29,0.6,4.4468,M,9.8160,M,09,0*77
$GNRMC,070637.30,A,3039.10496569,N,12047.27858351,E,0.709,156.9,170120,5.8,W,D*39
#HEADINGA,COM2,0,44.0,FINE,2088,457615.300,3677685,17,18;SOL_COMPUTED,NARROW_INT,0.4374,159.8226,-13.7050,0.0000,0.6159,1.6923,"999",33,29,29,18,3,01,3,f3*bef7967c
$GNGGA,070637.40,3039.10494287,N,12047.27859228,E,4,30,0.6,4.4515,M,9.8160,M,09,0*78
$GNRMC,070637.40,A,3039.10494287,N,12047.27859228,E,0.863,161.6,170120,5.8,W,D*3D
#HEADINGA,COM2,0,44.0,FINE,2088,457615.400,3677785,17,18;SOL_COMPUTED,NARROW_INT,0.4350,159.9309,-14.4572,0.0000,0.6218,1.7037,"999",33,29,29,18,3,01,3,f3*d926bc54
$GNGGA,070637.50,3039.10491473,N,12047.27860481,E,4,30,0.6,4.4592,M,9.8160,M,09,0*71
$GNRMC,070637.50,A,3039.10491473,N,12047.27860481,E,1.083,158.9,170120,5.8,W,D*39
#HEADINGA,COM2,0,44.0,FINE,2088,457615.500,3677885,17,18;SOL_COMPUTED,NARROW_INT,0.4377,160.5504,-16.0039,0.0000,0.6233,1.6940,"999",33,29,29,18,3,01,3,f3*52a6de88
$GNGGA,070637.60,3039.10488921,N,12047.27861291,E,4,31,0.6,4.4571,M,9.8160,M,09,0*7A
$GNRMC,070637.60,A,3039.10488921,N,12047.27861291,E,0.950,164.6,170120,5.8,W,D*38
#HEADINGA,COM2,0,44.0,FINE,2088,457615.600,3677985,17,18;SOL_COMPUTED,NARROW_INT,0.4357,160.2434,-14.9686,0.0000,0.6230,1.6999,"999",33,29,29,18,3,01,3,f3*d6b32752
$GNGGA,070637.70,3039.10486762,N,12047.27861575,E,4,29,0.6,4.4395,M,9.8160,M,09,0*74
$GNRMC,070637.70,A,3039.10486762,N,12047.27861575,E,0.780,173.5,170120,5.8,W,D*35
#HEADINGA,COM2,0,44.0,FINE,2088,457615.700,3678084,20,18;SOL_COMPUTED,NARROW_INT,0.4349,158.8766,-13.7431,0.0000,0.6212,1.7033,"999",33,29,29,18,3,01,3,f3*15fc6c78
$GNGGA,070637.80,3039.10484016,N,12047.27862934,E,4,30,0.6,4.4400,M,9.8160,M,09,0*74
$GNRMC,070637.80,A,3039.10484016,N,12047.27862934,E,1.073,156.8,170120,5.8,W,D*36
#HEADINGA,COM2,0,44.0,FINE,2088,457615.800,3678184,16,18;SOL_COMPUTED,NARROW_INT,0.4333,160.0258,-14.3605,0.0000,0.6240,1.7063,"999",33,29,29,18,3,01,3,f3*c475a51d
$GNGGA,070637.90,3039.10481574,N,12047.27863674,E,4,30,0.6,4.4446,M,9.8160,M,09,0*79
$GNRMC,070637.90,A,3039.10481574,N,12047.27863674,E,0.907,165.3,170120,5.8,W,D*39
#HEADINGA,COM2,0,44.0,FINE,2088,457615.900,3678285,15,18;SOL_COMPUTED,NARROW_INT,0.4331,159.7822,-14.7505,0.0000,0.6267,1.7110,"999",33,29,29,18,3,01,3,f3*0c92f784
#REFSTATIONA,COM2,0,44.0,FINE,2088,457606.000,3677586,803,18;00000000,-2811044.342,4717820.352,3232735.546,0,RTCMV3,"0000"*a1593faa
$GNGGA,070638.00,3039.10478499,N,12047.27864702,E,4,30,0.6,4.4555,M,9.8160,M,10,0*77
$GNRMC,070638.00,A,3039.10478499,N,12047.27864702,E,1.150,163.9,170120,5.8,W,D*3B
#HEADINGA,COM2,0,44.0,FINE,2088,457616.000,3678385,21,18;SOL_COMPUTED,NARROW_INT,0.4350,159.0335,-17.0216,0.0000,0.6322,1.7024,"999",33,29,29,18,3,01,3,f3*a5c3e4e0
$GNGGA,070638.10,3039.10475980,N,12047.27865959,E,4,30,0.6,4.4480,M,9.8160,M,10,0*76
$GNRMC,070638.10,A,3039.10475980,N,12047.27865959,E,0.985,156.7,170120,5.8,W,D*3A
#HEADINGA,COM2,0,44.0,FINE,2088,457616.100,3678485,17,18;SOL_COMPUTED,NARROW_INT,0.4329,159.7438,-15.0194,0.0000,0.6280,1.7106,"999",33,29,29,17,3,01,3,f3*2c6c23ee
$GNGGA,070638.20,3039.10473655,N,12047.27866663,E,4,30,0.6,4.4431,M,9.8160,M,10,0*7B
$GNRMC,070638.20,A,3039.10473655,N,12047.27866663,E,0.863,165.3,170120,5.8,W,D*30
#HEADINGA,COM2,0,44.0,FINE,2088,457616.200,3678586,17,18;SOL_COMPUTED,NARROW_INT,0.4344,159.6953,-15.0249,0.0000,0.6259,1.7039,"999",33,29,29,17,3,01,3,f3*d13a2747
$GNGGA,070638.30,3039.10470622,N,12047.27867723,E,4,30,0.6,4.4512,M,9.8160,M,10,0*7D
$GNRMC,070638.30,A,3039.10470622,N,12047.27867723,E,1.138,163.2,170120,5.8,W,D*37
#HEADINGA,COM2,0,40.0,FINE,2088,457616.300,3678685,17,18;SOL_COMPUTED,NARROW_INT,0.4340,159.7955,-15.5920,0.0000,0.6218,1.7027,"999",33,29,29,17,3,01,3,f3*03808786
$GNGGA,070638.40,3039.10468271,N,12047.27868687,E,4,30,0.6,4.4498,M,9.8160,M,10,0*72
$GNRMC,070638.40,A,3039.10468271,N,12047.27868687,E,0.896,160.5,170120,5.8,W,D*33
#HEADINGA,COM2,0,40.0,FINE,2088,457616.400,3678785,17,18;SOL_COMPUTED,NARROW_INT,0.4319,160.1638,-15.3394,0.0000,0.6247,1.7086,"999",33,29,29,17,3,01,3,f3*2df53b24
$GNGGA,070638.50,3039.10465774,N,12047.27869681,E,4,30,0.6,4.4468,M,9.8160,M,10,0*76
$GNRMC,070638.50,A,3039.10465774,N,12047.27869681,E,0.949,161.0,170120,5.8,W,D*3F
#HEADINGA,COM2,0,40.0,FINE,2088,457616.500,3678885,17,18;SOL_COMPUTED,NARROW_INT,0.4333,160.0923,-15.6639,0.0000,0.6235,1.7038,"999",33,29,29,17,3,01,3,f3*b1872736
$GNGGA,070638.60,3039.10463326,N,12047.27871084,E,4,30,0.6,4.4543,M,9.8160,M,10,0*72
$GNRMC,070638.60,A,3039.10463326,N,12047.27871084,E,0.981,153.6,170120,5.8,W,D*30
#HEADINGA,COM2,0,40.0,FINE,2088,457616.600,3678985,16,18;SOL_COMPUTED,NARROW_INT,0.4326,160.4555,-15.0989,0.0000,0.6223,1.7068,"999",33,29,29,17,3,01,3,f3*0a22b975
$GNGGA,070638.70,3039.10461050,N,12047.27871796,E,4,30,0.6,4.4321,M,9.8160,M,10,0*75
$GNRMC,070638.70,A,3039.10461050,N,12047.27871796,E,0.847,164.9,170120,5.8,W,D*35
#HEADINGA,COM2,0,40.0,FINE,2088,457616.700,3679084,20,18;SOL_COMPUTED,NARROW_INT,0.4317,160.2587,-14.1550,0.0000,0.6210,1.7103,"999",33,29,29,17,3,01,3,f3*52576e7a
$GNGGA,070638.80,3039.10457908,N,12047.27872895,E,4,30,0.6,4.4371,M,9.8160,M,10,0*71
$GNRMC,070638.80,A,3039.10457908,N,12047.27872895,E,1.179,163.2,170120,5.8,W,D*3D
#HEADINGA,COM2,0,40.0,FINE,2088,457616.800,3679185,16,18;SOL_COMPUTED,NARROW_INT,0.4336,160.0445,-13.9969,0.0000,0.6161,1.7020,"999",33,29,29,17,3,01,3,f3*2b2c89f3
$GNGGA,070638.90,3039.10455403,N,12047.27873759,E,4,31,0.6,4.4420,M,9.8160,M,10,0*78
$GNRMC,070638.90,A,3039.10455403,N,12047.27873759,E,0.939,163.4,170120,5.8,W,D*3D
#HEADINGA,COM2,0,40.0,FINE,2088,457616.900,3679285,16,18;SOL_COMPUTED,NARROW_INT,0.4334,159.7981,-14.7847,0.0000,0.6188,1.7036,"999",33,29,29,17,3,01,3,f3*80ea3d2d
#REFSTATIONA,COM2,0,44.0,FINE,2088,457606.000,3677586,1803,18;00000000,-2811044.342,4717820.352,3232735.546,0,RTCMV3,"0000"*b90172bf
$GNGGA,070639.00,3039.10452819,N,12047.27874743,E,4,31,0.6,4.4445,M,9.8160,M,11,0*7E
$GNRMC,070639.00,A,3039.10452819,N,12047.27874743,E,0.977,161.8,170120,5.8,W,D*3D
#HEADINGA,COM2,0,40.0,FINE,2088,457617.000,3679385,22,18;SOL_COMPUTED,NARROW_INT,0.4357,159.8617,-16.3553,0.0000,0.6210,1.6947,"999",33,29,29,17,3,01,3,f3*bc50ded4
$GNGGA,070639.10,3039.10450233,N,12047.27875526,E,4,31,0.6,4.4409,M,9.8160,M,11,0*77
$GNRMC,070639.10,A,3039.10450233,N,12047.27875526,E,0.960,165.3,170120,5.8,W,D*35
#HEADINGA,COM2,0,40.0,FINE,2088,457617.100,3679485,17,18;SOL_COMPUTED,NARROW_INT,0.4342,159.5277,-14.3062,0.0000,0.6177,1.7026,"999",33,29,29,17,3,01,3,f3*cb74ef1e
$GNGGA,070639.20,3039.10447848,N,12047.27876713,E,4,31,0.6,4.4410,M,9.8160,M,11,0*7B
$GNRMC,070639.20,A,3039.10447848,N,12047.27876713,E,0.932,156.7,170120,5.8,W,D*32
#HEADINGA,COM2,0,40.0,FINE,2088,457617.200,3679586,17,18;SOL_COMPUTED,NARROW_INT,0.4326,160.2156,-15.0623,0.0000,0.6220,1.7077,"999",33,29,29,17,3,01,3,f3*0be97767
$GNGGA,070639.30,3039.10445411,N,12047.27877257,E,4,31,0.6,4.4367,M,9.8160,M,09,0*72
$GNRMC,070639.30,A,3039.10445411,N,12047.27877257,E,0.892,169.1,170120,5.8,W,D*34
#HEADINGA,COM2,0,40.0,FINE,2088,457617.300,3679685,18,18;SOL_COMPUTED,NARROW_INT,0.4324,159.8882,-13.6823,0.0000,0.6201,1.7146,"999",33,29,29,18,3,01,3,f3*deaa25b5
$GNGGA,070639.40,3039.10442577,N,12047.27878292,E,4,31,0.6,4.4400,M,9.8160,M,09,0*73
$GNRMC,070639.40,A,3039.10442577,N,12047.27878292,E,1.067,162.5,170120,5.8,W,D*3F
#HEADINGA,COM2,0,40.0,FINE,2088,457617.400,3679785,17,18;SOL_COMPUTED,NARROW_INT,0.4303,160.0889,-16.3393,0.0000,0.6311,1.7218,"999",33,29,29,18,3,01,3,f3*a2344c42
$GNGGA,070639.50,3039.10439902,N,12047.27879168,E,4,31,0.6,4.4479,M,9.8160,M,09,0*79
$GNRMC,070639.50,A,3039.10439902,N,12047.27879168,E,0.999,164.2,170120,5.8,W,D*33
#HEADINGA,COM2,0,40.0,FINE,2088,457617.500,3679885,19,18;SOL_COMPUTED,NARROW_INT,0.4302,160.1933,-15.1419,0.0000,0.6273,1.7217,"999",33,29,29,18,3,01,3,f3*e12699ea
$GNGGA,070639.60,3039.10437833,N,12047.27880016,E,4,31,0.6,4.4448,M,9.8160,M,09,0*7B
$GNRMC,070639.60,A,3039.10437833,N,12047.27880016,E,0.788,160.5,170120,5.8,W,D*3E
#HEADINGA,COM2,0,40.0,FINE,2088,457617.600,3679985,16,18;SOL_COMPUTED,NARROW_INT,0.4310,159.7900,-13.7914,0.0000,0.6222,1.7186,"999",33,29,29,18,3,01,3,f3*c60dcdf2
$GNGGA,070639.70,3039.10434824,N,12047.27881313,E,4,31,0.6,4.4445,M,9.8160,M,09,0*75
$GNRMC,070639.70,A,3039.10434824,N,12047.27881313,E,1.153,159.6,170120,5.8,W,D*35
#HEADINGA,COM2,0,40.0,FINE,2088,457617.700,3680085,16,18;SOL_COMPUTED,NARROW_INT,0.4313,159.8573,-15.7251,0.0000,0.6273,1.7150,"999",33,29,29,18,3,01,3,f3*fd1e4fc2
$GNGGA,070639.80,3039.10432497,N,12047.27881965,E,4,31,0.6,4.4469,M,9.8160,M,09,0*7D
$GNRMC,070639.80,A,3039.10432497,N,12047.27881965,E,0.860,166.4,170120,5.8,W,D*35
#HEADINGA,COM2,0,40.0,FINE,2088,457617.800,3680185,16,18;SOL_COMPUTED,NARROW_INT,0.4346,159.7842,-16.0289,0.0000,0.6238,1.7036,"999",33,29,29,18,3,01,3,f3*c176bc33
$GNGGA,070639.90,3039.10429716,N,12047.27882930,E,4,31,0.6,4.4363,M,9.8160,M,09,0*72
$GNRMC,070639.90,A,3039.10429716,N,12047.27882930,E,1.043,163.3,170120,5.8,W,D*3D
#HEADINGA,COM2,0,40.0,FINE,2088,457617.900,3680285,15,18;SOL_COMPUTED,NARROW_INT,0.4298,159.2947,-15.4803,0.0000,0.6281,1.7202,"999",33,29,29,18,3,01,3,f3*853e8776
#REFSTATIONA,COM2,0,40.0,FINE,2088,457606.000,3679586,803,18;00000000,-2811044.342,4717820.352,3232735.546,0,RTCMV3,"0000"*797bce06
$GNGGA,070640.00,3039.10427376,N,12047.27883957,E,4,31,0.6,4.4374,M,9.8160,M,10,0*77
$GNRMC,070640.00,A,3039.10427376,N,12047.27883957,E,0.899,159.2,170120,5.8,W,D*30
#HEADINGA,COM2,0,40.0,FINE,2088,457618.000,3680385,21,18;SOL_COMPUTED,NARROW_INT,0.4302,159.6718,-14.9503,0.0000,0.6270,1.7210,"999",33,29,29,18,3,01,3,f3*1765cc86
$GNGGA,070640.10,3039.10424625,N,12047.27884737,E,4,31,0.6,4.4384,M,9.8160,M,10,0*76
$GNRMC,070640.10,A,3039.10424625,N,12047.27884737,E,1.017,166.2,170120,5.8,W,D*3D
#HEADINGA,COM2,0,40.0,FINE,2088,457618.100,3680485,18,18;SOL_COMPUTED,NARROW_INT,0.4335,159.5399,-16.3252,0.0000,0.6264,1.7104,"999",33,29,29,18,3,01,3,f3*8a0d3891
$GNGGA,070640.20,3039.10422023,N,12047.27886087,E,4,31,0.6,4.4417,M,9.8160,M,10,0*70
$GNRMC,070640.20,A,3039.10422023,N,12047.27886087,E,1.024,155.8,170120,5.8,W,D*3C
#HEADINGA,COM2,0,40.0,FINE,2088,457618.200,3680585,18,18;SOL_COMPUTED,NARROW_INT,0.4350,160.1299,-16.8740,0.0000,0.6261,1.7037,"999",33,29,29,18,3,01,3,f3*825d2602
$GNGGA,070640.30,3039.10419298,N,12047.27887098,E,4,31,0.6,4.4435,M,9.8160,M,09,0*7C
$GNRMC,070640.30,A,3039.10419298,N,12047.27887098,E,1.028,162.2,170120,5.8,W,D*3A
#HEADINGA,COM2,0,40.0,FINE,2088,457618.300,3680685,17,18;SOL_COMPUTED,NARROW_INT,0.4315,160.3915,-15.2300,0.0000,0.6259,1.7172,"999",33,29,29,18,3,01,3,f3*113238bb
$GNGGA,070640.40,3039.10416732,N,12047.27887867,E,4,31,0.6,4.4448,M,9.8160,M,09,0*73
$GNRMC,070640.40,A,3039.10416732,N,12047.27887867,E,0.952,165.5,170120,5.8,W,D*3A
#HEADINGA,COM2,0,40.0,FINE,2088,457618.400,3680785,17,18;SOL_COMPUTED,NARROW_INT,0.4318,160.4777,-17.1685,0.0000,0.6316,1.7157,"999",33,29,29,18,3,01,3,f3*853bc559
$GNGGA,070640.50,3039.10414167,N,12047.27888630,E,4,31,0.6,4.4332,M,9.8160,M,09,0*7F
$GNRMC,070640.50,A,3039.10414167,N,12047.27888630,E,0.951,165.6,170120,5.8,W,D*3C
#HEADINGA,COM2,0,40.0,FINE,2088,457618.500,3680885,17,18;SOL_COMPUTED,NARROW_INT,0.4345,160.4425,-17.4025,0.0000,0.6268,1.7023,"999",33,29,29,18,3,01,3,f3*a6907c0f
$GNGGA,070640.60,3039.10411338,N,12047.27889633,E,4,31,0.6,4.4413,M,9.8160,M,09,0*77
$GNRMC,070640.60,A,3039.10411338,N,12047.27889633,E,1.063,162.9,170120,5.8,W,D*31
#HEADINGA,COM2,0,40.0,FINE,2088,457618.600,3680985,19,18;SOL_COMPUTED,NARROW_INT,0.4285,159.6872,-16.0571,0.0000,0.6312,1.7289,"999",33,29,29,18,3,01,3,f3*2264408e
$GNGGA,070640.70,3039.10409122,N,12047.27890630,E,4,31,0.6,4.4370,M,9.8160,M,09,0*7F
$GNRMC,070640.70,A,3039.10409122,N,12047.27890630,E,0.854,158.8,170120,5.8,W,D*3E
#HEADINGA,COM2,0,40.0,FINE,2088,457618.700,3681084,16,18;SOL_COMPUTED,NARROW_INT,0.4298,160.7322,-14.5700,0.0000,0.6254,1.7216,"999",33,29,29,18,3,01,3,f3*6fa3cc78
$GNGGA,070640.80,3039.10406206,N,12047.27891748,E,4,31,0.6,4.4392,M,9.8160,M,09,0*79
$GNRMC,070640.80,A,3039.10406206,N,12047.27891748,E,1.103,161.7,170120,5.8,W,D*3B
#HEADINGA,COM2,0,40.0,FINE,2088,457618.800,3681184,16,18;SOL_COMPUTED,NARROW_INT,0.4314,160.9643,-15.9676,0.0000,0.6281,1.7149,"999",33,29,29,18,3,01,3,f3*03bc2239
$GNGGA,070640.90,3039.10403868,N,12047.27892558,E,4,31,0.6,4.4350,M,9.8160,M,09,0*71
$GNRMC,070640.90,A,3039.10403868,N,12047.27892558,E,0.876,163.3,170120,5.8,W,D*31
#HEADINGA,COM2,0,40.0,FINE,2088,457618.900,3681284,17,18;SOL_COMPUTED,NARROW_INT,0.4337,160.6692,-14.8639,0.0000,0.6211,1.7057,"999",33,29,29,18,3,01,3,f3*7b13f78b
#REFSTATIONA,COM2,0,40.0,FINE,2088,457606.000,3680585,804,18;00000000,-2811044.342,4717820.352,3232735.546,0,RTCMV3,"0000"*1e91d943
$GNGGA,070641.00,3039.10401344,N,12047.27893239,E,4,31,0.6,4.4377,M,9.8160,M,10,0*72
$GNRMC,070641.00,A,3039.10401344,N,12047.27893239,E,0.931,166.9,170120,5.8,W,D*32
#HEADINGA,COM2,0,40.0,FINE,2088,457619.000,3681384,22,18;SOL_COMPUTED,NARROW_INT,0.4366,160.1310,-16.6973,0.0000,0.6225,1.6944,"999",33,29,29,18,3,01,3,f3*1aec01b5
$GNGGA,070641.10,3039.10399176,N,12047.27893874,E,4,31,0.6,4.4362,M,9.8160,M,10,0*71
$GNRMC,070641.10,A,3039.10399176,N,12047.27893874,E,0.803,165.8,170120,5.8,W,D*37
#HEADINGA,COM2,0,40.0,FINE,2088,457619.100,3681485,17,18;SOL_COMPUTED,NARROW_INT,0.4323,160.1357,-16.6810,0.0000,0.6288,1.7136,"999",33,29,29,18,3,01,3,f3*c636cdc9
$GNGGA,070641.20,3039.10396721,N,12047.27894947,E,4,31,0.6,4.4279,M,9.8160,M,10,0*74
$GNRMC,070641.20,A,3039.10396721,N,12047.27894947,E,0.943,159.3,170120,5.8,W,D*38
#HEADINGA,COM2,0,40.0,FINE,2088,457619.200,3681586,18,18;SOL_COMPUTED,NARROW_INT,0.4326,160.4179,-14.8978,0.0000,0.6229,1.7134,"999",33,29,29,18,3,01,3,f3*fe20897f
$GNGGA,070641.30,3039.10393315,N,12047.27896074,E,4,31,0.6,4.4349,M,9.8160,M,09,0*72
$GNRMC,070641.30,A,3039.10393315,N,12047.27896074,E,1.272,164.0,170120,5.8,W,D*31
#HEADINGA,COM2,0,48.0,FINE,2088,457619.300,3681685,17,18;SOL_COMPUTED,NARROW_INT,0.4351,160.0886,-14.4482,0.0000,0.6483,1.7860,"999",33,28,28,18,3,01,3,f3*a40223f8
$GNGGA,070641.40,3039.10389399,N,12047.27897818,E,4,31,0.6,4.4340,M,9.8160,M,09,0*70
$GNRMC,070641.40,A,3039.10389399,N,12047.27897818,E,1.507,158.9,170120,5.8,W,D*39
#HEADINGA,COM2,0,48.0,FINE,2088,457619.400,3681785,17,18;SOL_COMPUTED,NARROW_INT,0.4363,160.3589,-16.1444,0.0000,0.6520,1.7804,"999",33,28,28,18,3,01,3,f3*53e3351f
$GNGGA,070641.50,3039.10385999,N,12047.27898944,E,4,31,0.6,4.4464,M,9.8160,M,09,0*71
$GNRMC,070641.50,A,3039.10385999,N,12047.27898944,E,1.270,164.0,170120,5.8,W,D*38
#HEADINGA,COM2,0,48.0,FINE,2088,457619.500,3681885,20,18;SOL_COMPUTED,NARROW_INT,0.4341,160.3129,-15.2299,0.0000,0.6528,1.7903,"999",33,28,28,18,3,01,3,f3*a404ba12
$GNGGA,070641.60,3039.10382339,N,12047.27900424,E,4,31,0.6,4.4450,M,9.8160,M,09,0*79
$GNRMC,070641.60,A,3039.10382339,N,12047.27900424,E,1.393,160.7,170120,5.8,W,D*38
#HEADINGA,COM2,0,48.0,FINE,2088,457619.600,3681985,16,18;SOL_COMPUTED,NARROW_INT,0.4331,160.8707,-16.7357,0.0000,0.6590,1.7921,"999",33,28,28,18,3,01,3,f3*34cdaca2
$GNGGA,070641.70,3039.10378940,N,12047.27901574,E,4,31,0.6,4.4460,M,9.8160,M,09,0*7F
$GNRMC,070641.70,A,3039.10378940,N,12047.27901574,E,1.272,163.7,170120,5.8,W,D*30
#HEADINGA,COM2,0,48.0,FINE,2088,457619.700,3682085,16,18;SOL_COMPUTED,NARROW_INT,0.4332,160.7217,-15.4375,0.0000,0.6555,1.7958,"999",33,28,28,18,3,01,3,f3*d35da3f7
$GNGGA,070641.80,3039.10375662,N,12047.27902564,E,4,31,0.6,4.4398,M,9.8160,M,09,0*70
$GNRMC,070641.80,A,3039.10375662,N,12047.27902564,E,1.217,165.4,170120,5.8,W,D*39
#HEADINGA,COM2,0,48.0,FINE,2088,457619.800,3682185,16,18;SOL_COMPUTED,NARROW_INT,0.4348,160.3570,-15.7761,0.0000,0.6538,1.7886,"999",33,28,28,18,3,01,3,f3*0d4df564
$GNGGA,070641.90,3039.10372177,N,12047.27903861,E,4,31,0.6,4.4301,M,9.8160,M,09,0*7C
$GNRMC,070641.90,A,3039.10372177,N,12047.27903861,E,1.315,162.2,170120,5.8,W,D*37
#HEADINGA,COM2,0,48.0,FINE,2088,457619.900,3682284,16,18;SOL_COMPUTED,NARROW_INT,0.4347,160.6550,-15.4295,0.0000,0.6536,1.7881,"999",33,28,28,18,3,01,3,f3*34e7fd4b
#REFSTATIONA,COM2,0,40.0,FINE,2088,457606.000,3681586,803,18;00000000,-2811044.342,4717820.352,3232735.546,0,RTCMV3,"0000"*241a88ec
$GNGGA,070642.00,3039.10368668,N,12047.27905299,E,4,31,0.6,4.4327,M,9.8160,M,10,0*73
$GNRMC,070642.00,A,3039.10368668,N,12047.27905299,E,1.337,160.5,170120,5.8,W,D*31
#HEADINGA,COM2,0,48.0,FINE,2088,457620.000,3682385,21,18;SOL_COMPUTED,NARROW_INT,0.4362,161.4306,-15.4402,0.0000,0.6513,1.7799,"999",33,28,28,18,3,01,3,f3*e660b495
$GNGGA,070642.10,3039.10365319,N,12047.27906552,E,4,31,0.6,4.4354,M,9.8160,M,10,0*7B
$GNRMC,070642.10,A,3039.10365319,N,12047.27906552,E,1.264,162.1,170120,5.8,W,D*3C
#HEADINGA,COM2,0,48.0,FINE,2088,457620.100,3682486,17,18;SOL_COMPUTED,NARROW_INT,0.4318,160.5728,-14.0735,0.0000,0.6531,1.7963,"999",33,28,28,18,3,01,3,f3*9ded244d
$GNGGA,070642.20,3039.10361636,N,12047.27907591,E,4,30,0.6,4.4330,M,9.8160,M,10,0*79
$GNRMC,070642.20,A,3039.10361636,N,12047.27907591,E,1.362,166.3,170120,5.8,W,D*3C
#HEADINGA,COM2,0,48.0,FINE,2088,457620.200,3682586,17,18;SOL_COMPUTED,NARROW_INT,0.4329,160.4290,-15.2098,0.0000,0.6549,1.7920,"999",33,28,28,18,3,01,3,f3*02899649
$GNGGA,070642.30,3039.10358566,N,12047.27909007,E,4,30,0.6,4.4427,M,9.8160,M,10,0*71
$GNRMC,070642.30,A,3039.10358566,N,12047.27909007,E,1.187,158.3,170120,5.8,W,D*31
#HEADINGA,COM2,0,48.0,FINE,2088,457620.300,3682686,17,18;SOL_COMPUTED,NARROW_INT,0.4324,160.7344,-15.8385,0.0000,0.6259,1.7127,"999",33,29,29,18,3,01,3,f3*4cebc41f
$GNGGA,070642.40,3039.10354471,N,12047.27910197,E,4,30,0.6,4.4412,M,9.8160,M,10,0*7B
$GNRMC,070642.40,A,3039.10354471,N,12047.27910197,E,1.517,165.9,170120,5.8,W,D*34
#HEADINGA,COM2,0,48.0,FINE,2088,457620.400,3682786,16,18;SOL_COMPUTED,NARROW_INT,0.4346,160.5184,-16.2465,0.0000,0.6233,1.7014,"999",34,29,29,18,3,01,3,f3*d6889ea0
$GNGGA,070642.50,3039.10351620,N,12047.27911096,E,4,30,0.6,4.4354,M,9.8160,M,10,0*7D
$GNRMC,070642.50,A,3039.10351620,N,12047.27911096,E,1.061,164.8,170120,5.8,W,D*33
#HEADINGA,COM2,0,48.0,FINE,2088,457620.500,3682886,17,18;SOL_COMPUTED,NARROW_INT,0.4350,160.6975,-15.2452,0.0000,0.6198,1.6987,"999",34,29,29,18,3,01,3,f3*5132ad11
$GNGGA,070642.60,3039.10347973,N,12047.27912666,E,4,30,0.6,4.4370,M,9.8160,M,10,0*7C
$GNRMC,070642.60,A,3039.10347973,N,12047.27912666,E,1.398,159.6,170120,5.8,W,D*31
#HEADINGA,COM2,0,48.0,FINE,2088,457620.600,3682985,17,18;SOL_COMPUTED,NARROW_INT,0.4342,161.6943,-15.6527,0.0000,0.6222,1.7015,"999",34,29,29,18,3,01,3,f3*79baeab6
$GNGGA,070642.70,3039.10344395,N,12047.27913476,E,4,30,0.6,4.4460,M,9.8160,M,10,0*78
$GNRMC,070642.70,A,3039.10344395,N,12047.27913476,E,1.310,168.9,170120,5.8,W,D*3E
#HEADINGA,COM2,0,48.0,FINE,2088,457620.700,3683085,19,18;SOL_COMPUTED,NARROW_INT,0.4366,161.6495,-16.4676,0.0000,0.6220,1.6911,"999",34,29,29,18,3,01,3,f3*a35d5946
$GNGGA,070642.80,3039.10340999,N,12047.27914604,E,4,30,0.6,4.4449,M,9.8160,M,10,0*7E
$GNRMC,070642.80,A,3039.10340999,N,12047.27914604,E,1.269,164.0,170120,5.8,W,D*39
#HEADINGA,COM2,0,48.0,FINE,2088,457620.800,3683185,16,18;SOL_COMPUTED,NARROW_INT,0.4353,161.2296,-15.4334,0.0000,0.6197,1.6966,"999",34,29,29,18,3,01,3,f3*3a7f50b2
$GNGGA,070642.90,3039.10337734,N,12047.27915780,E,4,30,0.6,4.4482,M,9.8160,M,10,0*7D
$GNRMC,070642.90,A,3039.10337734,N,12047.27915780,E,1.228,162.7,170120,5.8,W,D*39
#HEADINGA,COM2,0,48.0,FINE,2088,457620.900,3683285,16,18;SOL_COMPUTED,NARROW_INT,0.4353,160.8900,-14.2331,0.0000,0.6162,1.6965,"999",34,29,29,18,3,01,3,f3*853f55ce
#REFSTATIONA,COM2,0,40.0,FINE,2088,457606.000,3681586,1804,18;00000000,-2811044.342,4717820.352,3232735.546,0,RTCMV3,"0000"*00d690b1
$GNGGA,070643.00,3039.10334083,N,12047.27916847,E,4,31,0.6,4.4402,M,9.8160,M,11,0*72
$GNRMC,070643.00,A,3039.10334083,N,12047.27916847,E,1.352,165.8,170120,5.8,W,D*3A
#HEADINGA,COM2,0,48.0,FINE,2088,457621.000,3683385,22,18;SOL_COMPUTED,NARROW_INT,0.4363,160.8420,-15.5615,0.0000,0.6189,1.6923,"999",34,29,29,18,3,01,3,f3*ad5232c3
$GNGGA,070643.10,3039.10330551,N,12047.27918170,E,4,31,0.6,4.4424,M,9.8160,M,11,0*7A
$GNRMC,070643.10,A,3039.10330551,N,12047.27918170,E,1.333,162.1,170120,5.8,W,D*3F
#HEADINGA,COM2,0,48.0,FINE,2088,457621.100,3683485,17,18;SOL_COMPUTED,NARROW_INT,0.4355,160.5658,-15.8924,0.0000,0.6210,1.6955,"999",34,29,29,18,3,01,3,f3*83c318fb
$GNGGA,070643.20,3039.10327439,N,12047.27919237,E,4,31,0.6,4.4443,M,9.8160,M,11,0*70
$GNRMC,070643.20,A,3039.10327439,N,12047.27919237,E,1.166,163.5,170120,5.8,W,D*33
#HEADINGA,COM2,0,48.0,FINE,2088,457621.200,3683586,18,18;SOL_COMPUTED,NARROW_INT,0.4343,160.6874,-16.3902,0.0000,0.6250,1.7028,"999",34,29,29,18,3,01,3,f3*26012852
$GNGGA,070643.30,3039.10323623,N,12047.27920545,E,4,31,0.6,4.4433,M,9.8160,M,11,0*73
$GNRMC,070643.30,A,3039.10323623,N,12047.27920545,E,1.429,163.5,170120,5.8,W,D*39
#HEADINGA,COM2,0,48.0,FINE,2088,457621.300,3683686,17,18;SOL_COMPUTED,NARROW_INT,0.4375,161.4120,-15.9882,0.0000,0.6192,1.6894,"999",34,29,29,18,3,01,3,f3*e3ce3773
$GNGGA,070643.40,3039.10320159,N,12047.27921663,E,4,31,0.6,4.4405,M,9.8160,M,11,0*7E
$GNRMC,070643.40,A,3039.10320159,N,12047.27921663,E,1.292,164.4,170120,5.8,W,D*31
#HEADINGA,COM2,0,48.0,FINE,2088,457621.400,3683786,17,18;SOL_COMPUTED,NARROW_INT,0.4360,160.5751,-16.8158,0.0000,0.6234,1.6951,"999",34,29,29,18,3,01,3,f3*b4426ac5
$GNGGA,070643.50,3039.10316981,N,12047.27922778,E,4,31,0.6,4.4365,M,9.8160,M,11,0*7E
$GNRMC,070643.50,A,3039.10316981,N,12047.27922778,E,1.193,163.1,170120,5.8,W,D*30
#HEADINGA,COM2,0,48.0,FINE,2088,457621.500,3683886,17,18;SOL_COMPUTED,NARROW_INT,0.4347,160.7494,-14.7507,0.0000,0.6188,1.7012,"999",34,29,29,18,3,01,3,f3*69a11351
$GNGGA,070643.60,3039.10313481,N,12047.27924147,E,4,31,0.6,4.4352,M,9.8160,M,11,0*7D
$GNRMC,070643.60,A,3039.10313481,N,12047.27924147,E,1.327,161.3,170120,5.8,W,D*3A
#HEADINGA,COM2,0,48.0,FINE,2088,457621.600,3683985,18,18;SOL_COMPUTED,NARROW_INT,0.4356,160.7409,-14.7082,0.0000,0.6175,1.6972,"999",34,29,29,18,3,01,3,f3*1df300a7
$GNGGA,070643.70,3039.10310112,N,12047.27925286,E,4,31,0.6,4.4421,M,9.8160,M,11,0*7C
$GNRMC,070643.70,A,3039.10310112,N,12047.27925286,E,1.261,163.7,170120,5.8,W,D*3D
