
$GNGGA,020634.90,3039.26814625,N,12047.31933262,E,2,28,0.6,3.5012,M,9.8171,M,02,0*7A
$GNRMC,020634.90,A,3039.26814625,N,12047.31933262,E,0.002,158.1,170120,5.8,W,D*3D
#HEADINGA,COM2,0,40.0,FINE,2088,439612.900,867970,29,18;SOL_COMPUTED,NARROW_INT,0.6160,142.5853,-10.6508,0.0000,0.3140,0.9221,"999",42,39,39,20,3,01,3,f3*9e887305
#REFSTATIONA,COM2,0,40.0,FINE,2088,439610.000,867272,802,18;00000000,-2811023.329,4717645.324,3233007.504,0,RTCMV3,"0000"*fd799e90
$GNGGA,020635.00,3039.26814657,N,12047.31933278,E,2,28,0.6,3.5023,M,9.8171,M,03,0*7F
$GNRMC,020635.00,A,3039.26814657,N,12047.31933278,E,0.005,138.8,170120,5.8,W,D*33
#HEADINGA,COM2,0,40.0,FINE,2088,439613.000,868070,36,18;SOL_COMPUTED,NARROW_INT,0.6146,142.4573,-10.9071,0.0000,0.3153,0.9245,"999",42,39,39,20,3,01,3,f3*a3a9ad57
$GNGGA,020635.10,3039.26814682,N,12047.31933293,E,2,28,0.6,3.5021,M,9.8171,M,03,0*71
$GNRMC,020635.10,A,3039.26814682,N,12047.31933293,E,0.006,167.5,170120,5.8,W,D*3B
#HEADINGA,COM2,0,40.0,FINE,2088,439613.100,868171,30,18;SOL_COMPUTED,NARROW_INT,0.6174,142.3301,-11.2649,0.0000,0.3144,0.9197,"999",42,39,39,20,3,01,3,f3*4e230f98
$GNGGA,020635.20,3039.26814717,N,12047.31933300,E,2,28,0.6,3.5010,M,9.8171,M,03,0*76
$GNRMC,020635.20,A,3039.26814717,N,12047.31933300,E,0.003,214.3,170120,5.8,W,D*3A
#HEADINGA,COM2,0,40.0,FINE,2088,439613.200,868272,31,18;SOL_COMPUTED,NARROW_INT,0.6165,142.3819,-11.0687,0.0000,0.3142,0.9199,"999",42,39,39,20,3,01,3,f3*768a5671
$GNGGA,020635.30,3039.26814693,N,12047.31933282,E,2,28,0.6,3.4983,M,9.8171,M,01,0*71
$GNRMC,020635.30,A,3039.26814693,N,12047.31933282,E,0.005,164.9,170120,5.8,W,D*35
#HEADINGA,COM2,0,40.0,FINE,2088,439613.300,868371,32,18;SOL_COMPUTED,NARROW_INT,0.6165,142.4214,-10.8370,0.0000,0.3142,0.9218,"999",42,39,39,20,3,01,3,f3*e3a78355
$GNGGA,020635.40,3039.26814679,N,12047.31933247,E,2,28,0.6,3.4961,M,9.8171,M,01,0*77
$GNRMC,020635.40,A,3039.26814679,N,12047.31933247,E,0.004,239.2,170120,5.8,W,D*3E
#HEADINGA,COM2,0,40.0,FINE,2088,439613.400,868470,30,18;SOL_COMPUTED,NARROW_INT,0.6158,142.4900,-10.7299,0.0000,0.3142,0.9227,"999",42,39,39,20,3,01,3,f3*822ffc35
$GNGGA,020635.50,3039.26814648,N,12047.31933232,E,2,28,0.6,3.4940,M,9.8171,M,01,0*75
$GNRMC,020635.50,A,3039.26814648,N,12047.31933232,E,0.008,168.2,170120,5.8,W,D*34
#HEADINGA,COM2,0,40.0,FINE,2088,439613.500,868571,30,18;SOL_COMPUTED,NARROW_INT,0.6167,142.4900,-10.9668,0.0000,0.3135,0.9189,"999",42,39,39,20,3,01,3,f3*2208575b
$GNGGA,020635.60,3039.26814604,N,12047.31933216,E,2,28,0.6,3.4915,M,9.8171,M,01,0*78
$GNRMC,020635.60,A,3039.26814604,N,12047.31933216,E,0.013,179.1,170120,5.8,W,D*30
#HEADINGA,COM2,0,40.0,FINE,2088,439613.600,868670,30,18;SOL_COMPUTED,NARROW_INT,0.6153,142.7054,-10.6296,0.0000,0.3134,0.9211,"999",42,39,39,20,3,01,3,f3*494c3cfd
$GNGGA,020635.70,3039.26814568,N,12047.31933162,E,2,28,0.6,3.4904,M,9.8171,M,01,0*70
$GNRMC,020635.70,A,3039.26814568,N,12047.31933162,E,0.016,223.1,170120,5.8,W,D*31
#HEADINGA,COM2,0,40.0,FINE,2088,439613.700,868771,30,18;SOL_COMPUTED,NARROW_INT,0.6166,142.4193,-10.3462,0.0000,0.3131,0.9202,"999",42,39,39,20,3,01,3,f3*a1c72b92
$GNGGA,020635.80,3039.26814563,N,12047.31933107,E,2,28,0.6,3.4895,M,9.8171,M,01,0*7E
$GNRMC,020635.80,A,3039.26814563,N,12047.31933107,E,0.012,264.5,170120,5.8,W,D*35
#HEADINGA,COM2,0,40.0,FINE,2088,439613.800,868871,30,18;SOL_COMPUTED,NARROW_INT,0.6171,142.4687,-11.1900,0.0000,0.3136,0.9180,"999",42,39,39,20,3,01,3,f3*b8069c81
$GNGGA,020635.90,3039.26814564,N,12047.31933084,E,2,28,0.6,3.4870,M,9.8171,M,01,0*79
$GNRMC,020635.90,A,3039.26814564,N,12047.31933084,E,0.005,288.5,170120,5.8,W,D*3D
#HEADINGA,COM2,0,40.0,FINE,2088,439613.900,868970,30,18;SOL_COMPUTED,NARROW_INT,0.6162,142.4746,-11.2119,0.0000,0.3141,0.9194,"999",42,39,39,20,3,01,3,f3*81299bab
#REFSTATIONA,COM2,0,40.0,FINE,2088,439612.000,868272,802,18;00000000,-2811023.329,4717645.324,3233007.504,0,RTCMV3,"0000"*5faa7feb
$GNGGA,020636.00,3039.26814515,N,12047.31933097,E,2,28,0.6,3.4853,M,9.8171,M,02,0*75
$GNRMC,020636.00,A,3039.26814515,N,12047.31933097,E,0.017,152.5,170120,5.8,W,D*34
#HEADINGA,COM2,0,40.0,FINE,2088,439614.000,869070,36,18;SOL_COMPUTED,NARROW_INT,0.6151,142.5973,-10.6673,0.0000,0.3137,0.9216,"999",42,39,39,20,3,01,3,f3*edd5d8c0
$GNGGA,020636.10,3039.26814461,N,12047.31933112,E,2,28,0.6,3.4842,M,9.8171,M,02,0*7A
$GNRMC,020636.10,A,3039.26814461,N,12047.31933112,E,0.019,157.6,170120,5.8,W,D*33
#HEADINGA,COM2,0,40.0,FINE,2088,439614.100,869172,30,18;SOL_COMPUTED,NARROW_INT,0.6162,142.6144,-10.8589,0.0000,0.3140,0.9226,"999",42,38,38,20,3,01,3,f3*64b7d130
$GNGGA,020636.20,3039.26814425,N,12047.31933118,E,2,28,0.6,3.4825,M,9.8171,M,02,0*72
$GNRMC,020636.20,A,3039.26814425,N,12047.31933118,E,0.013,165.1,170120,5.8,W,D*36
#HEADINGA,COM2,0,40.0,FINE,2088,439614.200,869273,31,18;SOL_COMPUTED,NARROW_INT,0.6162,142.4344,-10.8776,0.0000,0.3144,0.9223,"999",42,38,38,20,3,01,3,f3*fb04fb95
$GNGGA,020636.30,3039.26814375,N,12047.31933091,E,2,28,0.6,3.4806,M,9.8171,M,02,0*70
$GNRMC,020636.30,A,3039.26814375,N,12047.31933091,E,0.019,202.5,170120,5.8,W,D*39
#HEADINGA,COM2,0,40.0,FINE,2088,439614.300,869371,30,18;SOL_COMPUTED,NARROW_INT,0.6175,142.3881,-11.2080,0.0000,0.3137,0.9189,"999",42,38,38,20,3,01,3,f3*46eebe9c
$GNGGA,020636.40,3039.26814354,N,12047.31933080,E,2,28,0.6,3.4787,M,9.8171,M,02,0*72
$GNRMC,020636.40,A,3039.26814354,N,12047.31933080,E,0.010,195.2,170120,5.8,W,D*3E
#HEADINGA,COM2,0,40.0,FINE,2088,439614.400,869471,30,18;SOL_COMPUTED,NARROW_INT,0.6183,142.3471,-11.1152,0.0000,0.3137,0.9188,"999",42,38,38,20,3,01,3,f3*57c760e0
$GNGGA,020636.50,3039.26814332,N,12047.31933087,E,2,28,0.6,3.4770,M,9.8171,M,02,0*7C
$GNRMC,020636.50,A,3039.26814332,N,12047.31933087,E,0.009,165.4,170120,5.8,W,D*39
#HEADINGA,COM2,0,40.0,FINE,2088,439614.500,869571,30,18;SOL_COMPUTED,NARROW_INT,0.6189,142.5191,-11.2966,0.0000,0.3125,0.9168,"999",42,38,38,20,3,01,3,f3*19116707
$GNGGA,020636.60,3039.26814309,N,12047.31933089,E,2,28,0.6,3.4771,M,9.8171,M,02,0*78
$GNRMC,020636.60,A,3039.26814309,N,12047.31933089,E,0.009,170.3,170120,5.8,W,D*3F
#HEADINGA,COM2,0,40.0,FINE,2088,439614.600,869671,30,18;SOL_COMPUTED,NARROW_INT,0.6178,142.5863,-10.8439,0.0000,0.3125,0.9194,"999",42,38,38,20,3,01,3,f3*e0c0f5f3
$GNGGA,020636.70,3039.26814281,N,12047.31933064,E,2,28,0.6,3.4761,M,9.8171,M,02,0*7A
$GNRMC,020636.70,A,3039.26814281,N,12047.31933064,E,0.014,217.6,170120,5.8,W,D*37
#HEADINGA,COM2,0,40.0,FINE,2088,439614.700,869771,30,18;SOL_COMPUTED,NARROW_INT,0.6201,142.3607,-11.0970,0.0000,0.3122,0.9159,"999",42,38,38,20,3,01,3,f3*cf401f42
$GNGGA,020636.80,3039.26814261,N,12047.31933053,E,2,28,0.6,3.4761,M,9.8171,M,02,0*7F
$GNRMC,020636.80,A,3039.26814261,N,12047.31933053,E,0.010,202.3,170120,5.8,W,D*37
#HEADINGA,COM2,0,48.0,FINE,2088,439614.800,869871,29,18;SOL_COMPUTED,NARROW_INT,0.6186,142.5359,-11.2222,0.0000,0.3129,0.9181,"999",42,38,38,20,3,01,3,f3*8fb6f821
$GNGGA,020636.90,3039.26814252,N,12047.31933049,E,2,28,0.6,3.4740,M,9.8171,M,02,0*76
$GNRMC,020636.90,A,3039.26814252,N,12047.31933049,E,0.007,218.6,170120,5.8,W,D*35
#HEADINGA,COM2,0,48.0,FINE,2088,439614.900,869970,30,18;SOL_COMPUTED,NARROW_INT,0.6166,142.5135,-11.0676,0.0000,0.3139,0.9214,"999",42,38,38,20,3,01,3,f3*4c29331c
#REFSTATIONA,COM2,0,40.0,FINE,2088,439612.000,869273,802,18;00000000,-2811023.329,4717645.324,3233007.504,0,RTCMV3,"0000"*f1001b8e
$GNGGA,020637.00,3039.26814222,N,12047.31933061,E,2,28,0.6,3.4734,M,9.8171,M,03,0*71
$GNRMC,020637.00,A,3039.26814222,N,12047.31933061,E,0.011,169.3,170120,5.8,W,D*37
#HEADINGA,COM2,0,48.0,FINE,2088,439615.000,870071,36,18;SOL_COMPUTED,NARROW_INT,0.6158,142.5038,-11.0562,0.0000,0.3140,0.9224,"999",42,38,38,20,3,01,3,f3*876c7a79
$GNGGA,020637.10,3039.26814219,N,12047.31933060,E,2,28,0.6,3.4711,M,9.8171,M,03,0*7E
$GNRMC,020637.10,A,3039.26814219,N,12047.31933060,E,0.006,226.6,170120,5.8,W,D*34
#HEADINGA,COM2,0,48.0,FINE,2088,439615.100,870171,31,18;SOL_COMPUTED,NARROW_INT,0.6172,142.4180,-10.7707,0.0000,0.3131,0.9218,"999",42,38,38,20,3,01,3,f3*18bea37f
$GNGGA,020637.20,3039.26814208,N,12047.31933044,E,2,28,0.6,3.4710,M,9.8171,M,03,0*7A
$GNRMC,020637.20,A,3039.26814208,N,12047.31933044,E,0.009,227.4,170120,5.8,W,D*3D
#HEADINGA,COM2,0,48.0,FINE,2088,439615.200,870273,31,18;SOL_COMPUTED,NARROW_INT,0.6181,142.4910,-10.0939,0.0000,0.3117,0.9207,"999",42,38,38,20,3,01,3,f3*e5d7b8b7
$GNGGA,020637.30,3039.26814175,N,12047.31933073,E,2,28,0.6,3.4717,M,9.8171,M,02,0*70
$GNRMC,020637.30,A,3039.26814175,N,12047.31933073,E,0.015,148.8,170120,5.8,W,D*3A
#HEADINGA,COM2,0,48.0,FINE,2088,439615.300,870371,33,18;SOL_COMPUTED,NARROW_INT,0.6152,142.4244,-10.7117,0.0000,0.3138,0.9241,"999",42,38,38,20,3,01,3,f3*aac7a517
$GNGGA,020637.40,3039.26814145,N,12047.31933082,E,2,28,0.6,3.4710,M,9.8171,M,02,0*7D
$GNRMC,020637.40,A,3039.26814145,N,12047.31933082,E,0.012,179.4,170120,5.8,W,D*39
#HEADINGA,COM2,0,48.0,FINE,2088,439615.400,870470,31,18;SOL_COMPUTED,NARROW_INT,0.6176,142.3085,-11.5593,0.0000,0.3140,0.9187,"999",42,38,38,20,3,01,3,f3*394f36de
$GNGGA,020637.50,3039.26814124,N,12047.31933095,E,2,28,0.6,3.4697,M,9.8171,M,02,0*73
$GNRMC,020637.50,A,3039.26814124,N,12047.31933095,E,0.010,178.8,170120,5.8,W,D*36
#HEADINGA,COM2,0,48.0,FINE,2088,439615.500,870571,30,18;SOL_COMPUTED,NARROW_INT,0.6158,142.4637,-10.7673,0.0000,0.3136,0.9231,"999",42,38,38,20,3,01,3,f3*87907f5d
$GNGGA,020637.60,3039.26814109,N,12047.31933103,E,2,28,0.6,3.4669,M,9.8171,M,02,0*70
$GNRMC,020637.60,A,3039.26814109,N,12047.31933103,E,0.009,197.6,170120,5.8,W,D*33
#HEADINGA,COM2,0,48.0,FINE,2088,439615.600,870671,30,18;SOL_COMPUTED,NARROW_INT,0.6170,142.6125,-10.7813,0.0000,0.3127,0.9219,"999",42,38,38,19,3,01,3,f3*6ddc64d1
$GNGGA,020637.70,3039.26814101,N,12047.31933103,E,2,28,0.6,3.4651,M,9.8171,M,02,0*72
$GNRMC,020637.70,A,3039.26814101,N,12047.31933103,E,0.007,217.1,170120,5.8,W,D*38
#HEADINGA,COM2,0,48.0,FINE,2088,439615.700,870771,30,18;SOL_COMPUTED,NARROW_INT,0.6165,142.4664,-10.8261,0.0000,0.3134,0.9230,"999",42,38,38,19,3,01,3,f3*12bb0914
$GNGGA,020637.80,3039.26814089,N,12047.31933098,E,2,28,0.6,3.4631,M,9.8171,M,02,0*79
$GNRMC,020637.80,A,3039.26814089,N,12047.31933098,E,0.009,221.4,170120,5.8,W,D*3B
#HEADINGA,COM2,0,48.0,FINE,2088,439615.800,870871,30,18;SOL_COMPUTED,NARROW_INT,0.6159,142.5606,-10.8513,0.0000,0.3132,0.9218,"999",42,38,38,19,3,01,3,f3*739def23
$GNGGA,020637.90,3039.26814079,N,12047.31933099,E,2,28,0.6,3.4613,M,9.8171,M,02,0*76
$GNRMC,020637.90,A,3039.26814079,N,12047.31933099,E,0.008,215.0,170120,5.8,W,D*36
#HEADINGA,COM2,0,48.0,FINE,2088,439615.900,870970,30,18;SOL_COMPUTED,NARROW_INT,0.6168,142.3651,-11.1774,0.0000,0.3134,0.9200,"999",42,38,38,19,3,01,3,f3*ab5ed8fd
#REFSTATIONA,COM2,0,48.0,FINE,2088,439613.000,870273,802,18;00000000,-2811023.329,4717645.324,3233007.504,0,RTCMV3,"0000"*45f8a4b6
$GNGGA,020638.00,3039.26814058,N,12047.31933106,E,2,28,0.6,3.4603,M,9.8171,M,03,0*74
$GNRMC,020638.00,A,3039.26814058,N,12047.31933106,E,0.011,195.3,170120,5.8,W,D*34
#HEADINGA,COM2,0,48.0,FINE,2088,439616.000,871071,36,18;SOL_COMPUTED,NARROW_INT,0.6170,142.6238,-10.8073,0.0000,0.3122,0.9193,"999",42,38,38,19,3,01,3,f3*ba8175f4
$GNGGA,020638.10,3039.26814020,N,12047.31933111,E,2,28,0.6,3.4596,M,9.8171,M,03,0*73
$GNRMC,020638.10,A,3039.26814020,N,12047.31933111,E,0.017,191.3,170120,5.8,W,D*3E
#HEADINGA,COM2,0,48.0,FINE,2088,439616.100,871172,30,18;SOL_COMPUTED,NARROW_INT,0.6145,142.4573,-10.7252,0.0000,0.3138,0.9236,"999",42,38,38,19,3,01,3,f3*ee03e55d
$GNGGA,020638.20,3039.26813999,N,12047.31933124,E,2,28,0.6,3.4582,M,9.8171,M,03,0*7F
$GNRMC,020638.20,A,3039.26813999,N,12047.31933124,E,0.012,191.0,170120,5.8,W,D*31
#HEADINGA,COM2,0,48.0,FINE,2088,439616.200,871273,31,18;SOL_COMPUTED,NARROW_INT,0.6147,142.6061,-10.4539,0.0000,0.3134,0.9251,"999",42,38,38,19,3,01,3,f3*f0b21189
$GNGGA,020638.30,3039.26813977,N,12047.31933152,E,2,28,0.6,3.4565,M,9.8171,M,01,0*74
$GNRMC,020638.30,A,3039.26813977,N,12047.31933152,E,0.012,160.1,170120,5.8,W,D*3E
#HEADINGA,COM2,0,48.0,FINE,2088,439616.300,871371,33,18;SOL_COMPUTED,NARROW_INT,0.6161,142.7651,-10.4705,0.0000,0.3122,0.9218,"999",42,38,38,19,3,01,3,f3*ad6ee4be
$GNGGA,020638.40,3039.26813949,N,12047.31933167,E,2,28,0.6,3.4552,M,9.8171,M,01,0*7C
$GNRMC,020638.40,A,3039.26813949,N,12047.31933167,E,0.012,179.4,170120,5.8,W,D*3F
#HEADINGA,COM2,0,48.0,FINE,2088,439616.400,871470,30,18;SOL_COMPUTED,NARROW_INT,0.6176,142.5131,-10.7321,0.0000,0.3122,0.9190,"999",42,38,38,19,3,01,3,f3*68d2fafa
$GNGGA,020638.50,3039.26813924,N,12047.31933168,E,2,28,0.6,3.4536,M,9.8171,M,01,0*7B
$GNRMC,020638.50,A,3039.26813924,N,12047.31933168,E,0.013,201.7,170120,5.8,W,D*34
#HEADINGA,COM2,0,48.0,FINE,2088,439616.500,871570,31,18;SOL_COMPUTED,NARROW_INT,0.6164,142.5140,-10.9378,0.0000,0.3130,0.9206,"999",42,38,38,19,3,01,3,f3*c9bda03a
$GNGGA,020638.60,3039.26813904,N,12047.31933177,E,2,28,0.6,3.4530,M,9.8171,M,01,0*72
$GNRMC,020638.60,A,3039.26813904,N,12047.31933177,E,0.011,189.8,170120,5.8,W,D*35
#HEADINGA,COM2,0,48.0,FINE,2088,439616.600,871671,30,18;SOL_COMPUTED,NARROW_INT,0.6166,142.5648,-10.8055,0.0000,0.3124,0.9201,"999",42,38,38,19,3,01,3,f3*b7a54eca
$GNGGA,020638.70,3039.26813897,N,12047.31933195,E,2,28,0.6,3.4521,M,9.8171,M,01,0*74
$GNRMC,020638.70,A,3039.26813897,N,12047.31933195,E,0.006,180.3,170120,5.8,W,D*37
#HEADINGA,COM2,0,48.0,FINE,2088,439616.700,871771,30,18;SOL_COMPUTED,NARROW_INT,0.6181,142.5355,-11.0898,0.0000,0.3122,0.9178,"999",42,38,38,19,3,01,3,f3*d09edd80
$GNGGA,020638.80,3039.26813898,N,12047.31933225,E,2,28,0.6,3.4506,M,9.8171,M,01,0*79
$GNRMC,020638.80,A,3039.26813898,N,12047.31933225,E,0.004,136.0,170120,5.8,W,D*33
#HEADINGA,COM2,0,48.0,FINE,2088,439616.800,871871,30,18;SOL_COMPUTED,NARROW_INT,0.6167,142.5674,-10.5381,0.0000,0.3123,0.9216,"999",42,38,38,19,3,01,3,f3*a7a75148
$GNGGA,020638.90,3039.26813884,N,12047.31933222,E,2,28,0.6,3.4501,M,9.8171,M,01,0*75
$GNRMC,020638.90,A,3039.26813884,N,12047.31933222,E,0.010,220.2,170120,5.8,W,D*3B
#HEADINGA,COM2,0,48.0,FINE,2088,439616.900,871970,30,18;SOL_COMPUTED,NARROW_INT,0.6154,142.6796,-10.2186,0.0000,0.3127,0.9253,"999",42,38,38,19,3,01,3,f3*70419de7
#REFSTATIONA,COM2,0,48.0,FINE,2088,439615.000,871273,801,18;00000000,-2811023.329,4717645.324,3233007.504,0,RTCMV3,"0000"*dffb82f2
$GNGGA,020639.00,3039.26813867,N,12047.31933227,E,2,28,0.6,3.4485,M,9.8171,M,02,0*7B
$GNRMC,020639.00,A,3039.26813867,N,12047.31933227,E,0.010,205.5,170120,5.8,W,D*3B
#HEADINGA,COM2,0,48.0,FINE,2088,439617.000,872070,36,18;SOL_COMPUTED,NARROW_INT,0.6165,142.6289,-10.7253,0.0000,0.3124,0.9210,"999",42,38,38,19,3,01,3,f3*3e813688
$GNGGA,020639.10,3039.26813872,N,12047.31933253,E,2,28,0.6,3.4474,M,9.8171,M,02,0*73
$GNRMC,020639.10,A,3039.26813872,N,12047.31933253,E,0.003,153.0,170120,5.8,W,D*3A
#HEADINGA,COM2,0,48.0,FINE,2088,439617.100,872171,30,18;SOL_COMPUTED,NARROW_INT,0.6179,142.5245,-10.9313,0.0000,0.3120,0.9188,"999",42,38,38,19,3,01,3,f3*c8cdbec8
$GNGGA,020639.20,3039.26813871,N,12047.31933284,E,2,28,0.6,3.4467,M,9.8171,M,02,0*7B
$GNRMC,020639.20,A,3039.26813871,N,12047.31933284,E,0.005,134.6,170120,5.8,W,D*31
#HEADINGA,COM2,0,48.0,FINE,2088,439617.200,872273,31,18;SOL_COMPUTED,NARROW_INT,0.6179,142.5926,-10.6732,0.0000,0.3114,0.9185,"999",42,38,38,19,3,01,3,f3*4acf62be
$GNGGA,020639.30,3039.26813847,N,12047.31933301,E,2,28,0.6,3.4457,M,9.8171,M,02,0*70
$GNRMC,020639.30,A,3039.26813847,N,12047.31933301,E,0.011,190.2,170120,5.8,W,D*36
#HEADINGA,COM2,0,48.0,FINE,2088,439617.300,872371,30,18;SOL_COMPUTED,NARROW_INT,0.6187,142.5077,-11.3829,0.0000,0.3129,0.9405,"999",42,37,37,19,3,01,3,f3*c4a461ca
$GNGGA,020639.40,3039.26813824,N,12047.31933322,E,2,28,0.6,3.4442,M,9.8171,M,02,0*77
$GNRMC,020639.40,A,3039.26813824,N,12047.31933322,E,0.012,184.3,170120,5.8,W,D*32
#HEADINGA,COM2,0,48.0,FINE,2088,439617.400,872472,30,18;SOL_COMPUTED,NARROW_INT,0.6145,142.3968,-11.2112,0.0000,0.3151,0.9477,"999",42,37,37,19,3,01,3,f3*c6ef80d2
$GNGGA,020639.50,3039.26813792,N,12047.31933348,E,2,28,0.6,3.4428,M,9.8171,M,02,0*74
$GNRMC,020639.50,A,3039.26813792,N,12047.31933348,E,0.015,178.5,170120,5.8,W,D*3F
#HEADINGA,COM2,0,48.0,FINE,2088,439617.500,872571,31,18;SOL_COMPUTED,NARROW_INT,0.6159,142.5203,-10.7395,0.0000,0.3137,0.9465,"999",42,37,37,19,3,01,3,f3*587f2f3f
$GNGGA,020639.60,3039.26813798,N,12047.31933354,E,2,28,0.6,3.4401,M,9.8171,M,02,0*7B
$GNRMC,020639.60,A,3039.26813798,N,12047.31933354,E,0.008,244.8,170120,5.8,W,D*36
#HEADINGA,COM2,0,48.0,FINE,2088,439617.600,872671,30,18;SOL_COMPUTED,NARROW_INT,0.6192,142.5339,-11.3151,0.0000,0.3131,0.9405,"999",42,37,37,19,3,01,3,f3*28412337
$GNGGA,020639.70,3039.26813790,N,12047.31933364,E,2,28,0.6,3.4375,M,9.8171,M,02,0*75
$GNRMC,020639.70,A,3039.26813790,N,12047.31933364,E,0.008,218.4,170120,5.8,W,D*39
#HEADINGA,COM2,0,48.0,FINE,2088,439617.700,872771,30,18;SOL_COMPUTED,NARROW_INT,0.6170,142.4153,-11.5385,0.0000,0.3147,0.9441,"999",42,37,37,19,3,01,3,f3*7cc142c0
$GNGGA,020639.80,3039.26813786,N,12047.31933363,E,2,28,0.6,3.4366,M,9.8171,M,02,0*78
$GNRMC,020639.80,A,3039.26813786,N,12047.31933363,E,0.009,233.8,170120,5.8,W,D*32
#HEADINGA,COM2,0,42.0,FINE,2088,439617.800,872871,30,18;SOL_COMPUTED,NARROW_INT,0.6163,142.5185,-11.2151,0.0000,0.3141,0.9451,"999",42,37,37,19,3,01,3,f3*ac201c78
$GNGGA,020639.90,3039.26813776,N,12047.31933393,E,2,28,0.6,3.4364,M,9.8171,M,02,0*7B
$GNRMC,020639.90,A,3039.26813776,N,12047.31933393,E,0.007,162.0,170120,5.8,W,D*32
#HEADINGA,COM2,0,42.0,FINE,2088,439617.900,872970,30,18;SOL_COMPUTED,NARROW_INT,0.6156,142.5240,-11.1168,0.0000,0.3144,0.9470,"999",42,37,37,19,3,01,3,f3*e6b06d49
#REFSTATIONA,COM2,0,48.0,FINE,2088,439615.000,872273,802,18;00000000,-2811023.329,4717645.324,3233007.504,0,RTCMV3,"0000"*c6e49780
$GNGGA,020640.00,3039.26813745,N,12047.31933429,E,2,28,0.6,3.4361,M,9.8171,M,03,0*7E
$GNRMC,020640.00,A,3039.26813745,N,12047.31933429,E,0.014,167.4,170120,5.8,W,D*30
#HEADINGA,COM2,0,42.0,FINE,2088,439618.000,873071,36,18;SOL_COMPUTED,NARROW_INT,0.6167,142.2998,-11.5200,0.0000,0.3146,0.9439,"999",42,37,37,19,3,01,3,f3*49950eb3
$GNGGA,020640.10,3039.26813723,N,12047.31933440,E,2,28,0.6,3.4341,M,9.8171,M,03,0*72
$GNRMC,020640.10,A,3039.26813723,N,12047.31933440,E,0.014,210.3,170120,5.8,W,D*3A
#HEADINGA,COM2,0,42.0,FINE,2088,439618.100,873171,31,18;SOL_COMPUTED,NARROW_INT,0.6144,142.6638,-10.4836,0.0000,0.3138,0.9485,"999",42,37,37,19,3,01,3,f3*a4d0532e
$GNGGA,020640.20,3039.26813717,N,12047.31933441,E,2,28,0.6,3.4322,M,9.8171,M,03,0*72
$GNRMC,020640.20,A,3039.26813717,N,12047.31933441,E,0.012,233.2,170120,5.8,W,D*39
#HEADINGA,COM2,0,42.0,FINE,2088,439618.200,873272,31,18;SOL_COMPUTED,NARROW_INT,0.6175,142.5908,-11.0582,0.0000,0.3129,0.9423,"999",42,37,37,19,3,01,3,f3*d6b0da1d
$GNGGA,020640.30,3039.26813729,N,12047.31933454,E,2,28,0.6,3.4304,M,9.8171,M,02,0*7F
$GNRMC,020640.30,A,3039.26813729,N,12047.31933454,E,0.005,270.2,170120,5.8,W,D*30
#HEADINGA,COM2,0,42.0,FINE,2088,439618.300,873371,32,18;SOL_COMPUTED,NARROW_INT,0.6191,142.4981,-11.3417,0.0000,0.3119,0.9165,"999",42,38,38,19,3,01,3,f3*f675029f
$GNGGA,020640.40,3039.26813724,N,12047.31933490,E,2,28,0.6,3.4294,M,9.8171,M,02,0*75
$GNRMC,020640.40,A,3039.26813724,N,12047.31933490,E,0.006,155.4,170120,5.8,W,D*33
#HEADINGA,COM2,0,42.0,FINE,2088,439618.400,873471,30,18;SOL_COMPUTED,NARROW_INT,0.6162,142.6240,-10.5516,0.0000,0.3124,0.9230,"999",42,38,38,19,3,01,3,f3*1d9137af
$GNGGA,020640.50,3039.26813701,N,12047.31933518,E,2,28,0.6,3.4265,M,9.8171,M,02,0*7C
$GNRMC,020640.50,A,3039.26813701,N,12047.31933518,E,0.011,190.3,170120,5.8,W,D*3C
#HEADINGA,COM2,0,42.0,FINE,2088,439618.500,873571,30,18;SOL_COMPUTED,NARROW_INT,0.6168,142.6341,-10.5692,0.0000,0.3120,0.9213,"999",42,38,38,19,3,01,3,f3*a1a2bcc3
$GNGGA,020640.60,3039.26813690,N,12047.31933577,E,2,28,0.6,3.4257,M,9.8171,M,02,0*7E
$GNRMC,020640.60,A,3039.26813690,N,12047.31933577,E,0.013,128.3,170120,5.8,W,D*3E
#HEADINGA,COM2,0,42.0,FINE,2088,439618.600,873671,30,18;SOL_COMPUTED,NARROW_INT,0.6168,142.6203,-10.5203,0.0000,0.3120,0.9270,"999",42,37,37,19,3,01,3,f3*b22a96e3
$GNGGA,020640.70,3039.26813700,N,12047.31933643,E,2,28,0.6,3.4256,M,9.8171,M,02,0*72
$GNRMC,020640.70,A,3039.26813700,N,12047.31933643,E,0.012,96.3,170120,5.8,W,D*06
#HEADINGA,COM2,0,42.0,FINE,2088,439618.700,873771,30,18;SOL_COMPUTED,NARROW_INT,0.6166,142.7062,-10.5292,0.0000,0.3117,0.9261,"999",42,37,37,19,3,01,3,f3*978a312a
$GNGGA,020640.80,3039.26813715,N,12047.31933684,E,2,28,0.6,3.4236,M,9.8171,M,02,0*74
$GNRMC,020640.80,A,3039.26813715,N,12047.31933684,E,0.003,51.0,170120,5.8,W,D*0E
#HEADINGA,COM2,0,42.0,FINE,2088,439618.800,873871,30,18;SOL_COMPUTED,NARROW_INT,0.6165,142.6705,-10.5013,0.0000,0.3120,0.9278,"999",42,37,37,19,3,01,3,f3*c671c569
$GNGGA,020640.90,3039.26813714,N,12047.31933688,E,2,28,0.6,3.4216,M,9.8171,M,02,0*7A
$GNRMC,020640.90,A,3039.26813714,N,12047.31933688,E,0.009,250.1,170120,5.8,W,D*3A
#HEADINGA,COM2,0,42.0,FINE,2088,439618.900,873970,29,18;SOL_COMPUTED,NARROW_INT,0.6149,142.6468,-10.5612,0.0000,0.3128,0.9291,"999",42,37,37,19,3,01,3,f3*110ea02c
#REFSTATIONA,COM2,0,42.0,FINE,2088,439616.000,873272,803,18;00000000,-2811023.329,4717645.324,3233007.504,0,RTCMV3,"0000"*66c6ae3f
$GNGGA,020641.00,3039.26813715,N,12047.31933699,E,2,28,0.6,3.4215,M,9.8171,M,03,0*71
$GNRMC,020641.00,A,3039.26813715,N,12047.31933699,E,0.006,233.2,170120,5.8,W,D*3A
#HEADINGA,COM2,0,42.0,FINE,2088,439619.000,874071,36,18;SOL_COMPUTED,NARROW_INT,0.6177,142.6711,-10.5816,0.0000,0.3114,0.9255,"999",42,37,37,19,3,01,3,f3*c8d42b09
$GNGGA,020641.10,3039.26813713,N,12047.31933720,E,2,28,0.6,3.4197,M,9.8171,M,03,0*7C
$GNRMC,020641.10,A,3039.26813713,N,12047.31933720,E,0.005,226.9,170120,5.8,W,D*32
#HEADINGA,COM2,0,42.0,FINE,2088,439619.100,874171,30,18;SOL_COMPUTED,NARROW_INT,0.6180,142.5616,-11.1036,0.0000,0.3121,0.9241,"999",42,37,37,19,3,01,3,f3*d85f21d1
$GNGGA,020641.20,3039.26813721,N,12047.31933773,E,2,28,0.6,3.4185,M,9.8171,M,03,0*7B
$GNRMC,020641.20,A,3039.26813721,N,12047.31933773,E,0.006,139.1,170120,5.8,W,D*30
#HEADINGA,COM2,0,42.0,FINE,2088,439619.200,874273,31,18;SOL_COMPUTED,NARROW_INT,0.6160,142.6387,-10.9409,0.0000,0.3127,0.9269,"999",42,37,37,19,3,01,3,f3*8aa81251
$GNGGA,020641.30,3039.26813725,N,12047.31933806,E,2,28,0.6,3.4169,M,9.8171,M,03,0*71
$GNRMC,020641.30,A,3039.26813725,N,12047.31933806,E,0.007,209.8,170120,5.8,W,D*30
#HEADINGA,COM2,0,42.0,FINE,2088,439619.300,874371,30,18;SOL_COMPUTED,NARROW_INT,0.6156,142.6527,-10.6550,0.0000,0.3127,0.9280,"999",42,37,37,19,3,01,3,f3*e62440f8
$GNGGA,020641.40,3039.26813730,N,12047.31933844,E,2,28,0.6,3.4159,M,9.8171,M,03,0*77
$GNRMC,020641.40,A,3039.26813730,N,12047.31933844,E,0.006,186.3,170120,5.8,W,D*3B
#HEADINGA,COM2,0,42.0,FINE,2088,439619.400,874471,31,18;SOL_COMPUTED,NARROW_INT,0.6162,142.5085,-10.6696,0.0000,0.3126,0.9270,"999",42,37,37,19,3,01,3,f3*4ab2f8d8
$GNGGA,020641.50,3039.26813732,N,12047.31933860,E,2,28,0.6,3.4150,M,9.8171,M,03,0*7B
$GNRMC,020641.50,A,3039.26813732,N,12047.31933860,E,0.011,230.3,170120,5.8,W,D*36
#HEADINGA,COM2,0,42.0,FINE,2088,439619.500,874570,31,18;SOL_COMPUTED,NARROW_INT,0.6168,142.5668,-10.6516,0.0000,0.3129,0.9270,"999",42,37,37,19,3,01,3,f3*876bc8b5
$GNGGA,020641.60,3039.26813728,N,12047.31933888,E,2,28,0.6,3.4121,M,9.8171,M,03,0*73
$GNRMC,020641.60,A,3039.26813728,N,12047.31933888,E,0.010,212.4,170120,5.8,W,D*3E
#HEADINGA,COM2,0,42.0,FINE,2088,439619.600,874670,30,18;SOL_COMPUTED,NARROW_INT,0.6162,142.5193,-10.6975,0.0000,0.3133,0.9245,"999",42,38,38,19,3,01,3,f3*dbffb59e
$GNGGA,020641.70,3039.26813724,N,12047.31933918,E,2,28,0.6,3.4097,M,9.8171,M,03,0*7A
$GNRMC,020641.70,A,3039.26813724,N,12047.31933918,E,0.010,203.5,170120,5.8,W,D*3A
#HEADINGA,COM2,0,42.0,FINE,2088,439619.700,874770,30,18;SOL_COMPUTED,NARROW_INT,0.6176,142.5057,-11.1835,0.0000,0.3131,0.9219,"999",42,38,38,19,3,01,3,f3*b4077225
$GNGGA,020641.80,3039.26813726,N,12047.31933993,E,2,28,0.6,3.4069,M,9.8171,M,03,0*75
$GNRMC,020641.80,A,3039.26813726,N,12047.31933993,E,0.011,138.8,170120,5.8,W,D*33
#HEADINGA,COM2,0,42.0,FINE,2088,439619.800,874870,30,18;SOL_COMPUTED,NARROW_INT,0.6152,142.8125,-10.4056,0.0000,0.3130,0.9282,"999",42,38,38,19,3,01,3,f3*a47a3eea
$GNGGA,020641.90,3039.26813735,N,12047.31934064,E,2,28,0.6,3.4058,M,9.8171,M,03,0*72
$GNRMC,020641.90,A,3039.26813735,N,12047.31934064,E,0.009,126.3,170120,5.8,W,D*3B
#HEADINGA,COM2,0,42.0,FINE,2088,439619.900,874970,30,18;SOL_COMPUTED,NARROW_INT,0.6185,142.5698,-10.7313,0.0000,0.3121,0.9226,"999",42,38,38,19,3,01,3,f3*9f0ce041
#REFSTATIONA,COM2,0,42.0,FINE,2088,439616.000,874273,801,18;00000000,-2811023.329,4717645.324,3233007.504,0,RTCMV3,"0000"*06855283
$GNGGA,020642.00,3039.26813743,N,12047.31934103,E,2,28,0.6,3.4050,M,9.8171,M,04,0*76
$GNRMC,020642.00,A,3039.26813743,N,12047.31934103,E,0.006,204.5,170120,5.8,W,D*3A
#HEADINGA,COM2,0,42.0,FINE,2088,439620.000,875070,36,18;SOL_COMPUTED,NARROW_INT,0.6173,142.6224,-10.9171,0.0000,0.3131,0.9242,"999",42,38,38,19,3,01,3,f3*5bc8e0f9
$GNGGA,020642.10,3039.26813733,N,12047.31934151,E,2,28,0.6,3.4036,M,9.8171,M,04,0*77
$GNRMC,020642.10,A,3039.26813733,N,12047.31934151,E,0.011,180.3,170120,5.8,W,D*34
#HEADINGA,COM2,0,42.0,FINE,2088,439620.100,875171,30,18;SOL_COMPUTED,NARROW_INT,0.6192,142.4341,-11.7144,0.0000,0.3127,0.9199,"999",42,38,38,19,3,01,3,f3*3ca997ed
$GNGGA,020642.20,3039.26813729,N,12047.31934203,E,2,28,0.6,3.4021,M,9.8171,M,04,0*7D
$GNRMC,020642.20,A,3039.26813729,N,12047.31934203,E,0.009,176.4,170120,5.8,W,D*3F
#HEADINGA,COM2,0,42.0,FINE,2088,439620.200,875272,31,18;SOL_COMPUTED,NARROW_INT,0.6167,142.6578,-11.0929,0.0000,0.3132,0.9233,"999",42,38,38,19,3,01,3,f3*e68baf00
$GNGGA,020642.30,3039.26813725,N,12047.31934287,E,2,28,0.6,3.4015,M,9.8171,M,02,0*7D
$GNRMC,020642.30,A,3039.26813725,N,12047.31934287,E,0.014,130.5,170120,5.8,W,D*31
#HEADINGA,COM2,0,42.0,FINE,2088,439620.300,875370,33,18;SOL_COMPUTED,NARROW_INT,0.6148,142.7811,-10.4392,0.0000,0.3133,0.9282,"999",42,38,38,19,3,01,3,f3*95603fac
$GNGGA,020642.40,3039.26813704,N,12047.31934369,E,2,28,0.6,3.3995,M,9.8171,M,02,0*7E
$GNRMC,020642.40,A,3039.26813704,N,12047.31934369,E,0.017,144.5,170120,5.8,W,D*34
#HEADINGA,COM2,0,42.0,FINE,2088,439620.400,875470,30,18;SOL_COMPUTED,NARROW_INT,0.6164,142.6953,-10.5996,0.0000,0.3127,0.9241,"999",42,38,38,19,3,01,3,f3*e4ac4f06
$GNGGA,020642.50,3039.26813685,N,12047.31934409,E,2,28,0.6,3.3977,M,9.8171,M,02,0*7A
$GNRMC,020642.50,A,3039.26813685,N,12047.31934409,E,0.015,191.5,170120,5.8,W,D*36
#HEADINGA,COM2,0,42.0,FINE,2088,439620.500,875571,30,18;SOL_COMPUTED,NARROW_INT,0.6173,142.5652,-11.0334,0.0000,0.3129,0.9234,"999",42,38,38,19,3,01,3,f3*b9e98cc6
$GNGGA,020642.60,3039.26813693,N,12047.31934422,E,2,28,0.6,3.3955,M,9.8171,M,02,0*77
$GNRMC,020642.60,A,3039.26813693,N,12047.31934422,E,0.013,245.0,170120,5.8,W,D*32
#HEADINGA,COM2,0,42.0,FINE,2088,439620.600,875670,31,18;SOL_COMPUTED,NARROW_INT,0.6167,142.4968,-10.9836,0.0000,0.3134,0.9250,"999",42,38,38,19,3,01,3,f3*e3eabc54
$GNGGA,020642.70,3039.26813684,N,12047.31934428,E,2,28,0.6,3.3944,M,9.8171,M,02,0*7A
$GNRMC,020642.70,A,3039.26813684,N,12047.31934428,E,0.017,231.1,170120,5.8,W,D*39
#HEADINGA,COM2,0,42.0,FINE,2088,439620.700,875770,30,18;SOL_COMPUTED,NARROW_INT,0.6176,142.6635,-10.8226,0.0000,0.3126,0.9251,"999",42,38,38,19,3,01,3,f3*a994600f
$GNGGA,020642.80,3039.26813678,N,12047.31934475,E,2,28,0.6,3.3925,M,9.8171,M,02,0*79
$GNRMC,020642.80,A,3039.26813678,N,12047.31934475,E,0.010,185.4,170120,5.8,W,D*33
#HEADINGA,COM2,0,37.0,FINE,2088,439620.800,875870,30,18;SOL_COMPUTED,NARROW_INT,0.6158,142.4928,-11.2494,0.0000,0.3142,0.9267,"999",42,38,38,19,3,01,3,f3*e388d8e1
$GNGGA,020642.90,3039.26813680,N,12047.31934529,E,2,28,0.6,3.3914,M,9.8171,M,02,0*75
$GNRMC,020642.90,A,3039.26813680,N,12047.31934529,E,0.008,160.7,170120,5.8,W,D*3C
#HEADINGA,COM2,0,37.0,FINE,2088,439620.900,875970,29,18;SOL_COMPUTED,NARROW_INT,0.6178,142.5019,-10.6171,0.0000,0.3123,0.9233,"999",42,38,38,19,3,01,3,f3*be494034
#REFSTATIONA,COM2,0,42.0,FINE,2088,439618.000,875272,803,18;00000000,-2811023.329,4717645.324,3233007.504,0,RTCMV3,"0000"*54e5f6a9
$GNGGA,020643.00,3039.26813681,N,12047.31934592,E,2,28,0.6,3.3906,M,9.8171,M,03,0*7E
$GNRMC,020643.00,A,3039.26813681,N,12047.31934592,E,0.008,144.5,170120,5.8,W,D*31
#HEADINGA,COM2,0,37.0,FINE,2088,439621.000,876071,37,18;SOL_COMPUTED,NARROW_INT,0.6178,142.6654,-11.0886,0.0000,0.3128,0.9247,"999",42,38,38,19,3,01,3,f3*825559f2
$GNGGA,020643.10,3039.26813675,N,12047.31934654,E,2,28,0.6,3.3880,M,9.8171,M,03,0*72
$GNRMC,020643.10,A,3039.26813675,N,12047.31934654,E,0.009,165.3,170120,5.8,W,D*36
#HEADINGA,COM2,0,37.0,FINE,2088,439621.100,876171,30,18;SOL_COMPUTED,NARROW_INT,0.6156,142.5314,-10.9091,0.0000,0.3141,0.9290,"999",42,38,38,19,3,01,3,f3*f8117d92
$GNGGA,020643.20,3039.26813650,N,12047.31934683,E,2,28,0.6,3.3846,M,9.8171,M,03,0*76
$GNRMC,020643.20,A,3039.26813650,N,12047.31934683,E,0.017,205.8,170120,5.8,W,D*39
#HEADINGA,COM2,0,37.0,FINE,2088,439621.200,876272,31,18;SOL_COMPUTED,NARROW_INT,0.6178,142.6497,-10.4427,0.0000,0.3122,0.9260,"999",42,38,38,19,3,01,3,f3*d6a529b3
$GNGGA,020643.30,3039.26813643,N,12047.31934723,E,2,28,0.6,3.3823,M,9.8171,M,03,0*7D
$GNRMC,020643.30,A,3039.26813643,N,12047.31934723,E,0.012,195.4,170120,5.8,W,D*32
#HEADINGA,COM2,0,37.0,FINE,2088,439621.300,876370,30,18;SOL_COMPUTED,NARROW_INT,0.6175,142.6276,-11.2350,0.0000,0.3131,0.9249,"999",42,38,38,19,3,01,3,f3*5fdbb1dd
$GNGGA,020643.40,3039.26813612,N,12047.31934773,E,2,28,0.6,3.3810,M,9.8171,M,03,0*7B
$GNRMC,020643.40,A,3039.26813612,N,12047.31934773,E,0.019,176.5,170120,5.8,W,D*33
#HEADINGA,COM2,0,37.0,FINE,2088,439621.400,876470,29,18;SOL_COMPUTED,NARROW_INT,0.6174,142.6464,-10.9227,0.0000,0.3131,0.9270,"999",42,38,38,19,3,01,3,f3*64af4963
$GNGGA,020643.50,3039.26813605,N,12047.31934846,E,2,28,0.6,3.3787,M,9.8171,M,03,0*74
$GNRMC,020643.50,A,3039.26813605,N,12047.31934846,E,0.014,148.6,170120,5.8,W,D*3E
#HEADINGA,COM2,0,37.0,FINE,2088,439621.500,876570,30,18;SOL_COMPUTED,NARROW_INT,0.6165,142.6711,-10.7513,0.0000,0.3133,0.9260,"999",42,38,38,19,3,01,3,f3*035e16a2
$GNGGA,020643.60,3039.26813609,N,12047.31934915,E,2,28,0.6,3.3770,M,9.8171,M,03,0*74
$GNRMC,020643.60,A,3039.26813609,N,12047.31934915,E,0.010,135.2,170120,5.8,W,D*3C
#HEADINGA,COM2,0,37.0,FINE,2088,439621.600,876671,29,18;SOL_COMPUTED,NARROW_INT,0.6176,142.6249,-10.7496,0.0000,0.3130,0.9262,"999",42,38,38,19,3,01,3,f3*c9d8b54b
$GNGGA,020643.70,3039.26813628,N,12047.31934957,E,2,28,0.6,3.3764,M,9.8171,M,03,0*75
$GNRMC,020643.70,A,3039.26813628,N,12047.31934957,E,0.002,198.7,170120,5.8,W,D*39
#HEADINGA,COM2,0,37.0,FINE,2088,439621.700,876771,30,18;SOL_COMPUTED,NARROW_INT,0.6167,142.7730,-10.7555,0.0000,0.3131,0.9265,"999",42,38,38,19,3,01,3,f3*038b346d
$GNGGA,020643.80,3039.26813620,N,12047.31934976,E,2,28,0.6,3.3746,M,9.8171,M,03,0*71
$GNRMC,020643.80,A,3039.26813620,N,12047.31934976,E,0.011,215.9,170120,5.8,W,D*37
#HEADINGA,COM2,0,37.0,FINE,2088,439621.800,876870,30,18;SOL_COMPUTED,NARROW_INT,0.6153,142.5775,-10.7554,0.0000,0.3141,0.9288,"999",42,38,38,19,3,01,3,f3*237aa428
$GNGGA,020643.90,3039.26813611,N,12047.31934986,E,2,28,0.6,3.3746,M,9.8171,M,03,0*7D
$GNRMC,020643.90,A,3039.26813611,N,12047.31934986,E,0.013,218.1,170120,5.8,W,D*3C
#HEADINGA,COM2,0,37.0,FINE,2088,439621.900,876970,30,18;SOL_COMPUTED,NARROW_INT,0.6159,142.7164,-10.4207,0.0000,0.3133,0.9298,"999",42,38,38,19,3,01,3,f3*32af87a2
#REFSTATIONA,COM2,0,37.0,FINE,2088,439618.000,876272,802,18;00000000,-2811023.329,4717645.324,3233007.504,0,RTCMV3,"0000"*b82a3f72
$GNGGA,020644.00,3039.26813601,N,12047.31935014,E,2,28,0.6,3.3736,M,9.8171,M,04,0*71
$GNRMC,020644.00,A,3039.26813601,N,12047.31935014,E,0.013,210.2,170120,5.8,W,D*3B
#HEADINGA,COM2,0,37.0,FINE,2088,439622.000,877070,36,18;SOL_COMPUTED,NARROW_INT,0.6168,142.5027,-10.8795,0.0000,0.3134,0.9258,"999",42,38,38,19,3,01,3,f3*e663864b
$GNGGA,020644.10,3039.26813581,N,12047.31935061,E,2,28,0.6,3.3719,M,9.8171,M,04,0*74
$GNRMC,020644.10,A,3039.26813581,N,12047.31935061,E,0.014,172.4,170120,5.8,W,D*35
#HEADINGA,COM2,0,37.0,FINE,2088,439622.100,877171,31,18;SOL_COMPUTED,NARROW_INT,0.6177,142.5142,-10.9226,0.0000,0.3131,0.9250,"999",42,38,38,19,3,01,3,f3*f83a7d74
$GNGGA,020644.20,3039.26813572,N,12047.31935088,E,2,28,0.6,3.3692,M,9.8171,M,04,0*7E
$GNRMC,020644.20,A,3039.26813572,N,12047.31935088,E,0.014,216.8,170120,5.8,W,D*30
#HEADINGA,COM2,0,37.0,FINE,2088,439622.200,877273,30,18;SOL_COMPUTED,NARROW_INT,0.6166,142.6706,-10.7580,0.0000,0.3134,0.9294,"999",42,38,38,19,3,01,3,f3*8b9a6e30
$GNGGA,020644.30,3039.26813560,N,12047.31935119,E,2,28,0.6,3.3677,M,9.8171,M,04,0*7E
$GNRMC,020644.30,A,3039.26813560,N,12047.31935119,E,0.013,202.0,170120,5.8,W,D*31
#HEADINGA,COM2,0,37.0,FINE,2088,439622.300,877370,30,18;SOL_COMPUTED,NARROW_INT,0.6164,142.5791,-10.5053,0.0000,0.3129,0.9285,"999",42,38,38,19,3,01,3,f3*210a21aa
$GNGGA,020644.40,3039.26813546,N,12047.31935173,E,2,28,0.6,3.3663,M,9.8171,M,04,0*74
$GNRMC,020644.40,A,3039.26813546,N,12047.31935173,E,0.013,168.9,170120,5.8,W,D*38
#HEADINGA,COM2,0,37.0,FINE,2088,439622.400,877470,30,18;SOL_COMPUTED,NARROW_INT,0.6174,142.6772,-10.4695,0.0000,0.3121,0.9254,"999",42,38,38,19,3,01,3,f3*35a16bcc
$GNGGA,020644.50,3039.26813538,N,12047.31935227,E,2,28,0.6,3.3636,M,9.8171,M,04,0*7E
$GNRMC,020644.50,A,3039.26813538,N,12047.31935227,E,0.011,174.0,170120,5.8,W,D*34
#HEADINGA,COM2,0,37.0,FINE,2088,439622.500,877571,30,18;SOL_COMPUTED,NARROW_INT,0.6200,142.4876,-11.3925,0.0000,0.3130,0.9450,"999",42,37,37,19,3,01,3,f3*23031353
$GNGGA,020644.60,3039.26813533,N,12047.31935264,E,2,28,0.6,3.3613,M,9.8171,M,04,0*76
$GNRMC,020644.60,A,3039.26813533,N,12047.31935264,E,0.011,200.7,170120,5.8,W,D*3C
#HEADINGA,COM2,0,37.0,FINE,2088,439622.600,877671,29,18;SOL_COMPUTED,NARROW_INT,0.6173,142.6324,-11.4621,0.0000,0.3149,0.9503,"999",42,37,37,19,3,01,3,f3*db48be51
$GNGGA,020644.70,3039.26813524,N,12047.31935286,E,2,28,0.6,3.3590,M,9.8171,M,04,0*75
$GNRMC,020644.70,A,3039.26813524,N,12047.31935286,E,0.013,217.5,170120,5.8,W,D*31
#HEADINGA,COM2,0,37.0,FINE,2088,439622.700,877771,29,18;SOL_COMPUTED,NARROW_INT,0.6161,142.4562,-11.0460,0.0000,0.3150,0.9529,"999",42,37,37,19,3,01,3,f3*3155b6be
$GNGGA,020644.80,3039.26813503,N,12047.31935326,E,2,28,0.6,3.3574,M,9.8171,M,04,0*7E
$GNRMC,020644.80,A,3039.26813503,N,12047.31935326,E,0.015,187.4,170120,5.8,W,D*3D
#HEADINGA,COM2,0,37.0,FINE,2088,439622.800,877871,30,18;SOL_COMPUTED,NARROW_INT,0.6162,142.6063,-10.9027,0.0000,0.3148,0.9523,"999",42,37,37,19,3,01,3,f3*e73873a2
$GNGGA,020644.90,3039.26813492,N,12047.31935384,E,2,28,0.6,3.3577,M,9.8171,M,04,0*7D
$GNRMC,020644.90,A,3039.26813492,N,12047.31935384,E,0.014,157.3,170120,5.8,W,D*36
#HEADINGA,COM2,0,37.0,FINE,2088,439622.900,877970,29,18;SOL_COMPUTED,NARROW_INT,0.6181,142.5864,-11.4395,0.0000,0.3144,0.9488,"999",42,37,37,19,3,01,3,f3*8c0bf65d
#REFSTATIONA,COM2,0,37.0,FINE,2088,439618.000,876272,1802,18;00000000,-2811023.329,4717645.324,3233007.504,0,RTCMV3,"0000"*9fea9ae7
$GNGGA,020645.00,3039.26813466,N,12047.31935465,E,2,28,0.6,3.3576,M,9.8171,M,05,0*76
$GNRMC,020645.00,A,3039.26813466,N,12047.31935465,E,0.020,146.2,170120,5.8,W,D*3B
#HEADINGA,COM2,0,37.0,FINE,2088,439623.000,878070,36,18;SOL_COMPUTED,NARROW_INT,0.6157,142.4155,-11.3755,0.0000,0.3159,0.9524,"999",42,37,37,19,3,01,3,f3*834ccb0f
$GNGGA,020645.10,3039.26813445,N,12047.31935522,E,2,28,0.6,3.3558,M,9.8171,M,05,0*78
$GNRMC,020645.10,A,3039.26813445,N,12047.31935522,E,0.016,168.9,170120,5.8,W,D*3B
#HEADINGA,COM2,0,37.0,FINE,2088,439623.100,878171,30,18;SOL_COMPUTED,NARROW_INT,0.6172,142.5902,-11.4275,0.0000,0.3145,0.9502,"999",42,37,37,19,3,01,3,f3*9a95a53d
$GNGGA,020645.20,3039.26813431,N,12047.31935549,E,2,28,0.6,3.3535,M,9.8171,M,05,0*7E
$GNRMC,020645.20,A,3039.26813431,N,12047.31935549,E,0.015,205.1,170120,5.8,W,D*35
#HEADINGA,COM2,0,37.0,FINE,2088,439623.200,878272,31,18;SOL_COMPUTED,NARROW_INT,0.6145,142.7855,-10.4318,0.0000,0.3144,0.9561,"999",42,37,37,19,3,01,3,f3*e001111e
$GNGGA,020645.30,3039.26813408,N,12047.31935587,E,2,28,0.6,3.3516,M,9.8171,M,02,0*71
$GNRMC,020645.30,A,3039.26813408,N,12047.31935587,E,0.015,184.2,170120,5.8,W,D*35
#HEADINGA,COM2,0,37.0,FINE,2088,439623.300,878371,32,18;SOL_COMPUTED,NARROW_INT,0.6155,142.6330,-10.5741,0.0000,0.3144,0.9544,"999",42,37,37,20,3,01,3,f3*71104830
$GNGGA,020645.40,3039.26813424,N,12047.31935615,E,2,28,0.6,3.3496,M,9.8171,M,02,0*79
$GNRMC,020645.40,A,3039.26813424,N,12047.31935615,E,0.005,240.8,170120,5.8,W,D*34
#HEADINGA,COM2,0,37.0,FINE,2088,439623.400,878470,31,18;SOL_COMPUTED,NARROW_INT,0.6169,142.1860,-12.1381,0.0000,0.3163,0.9492,"999",42,37,37,20,3,01,3,f3*c37c782f
$GNGGA,020645.50,3039.26813441,N,12047.31935658,E,2,28,0.6,3.3485,M,9.8171,M,02,0*70
$GNRMC,020645.50,A,3039.26813441,N,12047.31935658,E,0.002,124.2,170120,5.8,W,D*33
#HEADINGA,COM2,0,37.0,FINE,2088,439623.500,878571,30,18;SOL_COMPUTED,NARROW_INT,0.6182,142.4533,-11.4334,0.0000,0.3113,0.9290,"999",42,37,37,19,3,01,3,f3*b34dc0e9
$GNGGA,020645.60,3039.26813434,N,12047.31935708,E,2,28,0.6,3.3478,M,9.8171,M,02,0*77
$GNRMC,020645.60,A,3039.26813434,N,12047.31935708,E,0.009,157.5,170120,5.8,W,D*3E
#HEADINGA,COM2,0,37.0,FINE,2088,439623.600,878671,30,18;SOL_COMPUTED,NARROW_INT,0.6190,142.2956,-12.1412,0.0000,0.3121,0.9271,"999",42,37,37,19,3,01,3,f3*3042385c
$GNGGA,020645.70,3039.26813434,N,12047.31935721,E,2,28,0.6,3.3463,M,9.8171,M,02,0*77
$GNRMC,020645.70,A,3039.26813434,N,12047.31935721,E,0.012,231.2,170120,5.8,W,D*3A
#HEADINGA,COM2,0,37.0,FINE,2088,439623.700,878771,30,18;SOL_COMPUTED,NARROW_INT,0.6182,142.3363,-11.6923,0.0000,0.3119,0.9294,"999",42,37,37,19,3,01,3,f3*17c9854d
$GNGGA,020645.80,3039.26813422,N,12047.31935748,E,2,28,0.6,3.3461,M,9.8171,M,02,0*72
$GNRMC,020645.80,A,3039.26813422,N,12047.31935748,E,0.011,196.6,170120,5.8,W,D*34
#HEADINGA,COM2,0,37.0,FINE,2088,439623.800,878871,30,18;SOL_COMPUTED,NARROW_INT,0.6176,142.2891,-11.9534,0.0000,0.3126,0.9296,"999",42,37,37,19,3,01,3,f3*c7f03539
$GNGGA,020645.90,3039.26813446,N,12047.31935795,E,2,28,0.6,3.3445,M,9.8171,M,02,0*77
$GNRMC,020645.90,A,3039.26813446,N,12047.31935795,E,0.002,49.5,170120,5.8,W,D*05
#HEADINGA,COM2,0,51.0,FINE,2088,439623.900,878970,29,18;SOL_COMPUTED,NARROW_INT,0.6189,142.5042,-11.6483,0.0000,0.3111,0.9281,"999",42,37,37,19,3,01,3,f3*33b8da15
#REFSTATIONA,COM2,0,37.0,FINE,2088,439621.000,878272,802,18;00000000,-2811023.329,4717645.324,3233007.504,0,RTCMV3,"0000"*0348f506
$GNGGA,020646.00,3039.26813424,N,12047.31935841,E,2,28,0.6,3.3434,M,9.8171,M,03,0*78
$GNRMC,020646.00,A,3039.26813424,N,12047.31935841,E,0.012,172.1,170120,5.8,W,D*31
#HEADINGA,COM2,0,51.0,FINE,2088,439624.000,879070,36,18;SOL_COMPUTED,NARROW_INT,0.6181,142.4468,-11.4167,0.0000,0.3114,0.9296,"999",42,37,37,19,3,01,3,f3*7e92a165
$GNGGA,020646.10,3039.26813423,N,12047.31935884,E,2,28,0.6,3.3414,M,9.8171,M,03,0*75
$GNRMC,020646.10,A,3039.26813423,N,12047.31935884,E,0.008,179.1,170120,5.8,W,D*3E
#HEADINGA,COM2,0,51.0,FINE,2088,439624.100,879171,30,18;SOL_COMPUTED,NARROW_INT,0.6186,142.4226,-11.5780,0.0000,0.3113,0.9286,"999",42,37,37,19,3,01,3,f3*cfb20fcf
$GNGGA,020646.20,3039.26813405,N,12047.31935912,E,2,28,0.6,3.3406,M,9.8171,M,03,0*7F
$GNRMC,020646.20,A,3039.26813405,N,12047.31935912,E,0.013,193.6,170120,5.8,W,D*3E
#HEADINGA,COM2,0,51.0,FINE,2088,439624.200,879273,30,18;SOL_COMPUTED,NARROW_INT,0.6176,142.3658,-11.7326,0.0000,0.3121,0.9297,"999",42,37,37,19,3,01,3,f3*1be0aac2
$GNGGA,020646.30,3039.26813407,N,12047.31935941,E,2,28,0.6,3.3399,M,9.8171,M,03,0*7B
$GNRMC,020646.30,A,3039.26813407,N,12047.31935941,E,0.006,203.1,170120,5.8,W,D*32
#HEADINGA,COM2,0,51.0,FINE,2088,439624.300,879371,30,18;SOL_COMPUTED,NARROW_INT,0.6194,142.3974,-11.6858,0.0000,0.3112,0.9276,"999",42,37,37,19,3,01,3,f3*a37d6800
$GNGGA,020646.40,3039.26813417,N,12047.31935971,E,2,28,0.6,3.3386,M,9.8171,M,03,0*70
$GNRMC,020646.40,A,3039.26813417,N,12047.31935971,E,0.004,232.1,170120,5.8,W,D*37
#HEADINGA,COM2,0,51.0,FINE,2088,439624.400,879471,30,18;SOL_COMPUTED,NARROW_INT,0.6178,142.4143,-11.7473,0.0000,0.3123,0.9337,"999",42,36,36,19,3,01,3,f3*aa415995
$GNGGA,020646.50,3039.26813407,N,12047.31936008,E,2,28,0.6,3.3364,M,9.8171,M,03,0*78
$GNRMC,020646.50,A,3039.26813407,N,12047.31936008,E,0.009,188.9,170120,5.8,W,D*34
#HEADINGA,COM2,0,51.0,FINE,2088,439624.500,879571,30,18;SOL_COMPUTED,NARROW_INT,0.6178,142.3617,-11.2014,0.0000,0.3109,0.9102,"999",42,37,37,19,3,01,3,f3*50352990
$GNGGA,020646.60,3039.26813394,N,12047.31936042,E,2,28,0.6,3.3360,M,9.8171,M,03,0*7C
$GNRMC,020646.60,A,3039.26813394,N,12047.31936042,E,0.010,183.7,170120,5.8,W,D*39
#HEADINGA,COM2,0,51.0,FINE,2088,439624.600,879671,29,18;SOL_COMPUTED,NARROW_INT,0.6175,142.4787,-11.4026,0.0000,0.3110,0.9098,"999",42,37,37,19,3,01,3,f3*cb97fe6f
$GNGGA,020646.70,3039.26813392,N,12047.31936064,E,2,28,0.6,3.3348,M,9.8171,M,03,0*75
$GNRMC,020646.70,A,3039.26813392,N,12047.31936064,E,0.009,216.9,170120,5.8,W,D*33
#HEADINGA,COM2,0,51.0,FINE,2088,439624.700,879771,30,18;SOL_COMPUTED,NARROW_INT,0.6181,142.3092,-11.2586,0.0000,0.3110,0.9099,"999",42,37,37,19,3,01,3,f3*2d33ec3b
$GNGGA,020646.80,3039.26813395,N,12047.31936090,E,2,28,0.6,3.3336,M,9.8171,M,03,0*7F
$GNRMC,020646.80,A,3039.26813395,N,12047.31936090,E,0.007,219.2,170120,5.8,W,D*3A
#HEADINGA,COM2,0,51.0,FINE,2088,439624.800,879870,30,18;SOL_COMPUTED,NARROW_INT,0.6191,142.6173,-10.7604,0.0000,0.3094,0.9102,"999",42,37,37,19,3,01,3,f3*2bf9fa2c
$GNGGA,020646.90,3039.26813402,N,12047.31936108,E,2,28,0.6,3.3324,M,9.8171,M,03,0*74
$GNRMC,020646.90,A,3039.26813402,N,12047.31936108,E,0.008,243.8,170120,5.8,W,D*38
#HEADINGA,COM2,0,51.0,FINE,2088,439624.900,879970,29,18;SOL_COMPUTED,NARROW_INT,0.6196,142.4618,-11.4412,0.0000,0.3102,0.9082,"999",42,37,37,19,3,01,3,f3*4b7a520c
#REFSTATIONA,COM2,0,51.0,FINE,2088,439621.000,879273,801,18;00000000,-2811023.329,4717645.324,3233007.504,0,RTCMV3,"0000"*01b0db4d
$GNGGA,020647.00,3039.26813378,N,12047.31936142,E,2,28,0.6,3.3322,M,9.8171,M,04,0*79
$GNRMC,020647.00,A,3039.26813378,N,12047.31936142,E,0.012,174.3,170120,5.8,W,D*33
#HEADINGA,COM2,0,51.0,FINE,2088,439625.000,880070,37,18;SOL_COMPUTED,NARROW_INT,0.6191,142.3620,-11.9048,0.0000,0.3112,0.9079,"999",42,37,37,19,3,01,3,f3*0b9dac5a
$GNGGA,020647.10,3039.26813373,N,12047.31936199,E,2,28,0.6,3.3315,M,9.8171,M,04,0*71
$GNRMC,020647.10,A,3039.26813373,N,12047.31936199,E,0.010,132.1,170120,5.8,W,D*3D
#HEADINGA,COM2,0,51.0,FINE,2088,439625.100,880171,30,18;SOL_COMPUTED,NARROW_INT,0.6179,142.5822,-11.3734,0.0000,0.3108,0.9104,"999",42,37,37,19,3,01,3,f3*d1c7e6d4
$GNGGA,020647.20,3039.26813354,N,12047.31936242,E,2,28,0.6,3.3302,M,9.8171,M,04,0*74
$GNRMC,020647.20,A,3039.26813354,N,12047.31936242,E,0.011,164.7,170120,5.8,W,D*3A
#HEADINGA,COM2,0,51.0,FINE,2088,439625.200,880273,31,18;SOL_COMPUTED,NARROW_INT,0.6187,142.4936,-11.7168,0.0000,0.3116,0.9320,"999",42,36,36,19,3,01,3,f3*39fc4e89
$GNGGA,020647.30,3039.26813350,N,12047.31936251,E,2,28,0.6,3.3288,M,9.8171,M,03,0*77
$GNRMC,020647.30,A,3039.26813350,N,12047.31936251,E,0.010,234.1,170120,5.8,W,D*3C
#HEADINGA,COM2,0,51.0,FINE,2088,439625.300,880370,32,18;SOL_COMPUTED,NARROW_INT,0.6186,142.3883,-11.4363,0.0000,0.3107,0.9093,"999",42,37,37,19,3,01,3,f3*5ed0e969
$GNGGA,020647.40,3039.26813342,N,12047.31936260,E,2,28,0.6,3.3262,M,9.8171,M,03,0*75
$GNRMC,020647.40,A,3039.26813342,N,12047.31936260,E,0.011,233.5,170120,5.8,W,D*38
#HEADINGA,COM2,0,51.0,FINE,2088,439625.400,880470,30,18;SOL_COMPUTED,NARROW_INT,0.6180,142.4213,-11.5321,0.0000,0.3111,0.9098,"999",42,37,37,19,3,01,3,f3*89a92de4
$GNGGA,020647.50,3039.26813320,N,12047.31936278,E,2,28,0.6,3.3259,M,9.8171,M,03,0*71
$GNRMC,020647.50,A,3039.26813320,N,12047.31936278,E,0.012,198.2,170120,5.8,W,D*32
#HEADINGA,COM2,0,51.0,FINE,2088,439625.500,880570,31,18;SOL_COMPUTED,NARROW_INT,0.6176,142.4441,-11.5402,0.0000,0.3110,0.9102,"999",42,37,37,19,3,01,3,f3*a1e6ad84
$GNGGA,020647.60,3039.26813311,N,12047.31936317,E,2,28,0.6,3.3253,M,9.8171,M,03,0*72
$GNRMC,020647.60,A,3039.26813311,N,12047.31936317,E,0.008,164.1,170120,5.8,W,D*30
#HEADINGA,COM2,0,51.0,FINE,2088,439625.600,880670,30,18;SOL_COMPUTED,NARROW_INT,0.6155,142.5496,-10.8433,0.0000,0.3136,0.9316,"999",42,37,37,20,3,01,3,f3*1166701c
$GNGGA,020647.70,3039.26813305,N,12047.31936365,E,2,28,0.6,3.3244,M,9.8171,M,03,0*75
$GNRMC,020647.70,A,3039.26813305,N,12047.31936365,E,0.007,142.1,170120,5.8,W,D*3A
#HEADINGA,COM2,0,51.0,FINE,2088,439625.700,880770,30,18;SOL_COMPUTED,NARROW_INT,0.6173,142.6231,-10.5965,0.0000,0.3123,0.9295,"999",42,37,37,20,3,01,3,f3*d7db68d8
$GNGGA,020647.80,3039.26813267,N,12047.31936400,E,2,28,0.6,3.3230,M,9.8171,M,03,0*78
$GNRMC,020647.80,A,3039.26813267,N,12047.31936400,E,0.015,178.8,170120,5.8,W,D*37
#HEADINGA,COM2,0,51.0,FINE,2088,439625.800,880870,30,18;SOL_COMPUTED,NARROW_INT,0.6168,142.5545,-11.2626,0.0000,0.3133,0.9290,"999",42,37,37,20,3,01,3,f3*8fa31291
$GNGGA,020647.90,3039.26813246,N,12047.31936409,E,2,28,0.6,3.3210,M,9.8171,M,03,0*71
$GNRMC,020647.90,A,3039.26813246,N,12047.31936409,E,0.014,214.2,170120,5.8,W,D*3E
#HEADINGA,COM2,0,51.0,FINE,2088,439625.900,880970,29,18;SOL_COMPUTED,NARROW_INT,0.6192,142.5772,-11.4117,0.0000,0.3123,0.9252,"999",42,37,37,20,3,01,3,f3*9c4a26c0
#REFSTATIONA,COM2,0,51.0,FINE,2088,439622.000,880273,801,18;00000000,-2811023.329,4717645.324,3233007.504,0,RTCMV3,"0000"*1d5f843c
$GNGGA,020648.00,3039.26813239,N,12047.31936416,E,2,28,0.6,3.3199,M,9.8171,M,04,0*74
$GNRMC,020648.00,A,3039.26813239,N,12047.31936416,E,0.010,232.5,170120,5.8,W,D*39
#HEADINGA,COM2,0,51.0,FINE,2088,439626.000,881070,36,18;SOL_COMPUTED,NARROW_INT,0.6180,142.6323,-10.9538,0.0000,0.3124,0.9283,"999",42,37,37,20,3,01,3,f3*6b8983e1
$GNGGA,020648.10,3039.26813236,N,12047.31936434,E,2,28,0.6,3.3178,M,9.8171,M,04,0*75
$GNRMC,020648.10,A,3039.26813236,N,12047.31936434,E,0.013,265.6,170120,5.8,W,D*35
#HEADINGA,COM2,0,51.0,FINE,2088,439626.100,881171,31,18;SOL_COMPUTED,NARROW_INT,0.6155,142.4489,-10.7468,0.0000,0.3142,0.9332,"999",42,37,37,20,3,01,3,f3*6965a28d
$GNGGA,020648.20,3039.26813224,N,12047.31936451,E,2,28,0.6,3.3159,M,9.8171,M,04,0*75
$GNRMC,020648.20,A,3039.26813224,N,12047.31936451,E,0.009,216.2,170120,5.8,W,D*3D
#HEADINGA,COM2,0,51.0,FINE,2088,439626.200,881272,31,18;SOL_COMPUTED,NARROW_INT,0.6193,142.4088,-11.4901,0.0000,0.3126,0.9248,"999",42,37,37,20,3,01,3,f3*191db260
$GNGGA,020648.30,3039.26813187,N,12047.31936480,E,2,28,0.6,3.3153,M,9.8171,M,04,0*78
$GNRMC,020648.30,A,3039.26813187,N,12047.31936480,E,0.016,182.3,170120,5.8,W,D*3B
#HEADINGA,COM2,0,51.0,FINE,2088,439626.300,881370,31,18;SOL_COMPUTED,NARROW_INT,0.6159,142.4319,-10.8667,0.0000,0.3140,0.9313,"999",42,37,37,20,3,01,3,f3*9dc7212b
$GNGGA,020648.40,3039.26813174,N,12047.31936485,E,2,28,0.6,3.3135,M,9.8171,M,04,0*76
$GNRMC,020648.40,A,3039.26813174,N,12047.31936485,E,0.014,227.3,170120,5.8,W,D*3B
#HEADINGA,COM2,0,51.0,FINE,2088,439626.400,881471,31,18;SOL_COMPUTED,NARROW_INT,0.6162,142.5367,-10.8070,0.0000,0.3133,0.9307,"999",42,37,37,20,3,01,3,f3*f4b95583
$GNGGA,020648.50,3039.26813168,N,12047.31936527,E,2,28,0.6,3.3109,M,9.8171,M,04,0*7C
$GNRMC,020648.50,A,3039.26813168,N,12047.31936527,E,0.007,168.3,170120,5.8,W,D*34
#HEADINGA,COM2,0,51.0,FINE,2088,439626.500,881570,31,18;SOL_COMPUTED,NARROW_INT,0.6161,142.4116,-11.1039,0.0000,0.3143,0.9312,"999",42,37,37,20,3,01,3,f3*40739deb
$GNGGA,020648.60,3039.26813177,N,12047.31936553,E,2,28,0.6,3.3090,M,9.8171,M,04,0*73
$GNRMC,020648.60,A,3039.26813177,N,12047.31936553,E,0.003,234.4,170120,5.8,W,D*33
#HEADINGA,COM2,0,51.0,FINE,2088,439626.600,881670,30,18;SOL_COMPUTED,NARROW_INT,0.6179,142.6987,-10.8382,0.0000,0.3124,0.9258,"999",42,38,38,20,3,01,3,f3*de4ccd0e
$GNGGA,020648.70,3039.26813164,N,12047.31936577,E,2,28,0.6,3.3077,M,9.8171,M,04,0*7F
$GNRMC,020648.70,A,3039.26813164,N,12047.31936577,E,0.008,198.4,170120,5.8,W,D*38
#HEADINGA,COM2,0,51.0,FINE,2088,439626.700,881770,30,18;SOL_COMPUTED,NARROW_INT,0.6167,142.5606,-11.3562,0.0000,0.3138,0.9269,"999",42,38,38,20,3,01,3,f3*c461827c
$GNGGA,020648.80,3039.26813156,N,12047.31936610,E,2,28,0.6,3.3052,M,9.8171,M,04,0*74
$GNRMC,020648.80,A,3039.26813156,N,12047.31936610,E,0.007,186.1,170120,5.8,W,D*31
#HEADINGA,COM2,0,51.0,FINE,2088,439626.800,881870,29,18;SOL_COMPUTED,NARROW_INT,0.6157,142.6003,-10.7491,0.0000,0.3136,0.9291,"999",42,38,38,20,3,01,3,f3*4117a13d
$GNGGA,020648.90,3039.26813131,N,12047.31936635,E,2,28,0.6,3.3036,M,9.8171,M,04,0*71
$GNRMC,020648.90,A,3039.26813131,N,12047.31936635,E,0.013,192.1,170120,5.8,W,D*36
#HEADINGA,COM2,0,41.0,FINE,2088,439626.900,881970,29,18;SOL_COMPUTED,NARROW_INT,0.6173,142.4281,-11.4984,0.0000,0.3135,0.9245,"999",42,38,38,20,3,01,3,f3*bffb6647
#REFSTATIONA,COM2,0,51.0,FINE,2088,439622.000,881272,802,18;00000000,-2811023.329,4717645.324,3233007.504,0,RTCMV3,"0000"*69cf1778
$GNGGA,020649.00,3039.26813131,N,12047.31936669,E,2,28,0.6,3.3023,M,9.8171,M,05,0*75
$GNRMC,020649.00,A,3039.26813131,N,12047.31936669,E,0.005,184.9,170120,5.8,W,D*3F
#HEADINGA,COM2,0,41.0,FINE,2088,439627.000,882070,36,18;SOL_COMPUTED,NARROW_INT,0.6185,142.5416,-11.1581,0.0000,0.3122,0.9231,"999",42,38,38,20,3,01,3,f3*4bc7a05a
$GNGGA,020649.10,3039.26813104,N,12047.31936726,E,2,28,0.6,3.3014,M,9.8171,M,05,0*7C
$GNRMC,020649.10,A,3039.26813104,N,12047.31936726,E,0.015,150.8,170120,5.8,W,D*3B
#HEADINGA,COM2,0,41.0,FINE,2088,439627.100,882170,30,18;SOL_COMPUTED,NARROW_INT,0.6153,142.5249,-11.0832,0.0000,0.3139,0.9286,"999",42,38,38,20,3,01,3,f3*daefdbaf
$GNGGA,020649.20,3039.26813081,N,12047.31936774,E,2,28,0.6,3.3000,M,9.8171,M,05,0*71
$GNRMC,020649.20,A,3039.26813081,N,12047.31936774,E,0.013,163.6,170120,5.8,W,D*3B
#HEADINGA,COM2,0,41.0,FINE,2088,439627.200,882272,31,18;SOL_COMPUTED,NARROW_INT,0.6159,142.6326,-10.9105,0.0000,0.3132,0.9278,"999",42,38,38,20,3,01,3,f3*05e93955
$GNGGA,020649.30,3039.26813081,N,12047.31936802,E,2,28,0.6,3.2988,M,9.8171,M,04,0*77
$GNRMC,020649.30,A,3039.26813081,N,12047.31936802,E,0.005,215.3,170120,5.8,W,D*34
#HEADINGA,COM2,0,41.0,FINE,2088,439627.300,882370,32,18;SOL_COMPUTED,NARROW_INT,0.6159,142.5839,-10.7134,0.0000,0.3130,0.9281,"999",42,38,38,20,3,01,3,f3*5a7f72bf
$GNGGA,020649.40,3039.26813081,N,12047.31936859,E,2,28,0.6,3.2968,M,9.8171,M,04,0*70
$GNRMC,020649.40,A,3039.26813081,N,12047.31936859,E,0.007,116.5,170120,5.8,W,D*39
#HEADINGA,COM2,0,41.0,FINE,2088,439627.400,882470,30,18;SOL_COMPUTED,NARROW_INT,0.6142,142.6959,-10.5979,0.0000,0.3140,0.9308,"999",42,38,38,20,3,01,3,f3*59bf628a
$GNGGA,020649.50,3039.26813078,N,12047.31936888,E,2,28,0.6,3.2951,M,9.8171,M,04,0*71
$GNRMC,020649.50,A,3039.26813078,N,12047.31936888,E,0.004,216.0,170120,5.8,W,D*37
#HEADINGA,COM2,0,41.0,FINE,2088,439627.500,882570,30,18;SOL_COMPUTED,NARROW_INT,0.6169,142.5612,-11.0057,0.0000,0.3135,0.9264,"999",42,38,38,20,3,01,3,f3*18cc3214
$GNGGA,020649.60,3039.26813072,N,12047.31936919,E,2,28,0.6,3.2936,M,9.8171,M,04,0*70
$GNRMC,020649.60,A,3039.26813072,N,12047.31936919,E,0.005,197.3,170120,5.8,W,D*3F
#HEADINGA,COM2,0,41.0,FINE,2088,439627.600,882670,30,18;SOL_COMPUTED,NARROW_INT,0.6193,142.5327,-10.9431,0.0000,0.3124,0.9234,"999",42,38,38,20,3,01,3,f3*58817d01
$GNGGA,020649.70,3039.26813060,N,12047.31936972,E,2,28,0.6,3.2927,M,9.8171,M,04,0*7F
$GNRMC,020649.70,A,3039.26813060,N,12047.31936972,E,0.009,137.3,170120,5.8,W,D*36
#HEADINGA,COM2,0,41.0,FINE,2088,439627.700,882770,30,18;SOL_COMPUTED,NARROW_INT,0.6152,142.6069,-10.9291,0.0000,0.3144,0.9299,"999",42,38,38,20,3,01,3,f3*da638fb6
$GNGGA,020649.80,3039.26813029,N,12047.31937022,E,2,28,0.6,3.2915,M,9.8171,M,04,0*71
$GNRMC,020649.80,A,3039.26813029,N,12047.31937022,E,0.014,158.0,170120,5.8,W,D*3F
#HEADINGA,COM2,0,41.0,FINE,2088,439627.800,882869,30,18;SOL_COMPUTED,NARROW_INT,0.6186,142.6244,-11.2537,0.0000,0.3127,0.9229,"999",42,38,38,20,3,01,3,f3*313baf21
$GNGGA,020649.90,3039.26813025,N,12047.31937040,E,2,28,0.6,3.2901,M,9.8171,M,04,0*7D
$GNRMC,020649.90,A,3039.26813025,N,12047.31937040,E,0.008,221.2,170120,5.8,W,D*34
#HEADINGA,COM2,0,41.0,FINE,2088,439627.900,882969,30,18;SOL_COMPUTED,NARROW_INT,0.6178,142.5465,-11.1219,0.0000,0.3131,0.9251,"999",42,38,38,20,3,01,3,f3*b68fcbd7
#REFSTATIONA,COM2,0,41.0,FINE,2088,439623.000,882272,802,18;00000000,-2811023.329,4717645.324,3233007.504,0,RTCMV3,"0000"*49e04667
$GNGGA,020650.00,3039.26813018,N,12047.31937054,E,2,28,0.6,3.2875,M,9.8171,M,05,0*74
$GNRMC,020650.00,A,3039.26813018,N,12047.31937054,E,0.009,233.4,170120,5.8,W,D*3A
#HEADINGA,COM2,0,41.0,FINE,2088,439628.000,883069,36,18;SOL_COMPUTED,NARROW_INT,0.6166,142.5025,-10.8878,0.0000,0.3136,0.9277,"999",42,38,38,20,3,01,3,f3*f20a0deb
$GNGGA,020650.10,3039.26813005,N,12047.31937065,E,2,28,0.6,3.2863,M,9.8171,M,05,0*7C
$GNRMC,020650.10,A,3039.26813005,N,12047.31937065,E,0.010,220.6,170120,5.8,W,D*3D
#HEADINGA,COM2,0,41.0,FINE,2088,439628.100,883171,30,18;SOL_COMPUTED,NARROW_INT,0.6200,142.4294,-11.4662,0.0000,0.3127,0.9212,"999",42,38,38,20,3,01,3,f3*1a468395
$GNGGA,020650.20,3039.26812994,N,12047.31937086,E,2,28,0.6,3.2849,M,9.8171,M,05,0*7A
$GNRMC,020650.20,A,3039.26812994,N,12047.31937086,E,0.008,209.9,170120,5.8,W,D*3E
#HEADINGA,COM2,0,41.0,FINE,2088,439628.200,883272,31,18;SOL_COMPUTED,NARROW_INT,0.6172,142.6760,-10.9662,0.0000,0.3133,0.9270,"999",42,38,38,20,3,01,3,f3*9170fab5
$GNGGA,020650.30,3039.26812981,N,12047.31937136,E,2,28,0.6,3.2836,M,9.8171,M,05,0*7D
$GNRMC,020650.30,A,3039.26812981,N,12047.31937136,E,0.009,146.3,170120,5.8,W,D*32
#HEADINGA,COM2,0,41.0,FINE,2088,439628.300,883370,30,18;SOL_COMPUTED,NARROW_INT,0.6177,142.7713,-10.6169,0.0000,0.3132,0.9512,"999",42,37,37,20,3,01,3,f3*ad1f64cc
$GNGGA,020650.40,3039.26812974,N,12047.31937174,E,2,28,0.6,3.2822,M,9.8171,M,05,0*73
$GNRMC,020650.40,A,3039.26812974,N,12047.31937174,E,0.009,180.8,170120,5.8,W,D*38
#HEADINGA,COM2,0,41.0,FINE,2088,439628.400,883469,30,18;SOL_COMPUTED,NARROW_INT,0.6141,142.6291,-11.0644,0.0000,0.3157,0.9553,"999",42,37,37,20,3,01,3,f3*e2ffdb3c
$GNGGA,020650.50,3039.26812976,N,12047.31937209,E,2,28,0.6,3.2807,M,9.8171,M,05,0*7E
$GNRMC,020650.50,A,3039.26812976,N,12047.31937209,E,0.003,206.2,170120,5.8,W,D*3F
#HEADINGA,COM2,0,41.0,FINE,2088,439628.500,883570,30,18;SOL_COMPUTED,NARROW_INT,0.6175,142.5653,-11.4433,0.0000,0.3143,0.9491,"999",42,37,37,20,3,01,3,f3*257a09a8
$GNGGA,020650.60,3039.26812954,N,12047.31937229,E,2,28,0.6,3.2792,M,9.8171,M,05,0*7C
$GNRMC,020650.60,A,3039.26812954,N,12047.31937229,E,0.011,208.0,170120,5.8,W,D*31
#HEADINGA,COM2,0,41.0,FINE,2088,439628.600,883670,30,18;SOL_COMPUTED,NARROW_INT,0.6148,142.4297,-10.8426,0.0000,0.3151,0.9536,"999",42,37,37,20,3,01,3,f3*5930b99a
$GNGGA,020650.70,3039.26812927,N,12047.31937266,E,2,28,0.6,3.2778,M,9.8171,M,05,0*76
$GNRMC,020650.70,A,3039.26812927,N,12047.31937266,E,0.012,180.0,170120,5.8,W,D*3F
#HEADINGA,COM2,0,41.0,FINE,2088,439628.700,883770,30,18;SOL_COMPUTED,NARROW_INT,0.6149,142.5919,-11.0137,0.0000,0.3151,0.9539,"999",42,37,37,20,3,01,3,f3*b9ba116e
$GNGGA,020650.80,3039.26812914,N,12047.31937319,E,2,28,0.6,3.2770,M,9.8171,M,05,0*78
$GNRMC,020650.80,A,3039.26812914,N,12047.31937319,E,0.010,148.0,170120,5.8,W,D*3F
#HEADINGA,COM2,0,41.0,FINE,2088,439628.800,883870,29,18;SOL_COMPUTED,NARROW_INT,0.6179,142.4407,-11.7279,0.0000,0.3146,0.9480,"999",42,37,37,20,3,01,3,f3*32d88e4a
$GNGGA,020650.90,3039.26812909,N,12047.31937357,E,2,28,0.6,3.2776,M,9.8171,M,05,0*79
$GNRMC,020650.90,A,3039.26812909,N,12047.31937357,E,0.006,160.2,170120,5.8,W,D*37
#HEADINGA,COM2,0,41.0,FINE,2088,439628.900,883970,29,18;SOL_COMPUTED,NARROW_INT,0.6176,142.4686,-11.2379,0.0000,0.3142,0.9494,"999",42,37,37,20,3,01,3,f3*63af0ad0
#REFSTATIONA,COM2,0,41.0,FINE,2088,439623.000,883272,802,18;00000000,-2811023.329,4717645.324,3233007.504,0,RTCMV3,"0000"*be2c1a69
$GNGGA,020651.00,3039.26812925,N,12047.31937405,E,2,28,0.6,3.2756,M,9.8171,M,06,0*7E
$GNRMC,020651.00,A,3039.26812925,N,12047.31937405,E,0.002,183.7,170120,5.8,W,D*3D
#HEADINGA,COM2,0,41.0,FINE,2088,439629.000,884070,36,18;SOL_COMPUTED,NARROW_INT,0.6167,142.5548,-11.3070,0.0000,0.3145,0.9505,"999",42,37,37,20,3,01,3,f3*54836ce8
$GNGGA,020651.10,3039.26812933,N,12047.31937465,E,2,28,0.6,3.2736,M,9.8171,M,06,0*78
$GNRMC,020651.10,A,3039.26812933,N,12047.31937465,E,0.006,131.2,170120,5.8,W,D*35
#HEADINGA,COM2,0,41.0,FINE,2088,439629.100,884170,31,18;SOL_COMPUTED,NARROW_INT,0.6180,142.4272,-11.6731,0.0000,0.3145,0.9466,"999",42,37,37,19,3,01,3,f3*adab000f
$GNGGA,020651.20,3039.26812946,N,12047.31937497,E,2,28,0.6,3.2723,M,9.8171,M,06,0*70
$GNRMC,020651.20,A,3039.26812946,N,12047.31937497,E,0.004,225.6,170120,5.8,W,D*39
#HEADINGA,COM2,0,41.0,FINE,2088,439629.200,884272,32,18;SOL_COMPUTED,NARROW_INT,0.6160,142.7350,-10.7196,0.0000,0.3140,0.9515,"999",42,37,37,19,3,01,3,f3*2cc4054f
$GNGGA,020651.30,3039.26812977,N,12047.31937533,E,2,28,0.6,3.2714,M,9.8171,M,04,0*7A
$GNRMC,020651.30,A,3039.26812977,N,12047.31937533,E,0.006,174.7,170120,5.8,W,D*31
#HEADINGA,COM2,0,41.0,FINE,2088,439629.300,884370,34,18;SOL_COMPUTED,NARROW_INT,0.6152,142.6344,-10.5628,0.0000,0.3137,0.9294,"999",42,38,38,19,3,01,3,f3*98b7e765
$GNGGA,020651.40,3039.26813005,N,12047.31937581,E,2,28,0.6,3.2713,M,9.8171,M,04,0*7E
$GNRMC,020651.40,A,3039.26813005,N,12047.31937581,E,0.008,143.2,170120,5.8,W,D*3D
#HEADINGA,COM2,0,41.0,FINE,2088,439629.400,884471,30,18;SOL_COMPUTED,NARROW_INT,0.6163,142.5554,-10.7121,0.0000,0.3135,0.9276,"999",42,38,38,19,3,01,3,f3*46ebb05e
$GNGGA,020651.50,3039.26813009,N,12047.31937602,E,2,28,0.6,3.2711,M,9.8171,M,04,0*79
$GNRMC,020651.50,A,3039.26813009,N,12047.31937602,E,0.006,169.4,170120,5.8,W,D*38
#HEADINGA,COM2,0,41.0,FINE,2088,439629.500,884571,30,18;SOL_COMPUTED,NARROW_INT,0.6168,142.4961,-11.4469,0.0000,0.3142,0.9472,"999",42,37,37,19,3,01,3,f3*469b6e22
$GNGGA,020651.60,3039.26813033,N,12047.31937620,E,2,28,0.6,3.2707,M,9.8171,M,04,0*74
$GNRMC,020651.60,A,3039.26813033,N,12047.31937620,E,0.003,219.3,170120,5.8,W,D*34
#HEADINGA,COM2,0,41.0,FINE,2088,439629.600,884670,30,18;SOL_COMPUTED,NARROW_INT,0.6172,142.4788,-11.5877,0.0000,0.3142,0.9463,"999",42,37,37,19,3,01,3,f3*4219e02e
$GNGGA,020651.70,3039.26813045,N,12047.31937648,E,2,28,0.6,3.2692,M,9.8171,M,04,0*77
$GNRMC,020651.70,A,3039.26813045,N,12047.31937648,E,0.007,277.3,170120,5.8,W,D*36
#HEADINGA,COM2,0,41.0,FINE,2088,439629.700,884770,30,18;SOL_COMPUTED,NARROW_INT,0.6184,142.5832,-11.4130,0.0000,0.3132,0.9448,"999",41,37,37,19,3,01,3,f3*1a29cde6
$GNGGA,020651.80,3039.26813055,N,12047.31937673,E,2,28,0.6,3.2693,M,9.8171,M,04,0*70
$GNRMC,020651.80,A,3039.26813055,N,12047.31937673,E,0.004,138.6,170120,5.8,W,D*3E
#HEADINGA,COM2,0,41.0,FINE,2088,439629.800,884870,29,18;SOL_COMPUTED,NARROW_INT,0.6178,142.4643,-11.7390,0.0000,0.3141,0.9451,"999",41,37,37,19,3,01,3,f3*38313173
$GNGGA,020651.90,3039.26813055,N,12047.31937690,E,2,28,0.6,3.2686,M,9.8171,M,04,0*78
$GNRMC,020651.90,A,3039.26813055,N,12047.31937690,E,0.007,182.3,170120,5.8,W,D*35
#HEADINGA,COM2,0,40.0,FINE,2088,439629.900,884970,29,18;SOL_COMPUTED,NARROW_INT,0.6181,142.4857,-11.6558,0.0000,0.3138,0.9449,"999",41,37,37,19,3,01,3,f3*7c493c6b
#REFSTATIONA,COM2,0,41.0,FINE,2088,439625.000,884272,802,18;00000000,-2811023.329,4717645.324,3233007.504,0,RTCMV3,"0000"*a32f09eb
$GNGGA,020652.00,3039.26813077,N,12047.31937694,E,2,28,0.6,3.2687,M,9.8171,M,05,0*76
$GNRMC,020652.00,A,3039.26813077,N,12047.31937694,E,0.004,281.1,170120,5.8,W,D*3A
#HEADINGA,COM2,0,40.0,FINE,2088,439630.000,885070,37,18;SOL_COMPUTED,NARROW_INT,0.6142,142.5977,-11.0894,0.0000,0.3150,0.9522,"999",41,37,37,19,3,01,3,f3*d57ab4b3
$GNGGA,020652.10,3039.26813092,N,12047.31937700,E,2,28,0.6,3.2682,M,9.8171,M,05,0*75
$GNRMC,020652.10,A,3039.26813092,N,12047.31937700,E,0.005,270.9,170120,5.8,W,D*3B
#HEADINGA,COM2,0,40.0,FINE,2088,439630.100,885171,30,18;SOL_COMPUTED,NARROW_INT,0.6157,142.5222,-11.2194,0.0000,0.3145,0.9496,"999",41,37,37,19,3,01,3,f3*80cfcc0d
$GNGGA,020652.20,3039.26813102,N,12047.31937708,E,2,28,0.6,3.2683,M,9.8171,M,05,0*77
$GNRMC,020652.20,A,3039.26813102,N,12047.31937708,E,0.004,237.8,170120,5.8,W,D*3B
#HEADINGA,COM2,0,40.0,FINE,2088,439630.200,885272,31,18;SOL_COMPUTED,NARROW_INT,0.6171,142.6811,-10.8937,0.0000,0.3131,0.9479,"999",41,37,37,19,3,01,3,f3*d62493a6
$GNGGA,020652.30,3039.26813116,N,12047.31937734,E,2,28,0.6,3.2687,M,9.8171,M,05,0*78
$GNRMC,020652.30,A,3039.26813116,N,12047.31937734,E,0.002,98.3,170120,5.8,W,D*0A
