
$GNGGA,023625.60,3039.11484519,N,12047.31288394,E,1,07,3.4,8.1593,M,9.8178,M,,*4F
$GNRMC,023625.60,A,3039.11484519,N,12047.31288394,E,0.128,197.6,150120,5.8,W,A*35
#HEADINGA,COM2,0,77.0,FINE,2088,268603.600,206001,18,18;SOL_COMPUTED,L1_FLOAT,12.3180,93.3801,56.4449,0.0000,21.2495,23.7765,"999",8,6,6,0,3,00,0,1*89659a42
$GNGGA,023625.70,3039.11483012,N,12047.31287586,E,1,07,3.4,8.0628,M,9.8178,M,,*4F
$GNRMC,023625.70,A,3039.11483012,N,12047.31287586,E,0.128,214.3,150120,5.8,W,A*3A
#HEADINGA,COM2,0,77.0,FINE,2088,268603.700,206101,18,18;SOL_COMPUTED,L1_FLOAT,12.3289,93.4790,56.4543,0.0000,21.2687,23.7590,"999",8,6,6,0,3,00,0,1*a989d97b
$GNGGA,023625.80,3039.11481274,N,12047.31287345,E,1,07,3.4,7.9845,M,9.8178,M,,*4A
$GNRMC,023625.80,A,3039.11481274,N,12047.31287345,E,0.143,210.3,150120,5.8,W,A*35
#HEADINGA,COM2,0,77.0,FINE,2088,268603.800,206201,18,18;SOL_COMPUTED,L1_FLOAT,12.3174,93.2509,56.4268,0.0000,21.2013,23.7779,"999",8,6,6,0,3,00,0,1*03e1b2bf
$GNGGA,023625.90,3039.11480299,N,12047.31287294,E,1,07,3.4,7.9485,M,9.8178,M,,*44
$GNRMC,023625.90,A,3039.11480299,N,12047.31287294,E,0.138,212.6,150120,5.8,W,A*30
#HEADINGA,COM2,0,77.0,FINE,2088,268603.900,206301,18,18;SOL_COMPUTED,L1_FLOAT,12.3166,93.3280,56.3451,0.0000,21.1826,23.8390,"999",8,6,6,0,3,00,0,1*8d6d00e2
#REFSTATIONA,COM2,0,90.0,UNKNOWN,0,0.000,0,206408,0;00000001,0.000,0.000,0.000,0,NONE,""*76aeb4f2
$GNGGA,023626.00,3039.11478266,N,12047.31287939,E,1,07,3.4,7.8170,M,9.8178,M,,*4B
$GNRMC,023626.00,A,3039.11478266,N,12047.31287939,E,0.124,189.0,150120,5.8,W,A*3B
#HEADINGA,COM2,0,77.0,FINE,2088,268604.000,206405,20,18;SOL_COMPUTED,L1_FLOAT,12.3159,93.3669,56.5077,0.0000,21.2881,23.7408,"999",8,6,6,0,3,00,0,1*b84400e9
$GNGGA,023626.10,3039.11477390,N,12047.31288161,E,1,07,3.4,7.7662,M,9.8178,M,,*4C
$GNRMC,023626.10,A,3039.11477390,N,12047.31288161,E,0.100,188.8,150120,5.8,W,A*38
#HEADINGA,COM2,0,77.0,FINE,2088,268604.100,206501,19,18;SOL_COMPUTED,L1_FLOAT,12.3578,93.3305,56.5107,0.0000,21.2070,23.6553,"999",8,6,6,0,3,00,0,1*931dddc2
$GNGGA,023626.20,3039.11476120,N,12047.31287863,E,1,07,3.4,7.7040,M,9.8178,M,,*45
$GNRMC,023626.20,A,3039.11476120,N,12047.31287863,E,0.100,200.0,150120,5.8,W,A*3C
#HEADINGA,COM2,0,77.0,FINE,2088,268604.200,206601,19,18;SOL_COMPUTED,L1_FLOAT,11.6063,93.2388,55.2525,0.0000,21.5087,25.6845,"999",8,6,6,0,3,00,0,1*cd002979
$GNGGA,023626.30,3039.11474020,N,12047.31287992,E,1,07,3.4,7.5933,M,9.8178,M,,*47
$GNRMC,023626.30,A,3039.11474020,N,12047.31287992,E,0.118,187.5,150120,5.8,W,A*31
#HEADINGA,COM2,0,77.0,FINE,2088,268604.300,206701,18,18;SOL_COMPUTED,L1_FLOAT,11.6069,93.3411,55.2307,0.0000,21.5295,25.7087,"999",8,6,6,0,3,00,0,1*44903018
$GNGGA,023626.40,3039.11472314,N,12047.31287501,E,1,07,3.4,7.4898,M,9.8178,M,,*45
$GNRMC,023626.40,A,3039.11472314,N,12047.31287501,E,0.116,198.0,150120,5.8,W,A*37
#HEADINGA,COM2,0,77.0,FINE,2088,268604.400,206801,18,18;SOL_COMPUTED,L1_FLOAT,11.6658,93.1821,55.3061,0.0000,21.4118,25.5122,"999",8,6,6,0,3,00,0,1*5f4f11e3
$GNGGA,023626.50,3039.11470633,N,12047.31287560,E,1,07,3.4,7.4086,M,9.8178,M,,*46
$GNRMC,023626.50,A,3039.11470633,N,12047.31287560,E,0.125,193.2,150120,5.8,W,A*3A
#HEADINGA,COM2,0,77.0,FINE,2088,268604.500,206901,18,18;SOL_COMPUTED,L1_FLOAT,11.6089,93.3620,55.2233,0.0000,21.5304,25.7122,"999",8,6,6,0,3,00,0,1*09a02657
$GNGGA,023626.60,,,,,0,00,9999.0,,,,,,*4D
$GNRMC,023626.60,V,,,,,,,150120,0.0,E,N*0A
#HEADINGA,COM2,0,77.0,FINE,2088,268604.600,207001,12,18;INSUFFICIENT_OBS,NONE,0.0000,0.0000,0.0000,0.0000,0.0000,0.0000,"",0,0,0,0,0,00,0,0*1c20da4f
$GNGGA,023626.70,,,,,0,00,9999.0,,,,,,*4C
$GNRMC,023626.70,V,,,,,,,150120,0.0,E,N*0B
#HEADINGA,COM2,0,77.0,FINE,2088,268604.700,207101,12,18;INSUFFICIENT_OBS,NONE,0.0000,0.0000,0.0000,0.0000,0.0000,0.0000,"",0,0,0,0,0,00,0,0*387106cb
$GNGGA,023626.80,,,,,0,00,9999.0,,,,,,*43
$GNRMC,023626.80,V,,,,,,,150120,0.0,E,N*04
#HEADINGA,COM2,0,77.0,FINE,2088,268604.800,207201,12,18;INSUFFICIENT_OBS,NONE,0.0000,0.0000,0.0000,0.0000,0.0000,0.0000,"",0,0,0,0,0,00,0,0*43914718
$GNGGA,023626.90,,,,,0,00,9999.0,,,,,,*42
$GNRMC,023626.90,V,,,,,,,150120,0.0,E,N*05
#HEADINGA,COM2,0,77.0,FINE,2088,268604.900,207301,12,18;INSUFFICIENT_OBS,NONE,0.0000,0.0000,0.0000,0.0000,0.0000,0.0000,"",0,0,0,0,0,00,0,0*67c09b9c
#REFSTATIONA,COM2,0,90.0,UNKNOWN,0,0.000,0,207408,0;00000001,0.000,0.000,0.000,0,NONE,""*31bd4209
$GNGGA,023627.00,,,,,0,00,9999.0,,,,,,*4A
$GNRMC,023627.00,V,,,,,,,150120,0.0,E,N*0D
#HEADINGA,COM2,0,77.0,FINE,2088,268605.000,207405,13,18;INSUFFICIENT_OBS,NONE,0.0000,0.0000,0.0000,0.0000,0.0000,0.0000,"",0,0,0,0,0,00,0,0*30f229db
$GNGGA,023627.10,,,,,0,00,9999.0,,,,,,*4B
$GNRMC,023627.10,V,,,,,,,150120,0.0,E,N*0C
#HEADINGA,COM2,0,77.0,FINE,2088,268605.100,207501,12,18;INSUFFICIENT_OBS,NONE,0.0000,0.0000,0.0000,0.0000,0.0000,0.0000,"",0,0,0,0,0,00,0,0*f4e11fac
$GNGGA,023627.20,,,,,0,00,9999.0,,,,,,*48
$GNRMC,023627.20,V,,,,,,,150120,0.0,E,N*0F
#HEADINGA,COM2,0,77.0,FINE,2088,268605.200,207601,12,18;INSUFFICIENT_OBS,NONE,0.0000,0.0000,0.0000,0.0000,0.0000,0.0000,"",0,0,0,0,0,00,0,0*98137a20
$GNGGA,023627.30,,,,,0,00,9999.0,,,,,,*49
$GNRMC,023627.30,V,,,,,,,150120,0.0,E,N*0E
#HEADINGA,COM2,0,77.0,FINE,2088,268605.300,207701,12,18;INSUFFICIENT_OBS,NONE,0.0000,0.0000,0.0000,0.0000,0.0000,0.0000,"",0,0,0,0,0,00,0,0*bc42a6a4
$GNGGA,023627.40,,,,,0,00,9999.0,,,,,,*4E
$GNRMC,023627.40,V,,,,,,,150120,0.0,E,N*09
#HEADINGA,COM2,0,77.0,FINE,2088,268605.400,207801,12,18;INSUFFICIENT_OBS,NONE,0.0000,0.0000,0.0000,0.0000,0.0000,0.0000,"",0,0,0,0,0,00,0,0*a2146b33
$GNGGA,023627.50,,,,,0,00,9999.0,,,,,,*4F
$GNRMC,023627.50,V,,,,,,,150120,0.0,E,N*08
#HEADINGA,COM2,0,77.0,FINE,2088,268605.500,207901,12,18;INSUFFICIENT_OBS,NONE,0.0000,0.0000,0.0000,0.0000,0.0000,0.0000,"",0,0,0,0,0,00,0,0*8645b7b7
$GNGGA,023627.60,,,,,0,00,9999.0,,,,,,*4C
$GNRMC,023627.60,V,,,,,,,150120,0.0,E,N*0B
#HEADINGA,COM2,0,77.0,FINE,2088,268605.600,208001,12,18;INSUFFICIENT_OBS,NONE,0.0000,0.0000,0.0000,0.0000,0.0000,0.0000,"",0,0,0,0,0,00,0,0*da2f3017
$GNGGA,023627.70,,,,,0,00,9999.0,,,,,,*4D
$GNRMC,023627.70,V,,,,,,,150120,0.0,E,N*0A
#HEADINGA,COM2,0,77.0,FINE,2088,268605.700,208101,11,18;INSUFFICIENT_OBS,NONE,0.0000,0.0000,0.0000,0.0000,0.0000,0.0000,"",0,0,0,0,0,00,0,0*063134b8
$GNGGA,023627.80,,,,,0,00,9999.0,,,,,,*42
$GNRMC,023627.80,V,,,,,,,150120,0.0,E,N*05
#HEADINGA,COM2,0,77.0,FINE,2088,268605.800,208201,12,18;INSUFFICIENT_OBS,NONE,0.0000,0.0000,0.0000,0.0000,0.0000,0.0000,"",0,0,0,0,0,00,0,0*859ead40
$GNGGA,023627.90,3039.11463322,N,12047.31286174,E,1,07,3.4,6.8998,M,9.8178,M,,*47
$GNRMC,023627.90,A,3039.11463322,N,12047.31286174,E,0.145,210.5,150120,5.8,W,A*39
#HEADINGA,COM2,0,77.0,FINE,2088,268605.900,208301,18,18;SOL_COMPUTED,L1_FLOAT,11.6321,93.2672,55.2825,0.0000,21.5034,25.6169,"999",8,6,6,0,3,00,0,1*2579c6d4
#REFSTATIONA,COM2,0,90.0,UNKNOWN,0,0.000,0,208408,0;00000001,0.000,0.000,0.000,0,NONE,""*6abb39b2
$GNGGA,023628.00,,,,,0,00,9999.0,,,,,,*45
$GNRMC,023628.00,V,,,,,,,150120,0.0,E,N*02
#HEADINGA,COM2,0,77.0,FINE,2088,268606.000,208405,13,18;INSUFFICIENT_OBS,NONE,0.0000,0.0000,0.0000,0.0000,0.0000,0.0000,"",0,0,0,0,0,00,0,0*405d0958
$GNGGA,023628.10,,,,,0,00,9999.0,,,,,,*44
$GNRMC,023628.10,V,,,,,,,150120,0.0,E,N*03
#HEADINGA,COM2,0,77.0,FINE,2088,268606.100,208501,12,18;INSUFFICIENT_OBS,NONE,0.0000,0.0000,0.0000,0.0000,0.0000,0.0000,"",0,0,0,0,0,00,0,0*844e3f2f
$GNGGA,023628.20,,,,,0,00,9999.0,,,,,,*47
$GNRMC,023628.20,V,,,,,,,150120,0.0,E,N*00
#HEADINGA,COM2,0,77.0,FINE,2088,268606.200,208601,12,18;INSUFFICIENT_OBS,NONE,0.0000,0.0000,0.0000,0.0000,0.0000,0.0000,"",0,0,0,0,0,00,0,0*e8bc5aa3
$GNGGA,023628.30,,,,,0,00,9999.0,,,,,,*46
$GNRMC,023628.30,V,,,,,,,150120,0.0,E,N*01
#HEADINGA,COM2,0,77.0,FINE,2088,268606.300,208701,12,18;INSUFFICIENT_OBS,NONE,0.0000,0.0000,0.0000,0.0000,0.0000,0.0000,"",0,0,0,0,0,00,0,0*cced8627
$GNGGA,023628.40,3039.11460319,N,12047.31285192,E,1,07,3.4,6.7384,M,9.8178,M,,*4D
$GNRMC,023628.40,A,3039.11460319,N,12047.31285192,E,0.153,222.9,150120,5.8,W,A*31
#HEADINGA,COM2,0,77.0,FINE,2088,268606.400,208801,18,18;SOL_COMPUTED,L1_FLOAT,11.6202,93.1917,55.2023,0.0000,21.4632,25.6928,"999",8,6,6,0,3,00,0,1*5240d9aa
$GNGGA,023628.50,3039.11457551,N,12047.31285626,E,1,07,3.4,6.7532,M,9.8178,M,,*41
$GNRMC,023628.50,A,3039.11457551,N,12047.31285626,E,0.192,217.5,150120,5.8,W,A*31
#HEADINGA,COM2,0,77.0,FINE,2088,268606.500,208901,18,18;SOL_COMPUTED,L1_FLOAT,11.6186,93.2342,55.2292,0.0000,21.4951,25.6824,"999",8,6,6,0,3,00,0,1*6e651888
$GNGGA,023628.60,3039.11455420,N,12047.31286715,E,1,07,3.4,6.6371,M,9.8178,M,,*45
$GNRMC,023628.60,A,3039.11455420,N,12047.31286715,E,0.172,214.9,150120,5.8,W,A*34
#HEADINGA,COM2,0,77.0,FINE,2088,268606.600,209001,18,18;SOL_COMPUTED,L1_FLOAT,11.6734,93.1488,55.3813,0.0000,21.4503,25.4503,"999",8,6,6,0,3,00,0,1*f5860d2d
$GNGGA,023628.70,3039.11453570,N,12047.31288648,E,1,07,3.4,6.5459,M,9.8178,M,,*4F
$GNRMC,023628.70,A,3039.11453570,N,12047.31288648,E,0.143,203.5,150120,5.8,W,A*38
#HEADINGA,COM2,0,77.0,FINE,2088,268606.700,209101,18,18;SOL_COMPUTED,L1_FLOAT,11.6586,93.1106,55.2750,0.0000,21.4090,25.5518,"999",8,6,6,0,3,00,0,1*a9cefacb
$GNGGA,023628.80,3039.11451765,N,12047.31290731,E,1,07,3.4,6.5250,M,9.8178,M,,*4D
$GNRMC,023628.80,A,3039.11451765,N,12047.31290731,E,0.147,185.2,150120,5.8,W,A*3B
#HEADINGA,COM2,0,77.0,FINE,2088,268606.800,209201,18,18;SOL_COMPUTED,L1_FLOAT,11.6313,93.2592,55.3554,0.0000,21.5512,25.5719,"999",8,6,6,0,3,00,0,1*49a29cce
$GNGGA,023628.90,3039.11450085,N,12047.31291078,E,1,07,3.4,6.5218,M,9.8178,M,,*43
$GNRMC,023628.90,A,3039.11450085,N,12047.31291078,E,0.161,188.2,150120,5.8,W,A*30
#HEADINGA,COM2,0,82.0,FINE,2088,268606.900,209301,18,18;SOL_COMPUTED,L1_FLOAT,11.6374,93.1844,55.2772,0.0000,21.4746,25.6049,"999",8,6,6,0,3,00,0,1*f88d20db
#REFSTATIONA,COM2,0,90.0,UNKNOWN,0,0.000,0,209409,0;00000001,0.000,0.000,0.000,0,NONE,""*82ec5d0e
$GNGGA,023629.00,3039.11448304,N,12047.31291801,E,1,07,3.4,6.4162,M,9.8178,M,,*41
$GNRMC,023629.00,A,3039.11448304,N,12047.31291801,E,0.143,182.9,150120,5.8,W,A*3C
#HEADINGA,COM2,0,82.0,FINE,2088,268607.000,209406,19,18;SOL_COMPUTED,L1_FLOAT,11.6504,93.1839,55.3556,0.0000,21.4939,25.5232,"999",8,6,6,0,3,00,0,1*acb5b1e3
$GNGGA,023629.10,3039.11446939,N,12047.31292574,E,1,07,3.4,6.4268,M,9.8178,M,,*4F
$GNRMC,023629.10,A,3039.11446939,N,12047.31292574,E,0.161,179.0,150120,5.8,W,A*36
#HEADINGA,COM2,0,82.0,FINE,2088,268607.100,209501,19,18;SOL_COMPUTED,L1_FLOAT,11.6147,93.1823,55.2562,0.0000,21.5064,25.6699,"999",8,6,6,0,3,00,0,1*96c10ab2
$GNGGA,023629.20,,,,,0,00,9999.0,,,,,,*46
$GNRMC,023629.20,V,,,,,,,150120,0.0,E,N*01
#HEADINGA,COM2,0,82.0,FINE,2088,268607.200,209601,13,18;INSUFFICIENT_OBS,NONE,0.0000,0.0000,0.0000,0.0000,0.0000,0.0000,"",0,0,0,0,0,00,0,0*a99362c9
$GNGGA,023629.30,,,,,0,00,9999.0,,,,,,*47
$GNRMC,023629.30,V,,,,,,,150120,0.0,E,N*00
#HEADINGA,COM2,0,82.0,FINE,2088,268607.300,209701,12,18;INSUFFICIENT_OBS,NONE,0.0000,0.0000,0.0000,0.0000,0.0000,0.0000,"",0,0,0,0,0,00,0,0*da07f654
$GNGGA,023629.40,,,,,0,00,9999.0,,,,,,*40
$GNRMC,023629.40,V,,,,,,,150120,0.0,E,N*07
#HEADINGA,COM2,0,82.0,FINE,2088,268607.400,209801,12,18;INSUFFICIENT_OBS,NONE,0.0000,0.0000,0.0000,0.0000,0.0000,0.0000,"",0,0,0,0,0,00,0,0*c4513bc3
$GNGGA,023629.50,,,,,0,00,9999.0,,,,,,*41
$GNRMC,023629.50,V,,,,,,,150120,0.0,E,N*06
#HEADINGA,COM2,0,82.0,FINE,2088,268607.500,209901,12,18;INSUFFICIENT_OBS,NONE,0.0000,0.0000,0.0000,0.0000,0.0000,0.0000,"",0,0,0,0,0,00,0,0*e000e747
$GNGGA,023629.60,,,,,0,00,9999.0,,,,,,*42
$GNRMC,023629.60,V,,,,,,,150120,0.0,E,N*05
#HEADINGA,COM2,0,82.0,FINE,2088,268607.600,210001,12,18;INSUFFICIENT_OBS,NONE,0.0000,0.0000,0.0000,0.0000,0.0000,0.0000,"",0,0,0,0,0,00,0,0*59e431d6
$GNGGA,023629.70,,,,,0,00,9999.0,,,,,,*43
$GNRMC,023629.70,V,,,,,,,150120,0.0,E,N*04
#HEADINGA,COM2,0,82.0,FINE,2088,268607.700,210101,12,18;INSUFFICIENT_OBS,NONE,0.0000,0.0000,0.0000,0.0000,0.0000,0.0000,"",0,0,0,0,0,00,0,0*7db5ed52
$GNGGA,023629.80,,,,,0,00,9999.0,,,,,,*4C
$GNRMC,023629.80,V,,,,,,,150120,0.0,E,N*0B
#HEADINGA,COM2,0,82.0,FINE,2088,268607.800,210201,12,18;INSUFFICIENT_OBS,NONE,0.0000,0.0000,0.0000,0.0000,0.0000,0.0000,"",0,0,0,0,0,00,0,0*0655ac81
$GNGGA,023629.90,,,,,0,00,9999.0,,,,,,*4D
$GNRMC,023629.90,V,,,,,,,150120,0.0,E,N*0A
#HEADINGA,COM2,0,82.0,FINE,2088,268607.900,210301,12,18;INSUFFICIENT_OBS,NONE,0.0000,0.0000,0.0000,0.0000,0.0000,0.0000,"",0,0,0,0,0,00,0,0*22047005
#REFSTATIONA,COM2,0,90.0,UNKNOWN,0,0.000,0,210408,0;00000001,0.000,0.000,0.000,0,NONE,""*159fbccb
$GNGGA,023630.00,,,,,0,00,9999.0,,,,,,*4C
$GNRMC,023630.00,V,,,,,,,150120,0.0,E,N*0B
#HEADINGA,COM2,0,82.0,FINE,2088,268608.000,210405,13,18;INSUFFICIENT_OBS,NONE,0.0000,0.0000,0.0000,0.0000,0.0000,0.0000,"",0,0,0,0,0,00,0,0*c2b6bac1
$GNGGA,023630.10,,,,,0,00,9999.0,,,,,,*4D
$GNRMC,023630.10,V,,,,,,,150120,0.0,E,N*0A
#HEADINGA,COM2,0,82.0,FINE,2088,268608.100,210501,12,18;INSUFFICIENT_OBS,NONE,0.0000,0.0000,0.0000,0.0000,0.0000,0.0000,"",0,0,0,0,0,00,0,0*06a58cb6
$GNGGA,023630.20,,,,,0,00,9999.0,,,,,,*4E
$GNRMC,023630.20,V,,,,,,,150120,0.0,E,N*09
#HEADINGA,COM2,0,82.0,FINE,2088,268608.200,210602,12,18;INSUFFICIENT_OBS,NONE,0.0000,0.0000,0.0000,0.0000,0.0000,0.0000,"",0,0,0,0,0,00,0,0*f1cd53d5
$GNGGA,023630.30,3039.11439001,N,12047.31291170,E,1,07,3.4,6.0393,M,9.8178,M,,*4D
$GNRMC,023630.30,A,3039.11439001,N,12047.31291170,E,0.192,191.1,150120,5.8,W,A*3E
#HEADINGA,COM2,0,82.0,FINE,2088,268608.300,210701,18,18;SOL_COMPUTED,L1_FLOAT,11.2026,92.9953,54.4550,0.0000,21.4736,26.7778,"999",8,6,6,0,3,00,0,1*85388731
$GNGGA,023630.40,3039.11436805,N,12047.31290962,E,1,07,3.4,5.8939,M,9.8178,M,,*42
$GNRMC,023630.40,A,3039.11436805,N,12047.31290962,E,0.175,193.8,150120,5.8,W,A*32
#HEADINGA,COM2,0,82.0,FINE,2088,268608.400,210801,18,18;SOL_COMPUTED,L1_FLOAT,11.2142,93.0022,54.4197,0.0000,21.4361,26.7763,"999",8,6,6,0,3,00,0,1*2cf9b548
$GNGGA,023630.50,3039.11434573,N,12047.31291703,E,1,07,3.4,5.8429,M,9.8178,M,,*49
$GNRMC,023630.50,A,3039.11434573,N,12047.31291703,E,0.189,187.7,150120,5.8,W,A*3C
#HEADINGA,COM2,0,82.0,FINE,2088,268608.500,210901,18,18;SOL_COMPUTED,L1_FLOAT,11.1847,92.9284,54.4076,0.0000,21.4642,26.8486,"999",8,6,6,0,3,00,0,1*b84bce9f
$GNGGA,023630.60,3039.11433957,N,12047.31293690,E,1,07,3.4,5.8935,M,9.8178,M,,*4E
$GNRMC,023630.60,A,3039.11433957,N,12047.31293690,E,0.184,175.1,150120,5.8,W,A*3D
#HEADINGA,COM2,0,82.0,FINE,2088,268608.600,211001,18,18;SOL_COMPUTED,L1_FLOAT,11.1114,93.0118,54.2892,0.0000,21.5708,27.1196,"999",8,6,6,0,3,00,0,1*69fdb7f4
$GNGGA,023630.70,3039.11432803,N,12047.31293800,E,1,07,3.4,5.7855,M,9.8178,M,,*41
$GNRMC,023630.70,A,3039.11432803,N,12047.31293800,E,0.137,175.4,150120,5.8,W,A*37
#HEADINGA,COM2,0,82.0,FINE,2088,268608.700,211101,18,18;SOL_COMPUTED,L1_FLOAT,11.1682,93.1437,54.3659,0.0000,21.5436,26.9407,"999",8,6,6,0,3,00,0,1*e0fc9487
$GNGGA,023630.80,3039.11432079,N,12047.31293015,E,1,07,3.4,5.7939,M,9.8178,M,,*4C
$GNRMC,023630.80,A,3039.11432079,N,12047.31293015,E,0.121,195.9,150120,5.8,W,A*35
#HEADINGA,COM2,0,82.0,FINE,2088,268608.800,211201,18,18;SOL_COMPUTED,L1_FLOAT,11.1528,93.0910,54.3496,0.0000,21.5493,26.9848,"999",8,6,6,0,3,00,0,1*9dd89b4c
$GNGGA,023630.90,3039.11430430,N,12047.31294918,E,1,07,3.4,5.7585,M,9.8178,M,,*4E
$GNRMC,023630.90,A,3039.11430430,N,12047.31294918,E,0.142,167.5,150120,5.8,W,A*38
#HEADINGA,COM2,0,82.0,FINE,2088,268608.900,211301,18,18;SOL_COMPUTED,L1_FLOAT,11.1348,93.0026,54.3391,0.0000,21.5517,27.0273,"999",8,6,6,0,3,00,0,1*14dd9b01
#REFSTATIONA,COM2,0,90.0,UNKNOWN,0,0.000,0,211408,0;00000001,0.000,0.000,0.000,0,NONE,""*528c4a30
$GNGGA,023631.00,3039.11428563,N,12047.31293615,E,1,07,3.4,5.6845,M,9.8178,M,,*4D
$GNRMC,023631.00,A,3039.11428563,N,12047.31293615,E,0.136,189.8,150120,5.8,W,A*35
#HEADINGA,COM2,0,82.0,FINE,2088,268609.000,211405,20,18;SOL_COMPUTED,L1_FLOAT,11.1929,93.1031,54.4169,0.0000,21.5131,26.8423,"999",8,6,6,0,3,00,0,1*d56ad54c
$GNGGA,023631.10,3039.11426531,N,12047.31293067,E,1,07,3.4,5.6005,M,9.8178,M,,*4A
$GNRMC,023631.10,A,3039.11426531,N,12047.31293067,E,0.145,196.4,150120,5.8,W,A*38
#HEADINGA,COM2,0,82.0,FINE,2088,268609.100,211501,19,18;SOL_COMPUTED,L1_FLOAT,11.1640,92.9867,54.3892,0.0000,21.5186,26.9201,"999",8,6,6,0,3,00,0,1*f52ca46c
$GNGGA,023631.20,3039.11424610,N,12047.31293085,E,1,07,3.4,5.4939,M,9.8178,M,,*43
$GNRMC,023631.20,A,3039.11424610,N,12047.31293085,E,0.137,193.7,150120,5.8,W,A*36
#HEADINGA,COM2,0,82.0,FINE,2088,268609.200,211602,18,18;SOL_COMPUTED,L1_FLOAT,11.0090,92.0909,54.3888,0.0000,21.1985,26.7929,"999",8,6,6,0,3,00,0,1*a2618480
$GNGGA,023631.30,3039.11424132,N,12047.31292888,E,1,07,3.4,5.5137,M,9.8178,M,,*46
$GNRMC,023631.30,A,3039.11424132,N,12047.31292888,E,0.130,204.4,150120,5.8,W,A*3D
#HEADINGA,COM2,0,82.0,FINE,2088,268609.300,211701,18,18;SOL_COMPUTED,L1_FLOAT,10.9640,92.0868,54.2333,0.0000,21.2050,27.0142,"999",8,6,6,0,3,00,0,1*92cf9eb7
$GNGGA,023631.40,3039.11422521,N,12047.31293064,E,1,07,3.4,5.4436,M,9.8178,M,,*4F
$GNRMC,023631.40,A,3039.11422521,N,12047.31293064,E,0.129,195.3,150120,5.8,W,A*35
#HEADINGA,COM2,0,82.0,FINE,2088,268609.400,211801,18,18;SOL_COMPUTED,L1_FLOAT,11.0030,91.9583,54.3566,0.0000,21.1562,26.8181,"999",8,6,6,0,3,00,0,1*45055feb
$GNGGA,023631.50,3039.11421028,N,12047.31292833,E,1,07,3.4,5.3676,M,9.8178,M,,*4B
$GNRMC,023631.50,A,3039.11421028,N,12047.31292833,E,0.124,194.6,150120,5.8,W,A*39
#HEADINGA,COM2,0,82.0,FINE,2088,268609.500,211901,18,18;SOL_COMPUTED,L1_FLOAT,10.9632,92.1499,54.3295,0.0000,21.2771,26.9547,"999",8,6,6,0,3,00,0,1*1a2e6d86
$GNGGA,023631.60,3039.11418701,N,12047.31292453,E,1,07,3.4,5.2450,M,9.8178,M,,*43
$GNRMC,023631.60,A,3039.11418701,N,12047.31292453,E,0.142,188.1,150120,5.8,W,A*3C
#HEADINGA,COM2,0,82.0,FINE,2088,268609.600,212001,18,18;SOL_COMPUTED,L1_FLOAT,10.9849,91.9690,54.3435,0.0000,21.1893,26.8735,"999",8,6,6,0,3,00,0,1*788718f0
$GNGGA,023631.70,3039.11417082,N,12047.31291371,E,1,07,3.4,5.1425,M,9.8178,M,,*44
$GNRMC,023631.70,A,3039.11417082,N,12047.31291371,E,0.134,201.4,150120,5.8,W,A*3C
#HEADINGA,COM2,0,82.0,FINE,2088,268609.700,212101,18,18;SOL_COMPUTED,L1_FLOAT,11.0273,92.1203,54.3977,0.0000,21.1817,26.7473,"999",8,6,6,0,3,00,0,1*9f377aff
$GNGGA,023631.80,3039.11416516,N,12047.31291561,E,1,07,3.4,5.1371,M,9.8178,M,,*43
$GNRMC,023631.80,A,3039.11416516,N,12047.31291561,E,0.123,194.9,150120,5.8,W,A*39
#HEADINGA,COM2,0,82.0,FINE,2088,268609.800,212201,18,18;SOL_COMPUTED,L1_FLOAT,10.9894,92.0414,54.3056,0.0000,21.1846,26.8978,"999",8,6,6,0,3,00,0,1*f3fbf56d
$GNGGA,023631.90,3039.11415224,N,12047.31290862,E,1,07,3.4,5.0690,M,9.8178,M,,*43
$GNRMC,023631.90,A,3039.11415224,N,12047.31290862,E,0.121,200.7,150120,5.8,W,A*30
#HEADINGA,COM2,0,80.0,FINE,2088,268609.900,212301,18,18;SOL_COMPUTED,L1_FLOAT,11.0082,92.1019,54.4098,0.0000,21.2211,26.7841,"999",8,6,6,0,3,00,0,1*71c7aa1d
#REFSTATIONA,COM2,0,90.0,UNKNOWN,0,0.000,0,212409,0;00000001,0.000,0.000,0.000,0,NONE,""*34fcc37a
$GNGGA,023632.00,3039.11414145,N,12047.31290729,E,1,07,3.4,5.0646,M,9.8178,M,,*47
$GNRMC,023632.00,A,3039.11414145,N,12047.31290729,E,0.149,192.8,150120,5.8,W,A*36
#HEADINGA,COM2,0,80.0,FINE,2088,268610.000,212406,20,18;SOL_COMPUTED,L1_FLOAT,10.9976,92.1262,54.3742,0.0000,21.2313,26.8382,"999",8,6,6,0,3,00,0,1*b8cad577
$GNGGA,023632.10,3039.11412726,N,12047.31290703,E,1,07,3.4,4.9710,M,9.8178,M,,*41
$GNRMC,023632.10,A,3039.11412726,N,12047.31290703,E,0.136,180.6,150120,5.8,W,A*3F
#HEADINGA,COM2,0,80.0,FINE,2088,268610.100,212501,19,18;SOL_COMPUTED,L1_FLOAT,10.9887,92.0475,54.3797,0.0000,21.2290,26.8486,"999",8,6,6,0,3,00,0,1*017a3e5c
$GNGGA,023632.20,3039.11412094,N,12047.31290683,E,1,07,3.4,4.9109,M,9.8178,M,,*4B
$GNRMC,023632.20,A,3039.11412094,N,12047.31290683,E,0.102,170.7,150120,5.8,W,A*32
#HEADINGA,COM2,0,80.0,FINE,2088,268610.200,212601,19,18;SOL_COMPUTED,L1_FLOAT,10.8128,91.3541,54.2121,0.0000,20.9514,26.9282,"999",8,6,6,0,3,00,0,1*11b7348f
$GNGGA,023632.30,3039.11411006,N,12047.31289843,E,1,07,3.4,4.8362,M,9.8178,M,,*46
$GNRMC,023632.30,A,3039.11411006,N,12047.31289843,E,0.089,179.7,150120,5.8,W,A*3A
#HEADINGA,COM2,0,80.0,FINE,2088,268610.300,212701,18,18;SOL_COMPUTED,L1_FLOAT,10.8014,91.4264,54.1769,0.0000,20.9773,26.9897,"999",8,6,6,0,3,00,0,1*4b9f6cac
$GNGGA,023632.40,3039.11410390,N,12047.31289165,E,1,07,3.4,4.8227,M,9.8178,M,,*41
$GNRMC,023632.40,A,3039.11410390,N,12047.31289165,E,0.093,189.8,150120,5.8,W,A*36
#HEADINGA,COM2,0,80.0,FINE,2088,268610.400,212801,18,18;SOL_COMPUTED,L1_FLOAT,10.8466,91.3558,54.2810,0.0000,20.9236,26.7964,"999",8,6,6,0,3,00,0,1*15f43cd3
$GNGGA,023632.50,3039.11408988,N,12047.31288440,E,1,07,3.4,4.7416,M,9.8178,M,,*42
$GNRMC,023632.50,A,3039.11408988,N,12047.31288440,E,0.102,187.7,150120,5.8,W,A*36
#HEADINGA,COM2,0,80.0,FINE,2088,268610.500,212901,18,18;SOL_COMPUTED,L1_FLOAT,10.8187,91.2924,54.2146,0.0000,20.9267,26.9070,"999",8,6,6,0,3,00,0,1*7e58697c
$GNGGA,023632.60,3039.11408113,N,12047.31288191,E,1,07,3.4,4.6996,M,9.8178,M,,*46
$GNRMC,023632.60,A,3039.11408113,N,12047.31288191,E,0.105,177.9,150120,5.8,W,A*30
#HEADINGA,COM2,0,80.0,FINE,2088,268610.600,213001,18,18;SOL_COMPUTED,L1_FLOAT,10.8359,91.2449,54.3138,0.0000,20.9316,26.7894,"999",8,6,6,0,3,00,0,1*aaa256ef
$GNGGA,023632.70,3039.11407660,N,12047.31287507,E,1,07,3.4,4.6568,M,9.8178,M,,*42
$GNRMC,023632.70,A,3039.11407660,N,12047.31287507,E,0.076,184.0,150120,5.8,W,A*39
#HEADINGA,COM2,0,80.0,FINE,2088,268610.700,213101,18,18;SOL_COMPUTED,L1_FLOAT,10.8499,91.4241,54.4227,0.0000,21.0117,26.6954,"999",8,6,6,0,3,00,0,1*de541ef0
$GNGGA,023632.80,,,,,0,00,9999.0,,,,,,*46
$GNRMC,023632.80,V,,,,,,,150120,0.0,E,N*01
#HEADINGA,COM2,0,80.0,FINE,2088,268610.800,213201,12,18;INSUFFICIENT_OBS,NONE,0.0000,0.0000,0.0000,0.0000,0.0000,0.0000,"",0,0,0,0,0,00,0,0*162c9294
$GNGGA,023632.90,3039.11406482,N,12047.31286168,E,1,07,3.4,4.5460,M,9.8178,M,,*45
$GNRMC,023632.90,A,3039.11406482,N,12047.31286168,E,0.067,190.6,150120,5.8,W,A*37
#HEADINGA,COM2,0,80.0,FINE,2088,268610.900,213301,18,18;SOL_COMPUTED,L1_FLOAT,10.8418,91.4681,54.3250,0.0000,20.9920,26.7902,"999",8,6,6,0,3,00,0,1*28250fe3
#REFSTATIONA,COM2,0,90.0,UNKNOWN,0,0.000,0,213409,0;00000001,0.000,0.000,0.000,0,NONE,""*73ef3581
$GNGGA,023633.00,3039.11405548,N,12047.31285047,E,1,07,3.4,4.4853,M,9.8178,M,,*4B
$GNRMC,023633.00,A,3039.11405548,N,12047.31285047,E,0.077,188.7,150120,5.8,W,A*3D
#HEADINGA,COM2,0,80.0,FINE,2088,268611.000,213406,20,18;SOL_COMPUTED,L1_FLOAT,10.8748,91.2080,54.3261,0.0000,20.8562,26.6828,"999",8,6,6,0,3,00,0,1*5823e649
$GNGGA,023633.10,,,,,0,00,9999.0,,,,,,*4E
$GNRMC,023633.10,V,,,,,,,150120,0.0,E,N*09
#HEADINGA,COM2,0,80.0,FINE,2088,268611.100,213501,13,18;INSUFFICIENT_OBS,NONE,0.0000,0.0000,0.0000,0.0000,0.0000,0.0000,"",0,0,0,0,0,00,0,0*f6998239
$GNGGA,023633.20,,,,,0,00,9999.0,,,,,,*4D
$GNRMC,023633.20,V,,,,,,,150120,0.0,E,N*0A
#HEADINGA,COM2,0,80.0,FINE,2088,268611.200,213602,12,18;INSUFFICIENT_OBS,NONE,0.0000,0.0000,0.0000,0.0000,0.0000,0.0000,"",0,0,0,0,0,00,0,0*56341543
$GNGGA,023633.30,,,,,0,00,9999.0,,,,,,*4C
$GNRMC,023633.30,V,,,,,,,150120,0.0,E,N*0B
#HEADINGA,COM2,0,80.0,FINE,2088,268611.300,213701,12,18;INSUFFICIENT_OBS,NONE,0.0000,0.0000,0.0000,0.0000,0.0000,0.0000,"",0,0,0,0,0,00,0,0*e9ff7328
$GNGGA,023633.40,,,,,0,00,9999.0,,,,,,*4B
$GNRMC,023633.40,V,,,,,,,150120,0.0,E,N*0C
#HEADINGA,COM2,0,80.0,FINE,2088,268611.400,213801,12,18;INSUFFICIENT_OBS,NONE,0.0000,0.0000,0.0000,0.0000,0.0000,0.0000,"",0,0,0,0,0,00,0,0*f7a9bebf
$GNGGA,023633.50,,,,,0,00,9999.0,,,,,,*4A
$GNRMC,023633.50,V,,,,,,,150120,0.0,E,N*0D
#HEADINGA,COM2,0,80.0,FINE,2088,268611.500,213901,12,18;INSUFFICIENT_OBS,NONE,0.0000,0.0000,0.0000,0.0000,0.0000,0.0000,"",0,0,0,0,0,00,0,0*d3f8623b
$GNGGA,023633.60,,,,,0,00,9999.0,,,,,,*49
$GNRMC,023633.60,V,,,,,,,150120,0.0,E,N*0E
#HEADINGA,COM2,0,80.0,FINE,2088,268611.600,214001,12,18;INSUFFICIENT_OBS,NONE,0.0000,0.0000,0.0000,0.0000,0.0000,0.0000,"",0,0,0,0,0,00,0,0*18a3dfc9
$GNGGA,023633.70,,,,,0,00,9999.0,,,,,,*48
$GNRMC,023633.70,V,,,,,,,150120,0.0,E,N*0F
#HEADINGA,COM2,0,80.0,FINE,2088,268611.700,214101,12,18;INSUFFICIENT_OBS,NONE,0.0000,0.0000,0.0000,0.0000,0.0000,0.0000,"",0,0,0,0,0,00,0,0*3cf2034d
$GNGGA,023633.80,,,,,0,00,9999.0,,,,,,*47
$GNRMC,023633.80,V,,,,,,,150120,0.0,E,N*00
#HEADINGA,COM2,0,80.0,FINE,2088,268611.800,214201,12,18;INSUFFICIENT_OBS,NONE,0.0000,0.0000,0.0000,0.0000,0.0000,0.0000,"",0,0,0,0,0,00,0,0*4712429e
$GNGGA,023633.90,,,,,0,00,9999.0,,,,,,*46
$GNRMC,023633.90,V,,,,,,,150120,0.0,E,N*01
#HEADINGA,COM2,0,80.0,FINE,2088,268611.900,214301,12,18;INSUFFICIENT_OBS,NONE,0.0000,0.0000,0.0000,0.0000,0.0000,0.0000,"",0,0,0,0,0,00,0,0*63439e1a
#REFSTATIONA,COM2,0,90.0,UNKNOWN,0,0.000,0,214409,0;00000001,0.000,0.000,0.000,0,NONE,""*7de5f321
$GNGGA,023634.00,,,,,0,00,9999.0,,,,,,*48
$GNRMC,023634.00,V,,,,,,,150120,0.0,E,N*0F
#HEADINGA,COM2,0,80.0,FINE,2088,268612.000,214406,12,18;INSUFFICIENT_OBS,NONE,0.0000,0.0000,0.0000,0.0000,0.0000,0.0000,"",0,0,0,0,0,00,0,0*4e8e1470
$GNGGA,023634.10,,,,,0,00,9999.0,,,,,,*49
$GNRMC,023634.10,V,,,,,,,150120,0.0,E,N*0E
#HEADINGA,COM2,0,80.0,FINE,2088,268612.100,214501,12,18;INSUFFICIENT_OBS,NONE,0.0000,0.0000,0.0000,0.0000,0.0000,0.0000,"",0,0,0,0,0,00,0,0*46c2d0f1
$GNGGA,023634.20,,,,,0,00,9999.0,,,,,,*4A
$GNRMC,023634.20,V,,,,,,,150120,0.0,E,N*0D
#HEADINGA,COM2,0,80.0,FINE,2088,268612.200,214602,12,18;INSUFFICIENT_OBS,NONE,0.0000,0.0000,0.0000,0.0000,0.0000,0.0000,"",0,0,0,0,0,00,0,0*b1aa0f92
$GNGGA,023634.30,,,,,0,00,9999.0,,,,,,*4B
$GNRMC,023634.30,V,,,,,,,150120,0.0,E,N*0C
#HEADINGA,COM2,0,80.0,FINE,2088,268612.300,214701,12,18;INSUFFICIENT_OBS,NONE,0.0000,0.0000,0.0000,0.0000,0.0000,0.0000,"",0,0,0,0,0,00,0,0*0e6169f9
$GNGGA,023634.40,,,,,0,00,9999.0,,,,,,*4C
$GNRMC,023634.40,V,,,,,,,150120,0.0,E,N*0B
#HEADINGA,COM2,0,80.0,FINE,2088,268612.400,214801,12,18;INSUFFICIENT_OBS,NONE,0.0000,0.0000,0.0000,0.0000,0.0000,0.0000,"",0,0,0,0,0,00,0,0*1037a46e
$GNGGA,023634.50,,,,,0,00,9999.0,,,,,,*4D
$GNRMC,023634.50,V,,,,,,,150120,0.0,E,N*0A
#HEADINGA,COM2,0,80.0,FINE,2088,268612.500,214901,12,18;INSUFFICIENT_OBS,NONE,0.0000,0.0000,0.0000,0.0000,0.0000,0.0000,"",0,0,0,0,0,00,0,0*346678ea
$GNGGA,023634.60,,,,,0,00,9999.0,,,,,,*4E
$GNRMC,023634.60,V,,,,,,,150120,0.0,E,N*09
#HEADINGA,COM2,0,80.0,FINE,2088,268612.600,215001,12,18;INSUFFICIENT_OBS,NONE,0.0000,0.0000,0.0000,0.0000,0.0000,0.0000,"",0,0,0,0,0,00,0,0*7cd19585
$GNGGA,023634.70,,,,,0,00,9999.0,,,,,,*4F
$GNRMC,023634.70,V,,,,,,,150120,0.0,E,N*08
#HEADINGA,COM2,0,80.0,FINE,2088,268612.700,215101,11,18;INSUFFICIENT_OBS,NONE,0.0000,0.0000,0.0000,0.0000,0.0000,0.0000,"",0,0,0,0,0,00,0,0*a0cf912a
$GNGGA,023634.80,,,,,0,00,9999.0,,,,,,*40
$GNRMC,023634.80,V,,,,,,,150120,0.0,E,N*07
#HEADINGA,COM2,0,80.0,FINE,2088,268612.800,215201,12,18;INSUFFICIENT_OBS,NONE,0.0000,0.0000,0.0000,0.0000,0.0000,0.0000,"",0,0,0,0,0,00,0,0*236008d2
$GNGGA,023634.90,,,,,0,00,9999.0,,,,,,*41
$GNRMC,023634.90,V,,,,,,,150120,0.0,E,N*06
#HEADINGA,COM2,0,80.0,FINE,2088,268612.900,215301,11,18;INSUFFICIENT_OBS,NONE,0.0000,0.0000,0.0000,0.0000,0.0000,0.0000,"",0,0,0,0,0,00,0,0*ff7e0c7d
#REFSTATIONA,COM2,0,90.0,UNKNOWN,0,0.000,0,215408,0;00000001,0.000,0.000,0.000,0,NONE,""*95b2979d
$GNGGA,023635.00,,,,,0,00,9999.0,,,,,,*49
$GNRMC,023635.00,V,,,,,,,150120,0.0,E,N*0E
#HEADINGA,COM2,0,82.0,FINE,2088,268613.000,215405,12,18;INSUFFICIENT_OBS,NONE,0.0000,0.0000,0.0000,0.0000,0.0000,0.0000,"",0,0,0,0,0,00,0,0*0552d1d9
$GNGGA,023635.10,,,,,0,00,9999.0,,,,,,*48
$GNRMC,023635.10,V,,,,,,,150120,0.0,E,N*0F
#HEADINGA,COM2,0,82.0,FINE,2088,268613.100,215501,12,18;INSUFFICIENT_OBS,NONE,0.0000,0.0000,0.0000,0.0000,0.0000,0.0000,"",0,0,0,0,0,00,0,0*9684afb7
$GNGGA,023635.20,,,,,0,00,9999.0,,,,,,*4B
$GNRMC,023635.20,V,,,,,,,150120,0.0,E,N*0C
#HEADINGA,COM2,0,82.0,FINE,2088,268613.200,215602,11,18;INSUFFICIENT_OBS,NONE,0.0000,0.0000,0.0000,0.0000,0.0000,0.0000,"",0,0,0,0,0,00,0,0*99a3a8ff
$GNGGA,023635.30,,,,,0,00,9999.0,,,,,,*4A
$GNRMC,023635.30,V,,,,,,,150120,0.0,E,N*0D
#HEADINGA,COM2,0,82.0,FINE,2088,268613.300,215701,12,18;INSUFFICIENT_OBS,NONE,0.0000,0.0000,0.0000,0.0000,0.0000,0.0000,"",0,0,0,0,0,00,0,0*de2716bf
$GNGGA,023635.40,,,,,0,00,9999.0,,,,,,*4D
$GNRMC,023635.40,V,,,,,,,150120,0.0,E,N*0A
#HEADINGA,COM2,0,82.0,FINE,2088,268613.400,215801,12,18;INSUFFICIENT_OBS,NONE,0.0000,0.0000,0.0000,0.0000,0.0000,0.0000,"",0,0,0,0,0,00,0,0*c071db28
$GNGGA,023635.50,,,,,0,00,9999.0,,,,,,*4C
$GNRMC,023635.50,V,,,,,,,150120,0.0,E,N*0B
#HEADINGA,COM2,0,82.0,FINE,2088,268613.500,215901,12,18;INSUFFICIENT_OBS,NONE,0.0000,0.0000,0.0000,0.0000,0.0000,0.0000,"",0,0,0,0,0,00,0,0*e42007ac
$GNGGA,023635.60,,,,,0,00,9999.0,,,,,,*4F
$GNRMC,023635.60,V,,,,,,,150120,0.0,E,N*08
#HEADINGA,COM2,0,82.0,FINE,2088,268613.600,216001,12,18;INSUFFICIENT_OBS,NONE,0.0000,0.0000,0.0000,0.0000,0.0000,0.0000,"",0,0,0,0,0,00,0,0*64e32777
$GNGGA,023635.70,,,,,0,00,9999.0,,,,,,*4E
$GNRMC,023635.70,V,,,,,,,150120,0.0,E,N*09
#HEADINGA,COM2,0,82.0,FINE,2088,268613.700,216101,12,18;INSUFFICIENT_OBS,NONE,0.0000,0.0000,0.0000,0.0000,0.0000,0.0000,"",0,0,0,0,0,00,0,0*40b2fbf3
$GNGGA,023635.80,,,,,0,00,9999.0,,,,,,*41
$GNRMC,023635.80,V,,,,,,,150120,0.0,E,N*06
#HEADINGA,COM2,0,82.0,FINE,2088,268613.800,216201,12,18;INSUFFICIENT_OBS,NONE,0.0000,0.0000,0.0000,0.0000,0.0000,0.0000,"",0,0,0,0,0,00,0,0*3b52ba20
$GNGGA,023635.90,,,,,0,00,9999.0,,,,,,*40
$GNRMC,023635.90,V,,,,,,,150120,0.0,E,N*07
#HEADINGA,COM2,0,82.0,FINE,2088,268613.900,216301,12,18;INSUFFICIENT_OBS,NONE,0.0000,0.0000,0.0000,0.0000,0.0000,0.0000,"",0,0,0,0,0,00,0,0*1f0366a4
#REFSTATIONA,COM2,0,90.0,UNKNOWN,0,0.000,0,216407,0;00000001,0.000,0.000,0.000,0,NONE,""*dcc8fe38
$GNGGA,023636.00,,,,,0,00,9999.0,,,,,,*4A
$GNRMC,023636.00,V,,,,,,,150120,0.0,E,N*0D
#HEADINGA,COM2,0,82.0,FINE,2088,268614.000,216404,13,18;INSUFFICIENT_OBS,NONE,0.0000,0.0000,0.0000,0.0000,0.0000,0.0000,"",0,0,0,0,0,00,0,0*88f8e655
$GNGGA,023636.10,,,,,0,00,9999.0,,,,,,*4B
$GNRMC,023636.10,V,,,,,,,150120,0.0,E,N*0C
#HEADINGA,COM2,0,82.0,FINE,2088,268614.100,216501,12,18;INSUFFICIENT_OBS,NONE,0.0000,0.0000,0.0000,0.0000,0.0000,0.0000,"",0,0,0,0,0,00,0,0*8cb2bbb8
$GNGGA,023636.20,,,,,0,00,9999.0,,,,,,*48
$GNRMC,023636.20,V,,,,,,,150120,0.0,E,N*0F
#HEADINGA,COM2,0,82.0,FINE,2088,268614.200,216602,11,18;INSUFFICIENT_OBS,NONE,0.0000,0.0000,0.0000,0.0000,0.0000,0.0000,"",0,0,0,0,0,00,0,0*8395bcf0
$GNGGA,023636.30,,,,,0,00,9999.0,,,,,,*49
$GNRMC,023636.30,V,,,,,,,150120,0.0,E,N*0E
#HEADINGA,COM2,0,82.0,FINE,2088,268614.300,216701,12,18;INSUFFICIENT_OBS,NONE,0.0000,0.0000,0.0000,0.0000,0.0000,0.0000,"",0,0,0,0,0,00,0,0*c41102b0
$GNGGA,023636.40,,,,,0,00,9999.0,,,,,,*4E
$GNRMC,023636.40,V,,,,,,,150120,0.0,E,N*09
#HEADINGA,COM2,0,82.0,FINE,2088,268614.400,216801,12,18;INSUFFICIENT_OBS,NONE,0.0000,0.0000,0.0000,0.0000,0.0000,0.0000,"",0,0,0,0,0,00,0,0*da47cf27
$GNGGA,023636.50,,,,,0,00,9999.0,,,,,,*4F
$GNRMC,023636.50,V,,,,,,,150120,0.0,E,N*08
#HEADINGA,COM2,0,82.0,FINE,2088,268614.500,216901,12,18;INSUFFICIENT_OBS,NONE,0.0000,0.0000,0.0000,0.0000,0.0000,0.0000,"",0,0,0,0,0,00,0,0*fe1613a3
$GNGGA,023636.60,,,,,0,00,9999.0,,,,,,*4C
$GNRMC,023636.60,V,,,,,,,150120,0.0,E,N*0B
#HEADINGA,COM2,0,82.0,FINE,2088,268614.600,217001,12,18;INSUFFICIENT_OBS,NONE,0.0000,0.0000,0.0000,0.0000,0.0000,0.0000,"",0,0,0,0,0,00,0,0*b6a1fecc
$GNGGA,023636.70,,,,,0,00,9999.0,,,,,,*4D
$GNRMC,023636.70,V,,,,,,,150120,0.0,E,N*0A
#HEADINGA,COM2,0,82.0,FINE,2088,268614.700,217101,11,18;INSUFFICIENT_OBS,NONE,0.0000,0.0000,0.0000,0.0000,0.0000,0.0000,"",0,0,0,0,0,00,0,0*6abffa63
$GNGGA,023636.80,,,,,0,00,9999.0,,,,,,*42
$GNRMC,023636.80,V,,,,,,,150120,0.0,E,N*05
#HEADINGA,COM2,0,82.0,FINE,2088,268614.800,217201,12,18;INSUFFICIENT_OBS,NONE,0.0000,0.0000,0.0000,0.0000,0.0000,0.0000,"",0,0,0,0,0,00,0,0*e910639b
$GNGGA,023636.90,,,,,0,00,9999.0,,,,,,*43
$GNRMC,023636.90,V,,,,,,,150120,0.0,E,N*04
#HEADINGA,COM2,0,82.0,FINE,2088,268614.900,217301,11,18;INSUFFICIENT_OBS,NONE,0.0000,0.0000,0.0000,0.0000,0.0000,0.0000,"",0,0,0,0,0,00,0,0*350e6734
#REFSTATIONA,COM2,0,90.0,UNKNOWN,0,0.000,0,217407,0;00000001,0.000,0.000,0.000,0,NONE,""*9bdb08c3
$GNGGA,023637.00,,,,,0,00,9999.0,,,,,,*4B
$GNRMC,023637.00,V,,,,,,,150120,0.0,E,N*0C
#HEADINGA,COM2,0,82.0,FINE,2088,268615.000,217404,13,18;INSUFFICIENT_OBS,NONE,0.0000,0.0000,0.0000,0.0000,0.0000,0.0000,"",0,0,0,0,0,00,0,0*5a2a66c2
$GNGGA,023637.10,,,,,0,00,9999.0,,,,,,*4A
$GNRMC,023637.10,V,,,,,,,150120,0.0,E,N*0D
#HEADINGA,COM2,0,82.0,FINE,2088,268615.100,217501,12,18;INSUFFICIENT_OBS,NONE,0.0000,0.0000,0.0000,0.0000,0.0000,0.0000,"",0,0,0,0,0,00,0,0*5e603b2f
$GNGGA,023637.20,,,,,0,00,9999.0,,,,,,*49
$GNRMC,023637.20,V,,,,,,,150120,0.0,E,N*0E
#HEADINGA,COM2,0,82.0,FINE,2088,268615.200,217602,11,18;INSUFFICIENT_OBS,NONE,0.0000,0.0000,0.0000,0.0000,0.0000,0.0000,"",0,0,0,0,0,00,0,0*51473c67
$GNGGA,023637.30,,,,,0,00,9999.0,,,,,,*48
$GNRMC,023637.30,V,,,,,,,150120,0.0,E,N*0F
#HEADINGA,COM2,0,82.0,FINE,2088,268615.300,217701,12,18;INSUFFICIENT_OBS,NONE,0.0000,0.0000,0.0000,0.0000,0.0000,0.0000,"",0,0,0,0,0,00,0,0*16c38227
$GNGGA,023637.40,,,,,0,00,9999.0,,,,,,*4F
$GNRMC,023637.40,V,,,,,,,150120,0.0,E,N*08
#HEADINGA,COM2,0,82.0,FINE,2088,268615.400,217801,12,18;INSUFFICIENT_OBS,NONE,0.0000,0.0000,0.0000,0.0000,0.0000,0.0000,"",0,0,0,0,0,00,0,0*08954fb0
$GNGGA,023637.50,,,,,0,00,9999.0,,,,,,*4E
$GNRMC,023637.50,V,,,,,,,150120,0.0,E,N*09
#HEADINGA,COM2,0,82.0,FINE,2088,268615.500,217901,12,18;INSUFFICIENT_OBS,NONE,0.0000,0.0000,0.0000,0.0000,0.0000,0.0000,"",0,0,0,0,0,00,0,0*2cc49334
$GNGGA,023637.60,,,,,0,00,9999.0,,,,,,*4D
$GNRMC,023637.60,V,,,,,,,150120,0.0,E,N*0A
#HEADINGA,COM2,0,82.0,FINE,2088,268615.600,218001,11,18;INSUFFICIENT_OBS,NONE,0.0000,0.0000,0.0000,0.0000,0.0000,0.0000,"",0,0,0,0,0,00,0,0*88e1ccbf
$GNGGA,023637.70,,,,,0,00,9999.0,,,,,,*4C
$GNRMC,023637.70,V,,,,,,,150120,0.0,E,N*0B
#HEADINGA,COM2,0,82.0,FINE,2088,268615.700,218101,12,18;INSUFFICIENT_OBS,NONE,0.0000,0.0000,0.0000,0.0000,0.0000,0.0000,"",0,0,0,0,0,00,0,0*54ffc810
$GNGGA,023637.80,,,,,0,00,9999.0,,,,,,*43
$GNRMC,023637.80,V,,,,,,,150120,0.0,E,N*04
#HEADINGA,COM2,0,82.0,FINE,2088,268615.800,218201,12,18;INSUFFICIENT_OBS,NONE,0.0000,0.0000,0.0000,0.0000,0.0000,0.0000,"",0,0,0,0,0,00,0,0*2f1f89c3
$GNGGA,023637.90,,,,,0,00,9999.0,,,,,,*42
$GNRMC,023637.90,V,,,,,,,150120,0.0,E,N*05
#HEADINGA,COM2,0,82.0,FINE,2088,268615.900,218301,12,18;INSUFFICIENT_OBS,NONE,0.0000,0.0000,0.0000,0.0000,0.0000,0.0000,"",0,0,0,0,0,00,0,0*0b4e5547
#REFSTATIONA,COM2,0,90.0,UNKNOWN,0,0.000,0,218408,0;00000001,0.000,0.000,0.000,0,NONE,""*409301d0
$GNGGA,023638.00,,,,,0,00,9999.0,,,,,,*44
$GNRMC,023638.00,V,,,,,,,150120,0.0,E,N*03
#HEADINGA,COM2,0,86.0,FINE,2088,268616.000,218405,13,18;INSUFFICIENT_OBS,NONE,0.0000,0.0000,0.0000,0.0000,0.0000,0.0000,"",0,0,0,0,0,00,0,0*eff5d279
$GNGGA,023638.10,,,,,0,00,9999.0,,,,,,*45
$GNRMC,023638.10,V,,,,,,,150120,0.0,E,N*02
#HEADINGA,COM2,0,86.0,FINE,2088,268616.100,218502,12,18;INSUFFICIENT_OBS,NONE,0.0000,0.0000,0.0000,0.0000,0.0000,0.0000,"",0,0,0,0,0,00,0,0*b07c5ee1
$GNGGA,023638.20,,,,,0,00,9999.0,,,,,,*46
$GNRMC,023638.20,V,,,,,,,150120,0.0,E,N*01
#HEADINGA,COM2,0,86.0,FINE,2088,268616.200,218602,11,18;INSUFFICIENT_OBS,NONE,0.0000,0.0000,0.0000,0.0000,0.0000,0.0000,"",0,0,0,0,0,00,0,0*24c1e346
$GNGGA,023638.30,,,,,0,00,9999.0,,,,,,*47
$GNRMC,023638.30,V,,,,,,,150120,0.0,E,N*00
#HEADINGA,COM2,0,86.0,FINE,2088,268616.300,218701,12,18;INSUFFICIENT_OBS,NONE,0.0000,0.0000,0.0000,0.0000,0.0000,0.0000,"",0,0,0,0,0,00,0,0*63455d06
$GNGGA,023638.40,3039.11379900,N,12047.31256528,E,1,07,3.4,3.3727,M,9.8178,M,,*46
$GNRMC,023638.40,A,3039.11379900,N,12047.31256528,E,0.214,232.7,150120,5.8,W,A*39
#HEADINGA,COM2,0,86.0,FINE,2088,268616.400,218801,18,18;SOL_COMPUTED,L1_FLOAT,11.0108,90.1475,55.0284,0.0000,47.2268,58.9891,"999",8,5,5,0,3,00,0,1*c7f656e2
$GNGGA,023638.50,3039.11373437,N,12047.31250386,E,1,07,3.4,3.4528,M,9.8178,M,,*4A
$GNRMC,023638.50,A,3039.11373437,N,12047.31250386,E,0.054,204.9,150120,5.8,W,A*32
#HEADINGA,COM2,0,86.0,FINE,2088,268616.500,218901,18,18;SOL_COMPUTED,L1_FLOAT,10.9376,90.4133,54.8581,0.0000,47.4417,59.7799,"999",8,5,5,0,3,00,0,1*facc04a1
$GNGGA,023638.60,3039.11365713,N,12047.31239081,E,1,07,3.4,3.6920,M,9.8177,M,,*49
$GNRMC,023638.60,A,3039.11365713,N,12047.31239081,E,0.096,221.2,150120,5.8,W,A*3A
#HEADINGA,COM2,0,86.0,FINE,2088,268616.600,219001,18,18;SOL_COMPUTED,L1_FLOAT,11.0562,90.0514,55.1506,0.0000,47.1507,58.5062,"999",8,5,5,0,3,00,0,1*aa95b99c
$GNGGA,023638.70,3039.11356506,N,12047.31232046,E,1,07,3.4,3.5938,M,9.8177,M,,*44
$GNRMC,023638.70,A,3039.11356506,N,12047.31232046,E,0.139,129.0,150120,5.8,W,A*30
#HEADINGA,COM2,0,86.0,FINE,2088,268616.700,219101,18,18;SOL_COMPUTED,L1_FLOAT,11.0416,90.0152,55.2344,0.0000,47.3036,58.4277,"999",8,5,5,0,3,00,0,1*b09d42d1
$GNGGA,023638.80,3039.11348942,N,12047.31223974,E,1,07,3.4,3.5701,M,9.8177,M,,*44
$GNRMC,023638.80,A,3039.11348942,N,12047.31223974,E,0.121,130.9,150120,5.8,W,A*3C
#HEADINGA,COM2,0,86.0,FINE,2088,268616.800,219201,18,18;SOL_COMPUTED,L1_FLOAT,11.0726,90.0683,55.3258,0.0000,47.3029,58.1267,"999",8,5,5,0,3,00,0,1*ce38b84c
$GNGGA,023638.90,3039.11342018,N,12047.31216397,E,1,07,3.4,3.5424,M,9.8177,M,,*4C
$GNRMC,023638.90,A,3039.11342018,N,12047.31216397,E,0.098,145.6,150120,5.8,W,A*3E
#HEADINGA,COM2,0,86.0,FINE,2088,268616.900,219301,18,18;SOL_COMPUTED,L1_FLOAT,10.9773,90.2785,54.9710,0.0000,47.3712,59.3293,"999",8,5,5,0,3,00,0,1*f105247c
#REFSTATIONA,COM2,0,90.0,UNKNOWN,0,0.000,0,219409,0;00000001,0.000,0.000,0.000,0,NONE,""*a8c4656c
$GNGGA,023639.00,3039.11335076,N,12047.31210509,E,1,07,3.4,3.4849,M,9.8178,M,,*42
$GNRMC,023639.00,A,3039.11335076,N,12047.31210509,E,0.157,149.6,150120,5.8,W,A*37
#HEADINGA,COM2,0,86.0,FINE,2088,268617.000,219406,20,18;SOL_COMPUTED,L1_FLOAT,11.0881,90.0549,55.4081,0.0000,47.3387,57.9034,"999",8,5,5,0,3,00,0,1*0c714c8e
$GNGGA,023639.10,3039.11329435,N,12047.31204954,E,1,07,3.4,3.4720,M,9.8178,M,,*4C
$GNRMC,023639.10,A,3039.11329435,N,12047.31204954,E,0.151,159.0,150120,5.8,W,A*38
#HEADINGA,COM2,0,86.0,FINE,2088,268617.100,219501,19,18;SOL_COMPUTED,L1_FLOAT,10.9390,90.2241,54.8503,0.0000,47.3834,59.7343,"999",8,5,5,0,3,00,0,1*5be36513
$GNGGA,023639.20,3039.11323848,N,12047.31199808,E,1,07,3.4,3.4178,M,9.8178,M,,*47
$GNRMC,023639.20,A,3039.11323848,N,12047.31199808,E,0.152,163.9,150120,5.8,W,A*3B
#HEADINGA,COM2,0,86.0,FINE,2088,268617.200,219602,18,18;SOL_COMPUTED,L1_FLOAT,11.0081,89.3105,55.1048,0.0000,46.6180,57.9900,"999",8,5,5,0,3,00,0,1*587a6dec
$GNGGA,023639.30,3039.11319130,N,12047.31195797,E,1,07,3.4,3.3467,M,9.8178,M,,*40
$GNRMC,023639.30,A,3039.11319130,N,12047.31195797,E,0.134,144.6,150120,5.8,W,A*3A
#HEADINGA,COM2,0,86.0,FINE,2088,268617.300,219701,18,18;SOL_COMPUTED,L1_FLOAT,10.9694,89.4310,55.1076,0.0000,46.8329,58.2347,"999",8,5,5,0,3,00,0,1*6dcefd30
$GNGGA,023639.40,3039.11315807,N,12047.31191420,E,1,07,3.4,3.3641,M,9.8177,M,,*44
$GNRMC,023639.40,A,3039.11315807,N,12047.31191420,E,0.074,269.0,150120,5.8,W,A*38
#HEADINGA,COM2,0,86.0,FINE,2088,268617.400,219801,18,18;SOL_COMPUTED,L1_FLOAT,10.8764,89.7420,54.7729,0.0000,46.9568,59.4295,"999",8,5,5,0,3,00,0,1*a16766d9
$GNGGA,023639.50,3039.11312809,N,12047.31188264,E,1,07,3.4,3.3836,M,9.8177,M,,*4C
$GNRMC,023639.50,A,3039.11312809,N,12047.31188264,E,0.038,60.4,150120,5.8,W,A*09
#HEADINGA,COM2,0,86.0,FINE,2088,268617.500,219901,18,18;SOL_COMPUTED,L1_FLOAT,10.9101,89.5839,54.8592,0.0000,46.8597,59.0427,"999",8,5,5,0,3,00,0,1*4ab885fc
$GNGGA,023639.60,3039.11308801,N,12047.31184430,E,1,07,3.4,3.3429,M,9.8177,M,,*45
$GNRMC,023639.60,A,3039.11308801,N,12047.31184430,E,0.042,179.5,150120,5.8,W,A*37
#HEADINGA,COM2,0,86.0,FINE,2088,268617.600,220001,18,18;SOL_COMPUTED,L1_FLOAT,10.9299,89.5581,54.8787,0.0000,46.7924,58.8955,"999",8,5,5,0,3,00,0,1*5abcd3bf
$GNGGA,023639.70,3039.11305617,N,12047.31181194,E,1,07,3.4,3.2986,M,9.8177,M,,*47
$GNRMC,023639.70,A,3039.11305617,N,12047.31181194,E,0.009,66.1,150120,5.8,W,A*08
#HEADINGA,COM2,0,86.0,FINE,2088,268617.700,220101,18,18;SOL_COMPUTED,L1_FLOAT,10.9216,89.5784,54.8956,0.0000,46.8589,58.9207,"999",8,5,5,0,3,00,0,1*837279e5
$GNGGA,023639.80,3039.11300993,N,12047.31177168,E,1,07,3.4,3.1165,M,9.8177,M,,*42
$GNRMC,023639.80,A,3039.11300993,N,12047.31177168,E,0.038,269.5,150120,5.8,W,A*30
#HEADINGA,COM2,0,86.0,FINE,2088,268617.800,220201,18,18;SOL_COMPUTED,L1_FLOAT,11.1906,89.0670,55.5814,0.0000,46.3501,56.1641,"999",8,5,5,0,3,00,0,1*3a5f6bf4
$GNGGA,023639.90,3039.11298250,N,12047.31174618,E,1,07,3.4,3.1040,M,9.8177,M,,*42
$GNRMC,023639.90,A,3039.11298250,N,12047.31174618,E,0.047,183.8,150120,5.8,W,A*34
#HEADINGA,COM2,0,86.0,FINE,2088,268617.900,220301,18,18;SOL_COMPUTED,L1_FLOAT,10.9570,89.4691,54.8902,0.0000,46.6702,58.7061,"999",8,5,5,0,3,00,0,1*48b1dabc
#REFSTATIONA,COM2,0,90.0,UNKNOWN,0,0.000,0,220408,0;00000001,0.000,0.000,0.000,0,NONE,""*6be7f46d
$GNGGA,023640.00,3039.11296591,N,12047.31173041,E,1,07,3.4,3.1898,M,9.8177,M,,*41
$GNRMC,023640.00,A,3039.11296591,N,12047.31173041,E,0.118,113.9,150120,5.8,W,A*39
#HEADINGA,COM2,0,86.0,FINE,2088,268618.000,220405,19,18;SOL_COMPUTED,L1_FLOAT,10.9006,89.6150,54.8760,0.0000,46.9515,59.0889,"999",8,5,5,0,3,00,0,1*1e6aa157
$GNGGA,023640.10,3039.11293536,N,12047.31169502,E,1,07,3.4,3.1228,M,9.8177,M,,*40
$GNRMC,023640.10,A,3039.11293536,N,12047.31169502,E,0.187,291.2,150120,5.8,W,A*3D
#HEADINGA,COM2,0,86.0,FINE,2088,268618.100,220501,19,18;SOL_COMPUTED,L1_FLOAT,10.9699,89.4246,54.8775,0.0000,46.5930,58.6484,"999",8,5,5,0,3,00,0,1*33a401bf
$GNGGA,023640.20,3039.11290464,N,12047.31166092,E,1,07,3.4,3.0482,M,9.8177,M,,*42
$GNRMC,023640.20,A,3039.11290464,N,12047.31166092,E,0.230,266.5,150120,5.8,W,A*38
#HEADINGA,COM2,0,86.0,FINE,2088,268618.200,220602,18,18;SOL_COMPUTED,L1_FLOAT,10.9125,88.6825,54.8310,0.0000,46.0967,58.1829,"999",8,5,5,0,3,00,0,1*2f83fc7d
$GNGGA,023640.30,3039.11288362,N,12047.31164612,E,1,07,3.4,3.0497,M,9.8177,M,,*43
$GNRMC,023640.30,A,3039.11288362,N,12047.31164612,E,0.111,126.1,150120,5.8,W,A*3E
#HEADINGA,COM2,0,86.0,FINE,2088,268618.300,220701,18,18;SOL_COMPUTED,L1_FLOAT,10.7698,89.0185,54.4684,0.0000,46.4157,59.7072,"999",8,5,5,0,3,00,0,1*e9afb35a
$GNGGA,023640.40,3039.11285526,N,12047.31162679,E,1,07,3.4,2.9636,M,9.8177,M,,*45
$GNRMC,023640.40,A,3039.11285526,N,12047.31162679,E,0.122,126.6,150120,5.8,W,A*3E
#HEADINGA,COM2,0,86.0,FINE,2088,268618.400,220801,18,18;SOL_COMPUTED,L1_FLOAT,10.8754,88.7951,54.7298,0.0000,46.1864,58.6012,"999",8,5,5,0,3,00,0,1*9c26cf44
$GNGGA,023640.50,3039.11283444,N,12047.31160718,E,1,07,3.4,2.9575,M,9.8177,M,,*47
$GNRMC,023640.50,A,3039.11283444,N,12047.31160718,E,0.085,140.7,150120,5.8,W,A*35
#HEADINGA,COM2,0,86.0,FINE,2088,268618.500,220901,18,18;SOL_COMPUTED,L1_FLOAT,10.8100,88.8301,54.5479,0.0000,46.2745,59.2861,"999",8,5,5,0,3,00,0,1*ee98a69a
$GNGGA,023640.60,3039.11281499,N,12047.31158667,E,1,07,3.4,2.9111,M,9.8177,M,,*42
$GNRMC,023640.60,A,3039.11281499,N,12047.31158667,E,0.030,141.8,150120,5.8,W,A*36
#HEADINGA,COM2,0,86.0,FINE,2088,268618.600,221001,18,18;SOL_COMPUTED,L1_FLOAT,10.9142,88.8718,54.8279,0.0000,46.1689,58.2556,"999",8,5,5,0,3,00,0,1*26b9d618
$GNGGA,023640.70,3039.11279491,N,12047.31157477,E,1,07,3.4,2.8478,M,9.8177,M,,*4B
$GNRMC,023640.70,A,3039.11279491,N,12047.31157477,E,0.081,100.9,150120,5.8,W,A*3A
#HEADINGA,COM2,0,86.0,FINE,2088,268618.700,221101,18,18;SOL_COMPUTED,L1_FLOAT,10.8590,88.8442,54.8160,0.0000,46.3841,58.5653,"999",8,5,5,0,3,00,0,1*46e7443d
$GNGGA,023640.80,3039.11277716,N,12047.31156116,E,1,07,3.4,2.7971,M,9.8177,M,,*4E
$GNRMC,023640.80,A,3039.11277716,N,12047.31156116,E,0.088,92.2,150120,5.8,W,A*0C
#HEADINGA,COM2,0,86.0,FINE,2088,268618.800,221201,18,18;SOL_COMPUTED,L1_FLOAT,10.8410,88.8021,54.7540,0.0000,46.3789,58.7576,"999",8,5,5,0,3,00,0,1*276d62c8
$GNGGA,023640.90,3039.11276204,N,12047.31154108,E,1,07,3.4,2.8083,M,9.8177,M,,*4E
$GNRMC,023640.90,A,3039.11276204,N,12047.31154108,E,0.010,141.8,150120,5.8,W,A*33
#HEADINGA,COM2,0,86.0,FINE,2088,268618.900,221301,18,18;SOL_COMPUTED,L1_FLOAT,10.7870,88.9242,54.4015,0.0000,46.2570,59.7109,"999",8,5,5,0,3,00,0,1*558c44f3
#REFSTATIONA,COM2,0,90.0,UNKNOWN,0,0.000,0,221408,0;00000001,0.000,0.000,0.000,0,NONE,""*2cf40296
$GNGGA,023641.00,3039.11274244,N,12047.31152067,E,1,07,3.4,2.7671,M,9.8177,M,,*4A
$GNRMC,023641.00,A,3039.11274244,N,12047.31152067,E,0.042,235.8,150120,5.8,W,A*34
#HEADINGA,COM2,0,80.0,FINE,2088,268619.000,221405,20,18;SOL_COMPUTED,L1_FLOAT,10.8368,88.9477,54.5903,0.0000,46.2699,59.1207,"999",8,5,5,0,3,00,0,1*b3d0cb1b
$GNGGA,023641.10,3039.11272020,N,12047.31150948,E,1,07,3.4,2.6955,M,9.8177,M,,*43
$GNRMC,023641.10,A,3039.11272020,N,12047.31150948,E,0.108,137.9,150120,5.8,W,A*3A
#HEADINGA,COM2,0,80.0,FINE,2088,268619.100,221501,19,18;SOL_COMPUTED,L1_FLOAT,10.8720,88.7621,54.7479,0.0000,46.2377,58.5943,"999",8,5,5,0,3,00,0,1*4bd5b4ac
$GNGGA,023641.20,3039.11270168,N,12047.31149695,E,1,07,3.4,2.6566,M,9.8177,M,,*44
$GNRMC,023641.20,A,3039.11270168,N,12047.31149695,E,0.119,139.2,150120,5.8,W,A*34
#HEADINGA,COM2,0,80.0,FINE,2088,268619.200,221601,18,18;SOL_COMPUTED,L1_FLOAT,10.8769,88.2795,54.7678,0.0000,45.6631,57.7887,"999",8,5,5,0,3,00,0,1*c6f68430
$GNGGA,023641.30,3039.11268441,N,12047.31148711,E,1,07,3.4,2.5832,M,9.8177,M,,*41
$GNRMC,023641.30,A,3039.11268441,N,12047.31148711,E,0.127,124.8,150120,5.8,W,A*35
#HEADINGA,COM2,0,80.0,FINE,2088,268619.300,221701,18,18;SOL_COMPUTED,L1_FLOAT,10.8378,88.3447,54.7104,0.0000,45.7898,58.1208,"999",8,5,5,0,3,00,0,1*21fd5420
$GNGGA,023641.40,3039.11266232,N,12047.31146600,E,1,07,3.4,2.4788,M,9.8177,M,,*4A
$GNRMC,023641.40,A,3039.11266232,N,12047.31146600,E,0.077,195.4,150120,5.8,W,A*33
#HEADINGA,COM2,0,80.0,FINE,2088,268619.400,221801,18,18;SOL_COMPUTED,L1_FLOAT,10.8191,88.4270,54.5683,0.0000,45.7416,58.4968,"999",8,5,5,0,3,00,0,1*1ef2273d
$GNGGA,023641.50,3039.11265589,N,12047.31145493,E,1,07,3.4,2.5253,M,9.8177,M,,*46
$GNRMC,023641.50,A,3039.11265589,N,12047.31145493,E,0.049,216.4,150120,5.8,W,A*38
#HEADINGA,COM2,0,80.0,FINE,2088,268619.500,221901,18,18;SOL_COMPUTED,L1_FLOAT,10.7710,88.4374,54.3580,0.0000,45.7178,59.1267,"999",8,5,5,0,3,00,0,1*594f5be0
$GNGGA,023641.60,3039.11264717,N,12047.31144467,E,1,07,3.4,2.5072,M,9.8177,M,,*4A
$GNRMC,023641.60,A,3039.11264717,N,12047.31144467,E,0.055,25.5,150120,5.8,W,A*0B
#HEADINGA,COM2,0,80.0,FINE,2088,268619.600,222001,18,18;SOL_COMPUTED,L1_FLOAT,10.7407,88.7245,54.3843,0.0000,45.9806,59.3512,"999",8,5,5,0,3,00,0,1*44f0fb26
$GNGGA,023641.70,3039.11263284,N,12047.31142423,E,1,07,3.4,2.4320,M,9.8177,M,,*40
$GNRMC,023641.70,A,3039.11263284,N,12047.31142423,E,0.108,313.8,150120,5.8,W,A*36
#HEADINGA,COM2,0,80.0,FINE,2088,268619.700,222101,18,18;SOL_COMPUTED,L1_FLOAT,10.8662,88.5441,54.6845,0.0000,45.7264,58.0929,"999",8,5,5,0,3,00,0,1*ba046b59
$GNGGA,023641.80,3039.11261472,N,12047.31141618,E,1,07,3.4,2.3501,M,9.8177,M,,*49
$GNRMC,023641.80,A,3039.11261472,N,12047.31141618,E,0.122,119.4,150120,5.8,W,A*31
#HEADINGA,COM2,0,80.0,FINE,2088,268619.800,222201,18,18;SOL_COMPUTED,L1_FLOAT,10.8387,88.4488,54.7584,0.0000,45.8967,58.0828,"999",8,5,5,0,3,00,0,1*c7075fce
$GNGGA,023641.90,3039.11259725,N,12047.31140611,E,1,07,3.4,2.3339,M,9.8177,M,,*47
$GNRMC,023641.90,A,3039.11259725,N,12047.31140611,E,0.176,152.0,150120,5.8,W,A*38
#HEADINGA,COM2,0,80.0,FINE,2088,268619.900,222301,18,18;SOL_COMPUTED,L1_FLOAT,10.8721,88.3119,54.8594,0.0000,45.8259,57.6863,"999",8,5,5,0,3,00,0,1*2767a80a
#REFSTATIONA,COM2,0,90.0,UNKNOWN,0,0.000,0,222408,0;00000001,0.000,0.000,0.000,0,NONE,""*e5c0199b
$GNGGA,023642.00,3039.11258525,N,12047.31139587,E,1,07,3.4,2.3586,M,9.8177,M,,*4E
$GNRMC,023642.00,A,3039.11258525,N,12047.31139587,E,0.154,161.2,150120,5.8,W,A*31
#HEADINGA,COM2,0,80.0,FINE,2088,268620.000,222405,20,18;SOL_COMPUTED,L1_FLOAT,10.8281,88.5771,54.7569,0.0000,45.9926,58.1917,"999",8,5,5,0,3,00,0,1*69970d44
$GNGGA,023642.10,3039.11257222,N,12047.31138621,E,1,07,3.4,2.3191,M,9.8177,M,,*4C
$GNRMC,023642.10,A,3039.11257222,N,12047.31138621,E,0.125,156.8,150120,5.8,W,A*39
#HEADINGA,COM2,0,80.0,FINE,2088,268620.100,222501,19,18;SOL_COMPUTED,L1_FLOAT,10.7929,88.6635,54.6529,0.0000,46.0586,58.5935,"999",8,5,5,0,3,00,0,1*102e0191
$GNGGA,023642.20,3039.11256610,N,12047.31137684,E,1,07,3.4,2.3492,M,9.8177,M,,*4D
$GNRMC,023642.20,A,3039.11256610,N,12047.31137684,E,0.047,158.4,150120,5.8,W,A*39
#HEADINGA,COM2,0,80.0,FINE,2088,268620.200,222601,18,18;SOL_COMPUTED,L1_FLOAT,10.7731,88.4149,54.5003,0.0000,45.5171,58.3481,"999",8,5,5,0,3,00,0,1*87c5cd6a
$GNGGA,023642.30,,,,,0,00,9999.0,,,,,,*4A
$GNRMC,023642.30,V,,,,,,,150120,0.0,E,N*0D
#HEADINGA,COM2,0,80.0,FINE,2088,268620.300,222701,12,18;INSUFFICIENT_OBS,NONE,0.0000,0.0000,0.0000,0.0000,0.0000,0.0000,"",0,0,0,0,0,00,0,0*88e78f16
$GNGGA,023642.40,,,,,0,00,9999.0,,,,,,*4D
$GNRMC,023642.40,V,,,,,,,150120,0.0,E,N*0A
#HEADINGA,COM2,0,80.0,FINE,2088,268620.400,222801,12,18;INSUFFICIENT_OBS,NONE,0.0000,0.0000,0.0000,0.0000,0.0000,0.0000,"",0,0,0,0,0,00,0,0*96b14281
$GNGGA,023642.50,,,,,0,00,9999.0,,,,,,*4C
$GNRMC,023642.50,V,,,,,,,150120,0.0,E,N*0B
#HEADINGA,COM2,0,80.0,FINE,2088,268620.500,222901,12,18;INSUFFICIENT_OBS,NONE,0.0000,0.0000,0.0000,0.0000,0.0000,0.0000,"",0,0,0,0,0,00,0,0*b2e09e05
$GNGGA,023642.60,,,,,0,00,9999.0,,,,,,*4F
$GNRMC,023642.60,V,,,,,,,150120,0.0,E,N*08
#HEADINGA,COM2,0,80.0,FINE,2088,268620.600,223001,12,18;INSUFFICIENT_OBS,NONE,0.0000,0.0000,0.0000,0.0000,0.0000,0.0000,"",0,0,0,0,0,00,0,0*fa57736a
$GNGGA,023642.70,,,,,0,00,9999.0,,,,,,*4E
$GNRMC,023642.70,V,,,,,,,150120,0.0,E,N*09
#HEADINGA,COM2,0,80.0,FINE,2088,268620.700,223101,12,18;INSUFFICIENT_OBS,NONE,0.0000,0.0000,0.0000,0.0000,0.0000,0.0000,"",0,0,0,0,0,00,0,0*de06afee
$GNGGA,023642.80,,,,,0,00,9999.0,,,,,,*41
$GNRMC,023642.80,V,,,,,,,150120,0.0,E,N*06
#HEADINGA,COM2,0,80.0,FINE,2088,268620.800,223201,12,18;INSUFFICIENT_OBS,NONE,0.0000,0.0000,0.0000,0.0000,0.0000,0.0000,"",0,0,0,0,0,00,0,0*a5e6ee3d
$GNGGA,023642.90,,,,,0,00,9999.0,,,,,,*40
$GNRMC,023642.90,V,,,,,,,150120,0.0,E,N*07
#HEADINGA,COM2,0,80.0,FINE,2088,268620.900,223301,12,18;INSUFFICIENT_OBS,NONE,0.0000,0.0000,0.0000,0.0000,0.0000,0.0000,"",0,0,0,0,0,00,0,0*81b732b9
#REFSTATIONA,COM2,0,90.0,UNKNOWN,0,0.000,0,223408,0;00000001,0.000,0.000,0.000,0,NONE,""*a2d3ef60
$GNGGA,023643.00,,,,,0,00,9999.0,,,,,,*48
$GNRMC,023643.00,V,,,,,,,150120,0.0,E,N*0F
#HEADINGA,COM2,0,80.0,FINE,2088,268621.000,223405,13,18;INSUFFICIENT_OBS,NONE,0.0000,0.0000,0.0000,0.0000,0.0000,0.0000,"",0,0,0,0,0,00,0,0*d68580fe
$GNGGA,023643.10,,,,,0,00,9999.0,,,,,,*49
$GNRMC,023643.10,V,,,,,,,150120,0.0,E,N*0E
#HEADINGA,COM2,0,80.0,FINE,2088,268621.100,223501,12,18;INSUFFICIENT_OBS,NONE,0.0000,0.0000,0.0000,0.0000,0.0000,0.0000,"",0,0,0,0,0,00,0,0*1296b689
$GNGGA,023643.20,,,,,0,00,9999.0,,,,,,*4A
$GNRMC,023643.20,V,,,,,,,150120,0.0,E,N*0D
#HEADINGA,COM2,0,80.0,FINE,2088,268621.200,223601,12,18;INSUFFICIENT_OBS,NONE,0.0000,0.0000,0.0000,0.0000,0.0000,0.0000,"",0,0,0,0,0,00,0,0*7e64d305
$GNGGA,023643.30,,,,,0,00,9999.0,,,,,,*4B
$GNRMC,023643.30,V,,,,,,,150120,0.0,E,N*0C
#HEADINGA,COM2,0,80.0,FINE,2088,268621.300,223701,12,18;INSUFFICIENT_OBS,NONE,0.0000,0.0000,0.0000,0.0000,0.0000,0.0000,"",0,0,0,0,0,00,0,0*5a350f81
$GNGGA,023643.40,,,,,0,00,9999.0,,,,,,*4C
$GNRMC,023643.40,V,,,,,,,150120,0.0,E,N*0B
#HEADINGA,COM2,0,80.0,FINE,2088,268621.400,223801,12,18;INSUFFICIENT_OBS,NONE,0.0000,0.0000,0.0000,0.0000,0.0000,0.0000,"",0,0,0,0,0,00,0,0*4463c216
$GNGGA,023643.50,,,,,0,00,9999.0,,,,,,*4D
$GNRMC,023643.50,V,,,,,,,150120,0.0,E,N*0A
#HEADINGA,COM2,0,80.0,FINE,2088,268621.500,223901,12,18;INSUFFICIENT_OBS,NONE,0.0000,0.0000,0.0000,0.0000,0.0000,0.0000,"",0,0,0,0,0,00,0,0*60321e92
$GNGGA,023643.60,,,,,0,00,9999.0,,,,,,*4E
$GNRMC,023643.60,V,,,,,,,150120,0.0,E,N*09
#HEADINGA,COM2,0,80.0,FINE,2088,268621.600,224001,12,18;INSUFFICIENT_OBS,NONE,0.0000,0.0000,0.0000,0.0000,0.0000,0.0000,"",0,0,0,0,0,00,0,0*ab69a360
$GNGGA,023643.70,,,,,0,00,9999.0,,,,,,*4F
$GNRMC,023643.70,V,,,,,,,150120,0.0,E,N*08
#HEADINGA,COM2,0,80.0,FINE,2088,268621.700,224101,12,18;INSUFFICIENT_OBS,NONE,0.0000,0.0000,0.0000,0.0000,0.0000,0.0000,"",0,0,0,0,0,00,0,0*8f387fe4
$GNGGA,023643.80,,,,,0,00,9999.0,,,,,,*40
$GNRMC,023643.80,V,,,,,,,150120,0.0,E,N*07
#HEADINGA,COM2,0,80.0,FINE,2088,268621.800,224201,12,18;INSUFFICIENT_OBS,NONE,0.0000,0.0000,0.0000,0.0000,0.0000,0.0000,"",0,0,0,0,0,00,0,0*f4d83e37
$GNGGA,023643.90,,,,,0,00,9999.0,,,,,,*41
$GNRMC,023643.90,V,,,,,,,150120,0.0,E,N*06
#HEADINGA,COM2,0,80.0,FINE,2088,268621.900,224301,12,18;INSUFFICIENT_OBS,NONE,0.0000,0.0000,0.0000,0.0000,0.0000,0.0000,"",0,0,0,0,0,00,0,0*d089e2b3
#REFSTATIONA,COM2,0,90.0,UNKNOWN,0,0.000,0,224409,0;00000001,0.000,0.000,0.000,0,NONE,""*039dbb87
$GNGGA,023644.00,,,,,0,00,9999.0,,,,,,*4F
$GNRMC,023644.00,V,,,,,,,150120,0.0,E,N*08
#HEADINGA,COM2,0,80.0,FINE,2088,268622.000,224406,13,18;INSUFFICIENT_OBS,NONE,0.0000,0.0000,0.0000,0.0000,0.0000,0.0000,"",0,0,0,0,0,00,0,0*aa8120c0
$GNGGA,023644.10,,,,,0,00,9999.0,,,,,,*4E
$GNRMC,023644.10,V,,,,,,,150120,0.0,E,N*09
#HEADINGA,COM2,0,82.0,FINE,2088,268622.100,224501,12,18;INSUFFICIENT_OBS,NONE,0.0000,0.0000,0.0000,0.0000,0.0000,0.0000,"",0,0,0,0,0,00,0,0*f79c5389
$GNGGA,023644.20,,,,,0,00,9999.0,,,,,,*4D
$GNRMC,023644.20,V,,,,,,,150120,0.0,E,N*0A
#HEADINGA,COM2,0,82.0,FINE,2088,268622.200,224602,11,18;INSUFFICIENT_OBS,NONE,0.0000,0.0000,0.0000,0.0000,0.0000,0.0000,"",0,0,0,0,0,00,0,0*f8bb54c1
$GNGGA,023644.30,,,,,0,00,9999.0,,,,,,*4C
$GNRMC,023644.30,V,,,,,,,150120,0.0,E,N*0B
#HEADINGA,COM2,0,82.0,FINE,2088,268622.300,224701,12,18;INSUFFICIENT_OBS,NONE,0.0000,0.0000,0.0000,0.0000,0.0000,0.0000,"",0,0,0,0,0,00,0,0*bf3fea81
$GNGGA,023644.40,,,,,0,00,9999.0,,,,,,*4B
$GNRMC,023644.40,V,,,,,,,150120,0.0,E,N*0C
#HEADINGA,COM2,0,82.0,FINE,2088,268622.400,224801,12,18;INSUFFICIENT_OBS,NONE,0.0000,0.0000,0.0000,0.0000,0.0000,0.0000,"",0,0,0,0,0,00,0,0*a1692716
$GNGGA,023644.50,,,,,0,00,9999.0,,,,,,*4A
$GNRMC,023644.50,V,,,,,,,150120,0.0,E,N*0D
#HEADINGA,COM2,0,82.0,FINE,2088,268622.500,224901,11,18;INSUFFICIENT_OBS,NONE,0.0000,0.0000,0.0000,0.0000,0.0000,0.0000,"",0,0,0,0,0,00,0,0*7d7723b9
$GNGGA,023644.60,,,,,0,00,9999.0,,,,,,*49
$GNRMC,023644.60,V,,,,,,,150120,0.0,E,N*0E
#HEADINGA,COM2,0,82.0,FINE,2088,268622.600,225001,12,18;INSUFFICIENT_OBS,NONE,0.0000,0.0000,0.0000,0.0000,0.0000,0.0000,"",0,0,0,0,0,00,0,0*cd8f16fd
$GNGGA,023644.70,,,,,0,00,9999.0,,,,,,*48
$GNRMC,023644.70,V,,,,,,,150120,0.0,E,N*0F
#HEADINGA,COM2,0,82.0,FINE,2088,268622.700,225101,12,18;INSUFFICIENT_OBS,NONE,0.0000,0.0000,0.0000,0.0000,0.0000,0.0000,"",0,0,0,0,0,00,0,0*e9deca79
$GNGGA,023644.80,,,,,0,00,9999.0,,,,,,*47
$GNRMC,023644.80,V,,,,,,,150120,0.0,E,N*00
#HEADINGA,COM2,0,82.0,FINE,2088,268622.800,225201,12,18;INSUFFICIENT_OBS,NONE,0.0000,0.0000,0.0000,0.0000,0.0000,0.0000,"",0,0,0,0,0,00,0,0*923e8baa
$GNGGA,023644.90,,,,,0,00,9999.0,,,,,,*46
$GNRMC,023644.90,V,,,,,,,150120,0.0,E,N*01
#HEADINGA,COM2,0,82.0,FINE,2088,268622.900,225301,12,18;INSUFFICIENT_OBS,NONE,0.0000,0.0000,0.0000,0.0000,0.0000,0.0000,"",0,0,0,0,0,00,0,0*b66f572e
#REFSTATIONA,COM2,0,90.0,UNKNOWN,0,0.000,0,225408,0;00000001,0.000,0.000,0.000,0,NONE,""*ebcadf3b
$GNGGA,023645.00,,,,,0,00,9999.0,,,,,,*4E
$GNRMC,023645.00,V,,,,,,,150120,0.0,E,N*09
#HEADINGA,COM2,0,82.0,FINE,2088,268623.000,225405,13,18;INSUFFICIENT_OBS,NONE,0.0000,0.0000,0.0000,0.0000,0.0000,0.0000,"",0,0,0,0,0,00,0,0*e15de569
$GNGGA,023645.10,,,,,0,00,9999.0,,,,,,*4F
$GNRMC,023645.10,V,,,,,,,150120,0.0,E,N*08
#HEADINGA,COM2,0,82.0,FINE,2088,268623.100,225501,12,18;INSUFFICIENT_OBS,NONE,0.0000,0.0000,0.0000,0.0000,0.0000,0.0000,"",0,0,0,0,0,00,0,0*254ed31e
$GNGGA,023645.20,,,,,0,00,9999.0,,,,,,*4C
$GNRMC,023645.20,V,,,,,,,150120,0.0,E,N*0B
#HEADINGA,COM2,0,82.0,FINE,2088,268623.200,225601,12,18;INSUFFICIENT_OBS,NONE,0.0000,0.0000,0.0000,0.0000,0.0000,0.0000,"",0,0,0,0,0,00,0,0*49bcb692
$GNGGA,023645.30,,,,,0,00,9999.0,,,,,,*4D
$GNRMC,023645.30,V,,,,,,,150120,0.0,E,N*0A
#HEADINGA,COM2,0,82.0,FINE,2088,268623.300,225701,12,18;INSUFFICIENT_OBS,NONE,0.0000,0.0000,0.0000,0.0000,0.0000,0.0000,"",0,0,0,0,0,00,0,0*6ded6a16
$GNGGA,023645.40,,,,,0,00,9999.0,,,,,,*4A
$GNRMC,023645.40,V,,,,,,,150120,0.0,E,N*0D
#HEADINGA,COM2,0,82.0,FINE,2088,268623.400,225801,11,18;INSUFFICIENT_OBS,NONE,0.0000,0.0000,0.0000,0.0000,0.0000,0.0000,"",0,0,0,0,0,00,0,0*8bf47faa
$GNGGA,023645.50,,,,,0,00,9999.0,,,,,,*4B
$GNRMC,023645.50,V,,,,,,,150120,0.0,E,N*0C
#HEADINGA,COM2,0,82.0,FINE,2088,268623.500,225901,12,18;INSUFFICIENT_OBS,NONE,0.0000,0.0000,0.0000,0.0000,0.0000,0.0000,"",0,0,0,0,0,00,0,0*57ea7b05
$GNGGA,023645.60,,,,,0,00,9999.0,,,,,,*48
$GNRMC,023645.60,V,,,,,,,150120,0.0,E,N*0F
#HEADINGA,COM2,0,82.0,FINE,2088,268623.600,226001,12,18;INSUFFICIENT_OBS,NONE,0.0000,0.0000,0.0000,0.0000,0.0000,0.0000,"",0,0,0,0,0,00,0,0*d7295bde
$GNGGA,023645.70,,,,,0,00,9999.0,,,,,,*49
$GNRMC,023645.70,V,,,,,,,150120,0.0,E,N*0E
#HEADINGA,COM2,0,82.0,FINE,2088,268623.700,226101,12,18;INSUFFICIENT_OBS,NONE,0.0000,0.0000,0.0000,0.0000,0.0000,0.0000,"",0,0,0,0,0,00,0,0*f378875a
$GNGGA,023645.80,,,,,0,00,9999.0,,,,,,*46
$GNRMC,023645.80,V,,,,,,,150120,0.0,E,N*01
#HEADINGA,COM2,0,82.0,FINE,2088,268623.800,226201,12,18;INSUFFICIENT_OBS,NONE,0.0000,0.0000,0.0000,0.0000,0.0000,0.0000,"",0,0,0,0,0,00,0,0*8898c689
$GNGGA,023645.90,,,,,0,00,9999.0,,,,,,*47
$GNRMC,023645.90,V,,,,,,,150120,0.0,E,N*00
#HEADINGA,COM2,0,82.0,FINE,2088,268623.900,226301,12,18;INSUFFICIENT_OBS,NONE,0.0000,0.0000,0.0000,0.0000,0.0000,0.0000,"",0,0,0,0,0,00,0,0*acc91a0d
#REFSTATIONA,COM2,0,90.0,UNKNOWN,0,0.000,0,226407,0;00000001,0.000,0.000,0.000,0,NONE,""*a2b0b69e
$GNGGA,023646.00,,,,,0,00,9999.0,,,,,,*4D
$GNRMC,023646.00,V,,,,,,,150120,0.0,E,N*0A
#HEADINGA,COM2,0,82.0,FINE,2088,268624.000,226404,13,18;INSUFFICIENT_OBS,NONE,0.0000,0.0000,0.0000,0.0000,0.0000,0.0000,"",0,0,0,0,0,00,0,0*3b329afc
$GNGGA,023646.10,,,,,0,00,9999.0,,,,,,*4C
$GNRMC,023646.10,V,,,,,,,150120,0.0,E,N*0B
#HEADINGA,COM2,0,82.0,FINE,2088,268624.100,226501,12,18;INSUFFICIENT_OBS,NONE,0.0000,0.0000,0.0000,0.0000,0.0000,0.0000,"",0,0,0,0,0,00,0,0*3f78c711
$GNGGA,023646.20,,,,,0,00,9999.0,,,,,,*4F
$GNRMC,023646.20,V,,,,,,,150120,0.0,E,N*08
#HEADINGA,COM2,0,82.0,FINE,2088,268624.200,226601,12,18;INSUFFICIENT_OBS,NONE,0.0000,0.0000,0.0000,0.0000,0.0000,0.0000,"",0,0,0,0,0,00,0,0*538aa29d
$GNGGA,023646.30,,,,,0,00,9999.0,,,,,,*4E
$GNRMC,023646.30,V,,,,,,,150120,0.0,E,N*09
#HEADINGA,COM2,0,82.0,FINE,2088,268624.300,226701,12,18;INSUFFICIENT_OBS,NONE,0.0000,0.0000,0.0000,0.0000,0.0000,0.0000,"",0,0,0,0,0,00,0,0*77db7e19
$GNGGA,023646.40,,,,,0,00,9999.0,,,,,,*49
$GNRMC,023646.40,V,,,,,,,150120,0.0,E,N*0E
#HEADINGA,COM2,0,82.0,FINE,2088,268624.400,226801,12,18;INSUFFICIENT_OBS,NONE,0.0000,0.0000,0.0000,0.0000,0.0000,0.0000,"",0,0,0,0,0,00,0,0*698db38e
$GNGGA,023646.50,,,,,0,00,9999.0,,,,,,*48
$GNRMC,023646.50,V,,,,,,,150120,0.0,E,N*0F
#HEADINGA,COM2,0,82.0,FINE,2088,268624.500,226901,11,18;INSUFFICIENT_OBS,NONE,0.0000,0.0000,0.0000,0.0000,0.0000,0.0000,"",0,0,0,0,0,00,0,0*b593b721
$GNGGA,023646.60,,,,,0,00,9999.0,,,,,,*4B
$GNRMC,023646.60,V,,,,,,,150120,0.0,E,N*0C
#HEADINGA,COM2,0,82.0,FINE,2088,268624.600,227001,11,18;INSUFFICIENT_OBS,NONE,0.0000,0.0000,0.0000,0.0000,0.0000,0.0000,"",0,0,0,0,0,00,0,0*fd245a4e
$GNGGA,023646.70,,,,,0,00,9999.0,,,,,,*4A
$GNRMC,023646.70,V,,,,,,,150120,0.0,E,N*0D
#HEADINGA,COM2,0,82.0,FINE,2088,268624.700,227101,12,18;INSUFFICIENT_OBS,NONE,0.0000,0.0000,0.0000,0.0000,0.0000,0.0000,"",0,0,0,0,0,00,0,0*213a5ee1
$GNGGA,023646.80,,,,,0,00,9999.0,,,,,,*45
$GNRMC,023646.80,V,,,,,,,150120,0.0,E,N*02
#HEADINGA,COM2,0,82.0,FINE,2088,268624.800,227201,11,18;INSUFFICIENT_OBS,NONE,0.0000,0.0000,0.0000,0.0000,0.0000,0.0000,"",0,0,0,0,0,00,0,0*a295c719
$GNGGA,023646.90,,,,,0,00,9999.0,,,,,,*44
$GNRMC,023646.90,V,,,,,,,150120,0.0,E,N*03
#HEADINGA,COM2,0,82.0,FINE,2088,268624.900,227301,11,18;INSUFFICIENT_OBS,NONE,0.0000,0.0000,0.0000,0.0000,0.0000,0.0000,"",0,0,0,0,0,00,0,0*86c41b9d
#REFSTATIONA,COM2,0,90.0,UNKNOWN,0,0.000,0,227407,0;00000001,0.000,0.000,0.000,0,NONE,""*e5a34065
$GNGGA,023647.00,,,,,0,00,9999.0,,,,,,*4C
$GNRMC,023647.00,V,,,,,,,150120,0.0,E,N*0B
#HEADINGA,COM2,0,82.0,FINE,2088,268625.000,227404,13,18;INSUFFICIENT_OBS,NONE,0.0000,0.0000,0.0000,0.0000,0.0000,0.0000,"",0,0,0,0,0,00,0,0*e9e01a6b
$GNGGA,023647.10,,,,,0,00,9999.0,,,,,,*4D
$GNRMC,023647.10,V,,,,,,,150120,0.0,E,N*0A
