Š’‚¢ºr’ººš²Š‚‚b*±4,26,0.8,4.3209,M,9.8160,M,10,0*71
$GNRMC,063211.40,A,3039.09321756,N,12047.27736100,E,0.198,126.4,170120,5.8,W,D*34
#HEADINGA,COM2,0,48.0,FINE,2088,455549.400,1611783,18,18;SOL_COMPUTED,NARROW_FLOAT,0.7676,123.0548,14.5530,0.0000,0.3244,0.8264,"999",30,25,25,12,3,01,1,f3*52c6489d
$GNGGA,063211.50,3039.09321768,N,12047.27736003,E,4,26,0.8,4.3194,M,9.8160,M,10,0*78
$GNRMC,063211.50,A,3039.09321768,N,12047.27736003,E,0.030,278.1,170120,5.8,W,D*34
#HEADINGA,COM2,0,48.0,FINE,2088,455549.500,1611883,19,18;SOL_COMPUTED,NARROW_FLOAT,0.7687,123.1040,14.5267,0.0000,0.3238,0.8255,"999",30,25,25,12,3,01,1,f3*e1b732d0
$GNGGA,063211.60,3039.09321773,N,12047.27735934,E,4,26,0.8,4.3195,M,9.8160,M,10,0*7E
$GNRMC,063211.60,A,3039.09321773,N,12047.27735934,E,0.022,274.5,170120,5.8,W,D*38
#HEADINGA,COM2,0,48.0,FINE,2088,455549.600,1611983,16,18;SOL_COMPUTED,NARROW_FLOAT,0.7707,123.2488,14.5103,0.0000,0.3103,0.8058,"999",30,26,26,12,3,01,1,f3*0c4fa478
$GNGGA,063211.70,3039.09321835,N,12047.27736036,E,4,26,0.8,4.3232,M,9.8160,M,10,0*74
$GNRMC,063211.70,A,3039.09321835,N,12047.27736036,E,0.039,55.0,170120,5.8,W,D*02
#HEADINGA,COM2,0,48.0,FINE,2088,455549.700,1612083,17,18;SOL_COMPUTED,NARROW_FLOAT,0.7720,122.8717,14.6309,0.0000,0.3227,0.8215,"999",30,25,25,12,3,01,1,f3*748f4b8a
$GNGGA,063211.80,3039.09321811,N,12047.27735911,E,4,26,0.8,4.3041,M,9.8160,M,10,0*74
$GNRMC,063211.80,A,3039.09321811,N,12047.27735911,E,0.040,257.3,170120,5.8,W,D*39
#HEADINGA,COM2,0,49.0,FINE,2088,455549.800,1612183,16,18;SOL_COMPUTED,NARROW_FLOAT,0.7685,123.0704,14.3546,0.0000,0.3234,0.8271,"999",30,25,25,12,3,01,1,f3*6c8e0066
$GNGGA,063211.90,3039.09321665,N,12047.27735833,E,4,26,0.8,4.3052,M,9.8160,M,10,0*7B
$GNRMC,063211.90,A,3039.09321665,N,12047.27735833,E,0.058,204.9,170120,5.8,W,D*31
#HEADINGA,COM2,0,49.0,FINE,2088,455549.900,1612283,16,18;SOL_COMPUTED,NARROW_FLOAT,0.7706,122.7957,15.0689,0.0000,0.3241,0.8198,"999",30,25,25,12,3,01,1,f3*bfdd5ee8
#REFSTATIONA,COM2,0,48.0,FINE,2088,455537.000,1611584,804,18;00000000,-2811044.342,4717820.352,3232735.546,0,RTCMV3,"0000"*50a07bf6
$GNGGA,063212.00,3039.09321819,N,12047.27736119,E,4,26,0.8,4.3212,M,9.8160,M,11,0*71
$GNRMC,063212.00,A,3039.09321819,N,12047.27736119,E,0.105,58.1,170120,5.8,W,D*06
#HEADINGA,COM2,0,49.0,FINE,2088,455550.000,1612383,21,18;SOL_COMPUTED,NARROW_FLOAT,0.7714,123.5819,15.1415,0.0000,0.3105,0.8010,"999",30,26,26,12,3,01,1,f3*05990f5d
$GNGGA,063212.10,3039.09321713,N,12047.27735850,E,4,26,0.8,4.3182,M,9.8160,M,11,0*78
$GNRMC,063212.10,A,3039.09321713,N,12047.27735850,E,0.092,245.4,170120,5.8,W,D*31
#HEADINGA,COM2,0,49.0,FINE,2088,455550.100,1612484,16,18;SOL_COMPUTED,NARROW_FLOAT,0.7701,123.4427,15.2235,0.0000,0.3114,0.8019,"999",30,26,26,12,3,01,1,f3*7303ccd5
$GNGGA,063212.20,3039.09321791,N,12047.27735881,E,4,26,0.8,4.3122,M,9.8160,M,11,0*77
$GNRMC,063212.20,A,3039.09321791,N,12047.27735881,E,0.030,18.9,170120,5.8,W,D*0B
#HEADINGA,COM2,0,49.0,FINE,2088,455550.200,1612584,18,18;SOL_COMPUTED,NARROW_FLOAT,0.7683,122.9762,14.6953,0.0000,0.3239,0.8247,"999",30,25,25,11,3,01,1,f3*7da20839
$GNGGA,063212.30,3039.09321664,N,12047.27735880,E,4,26,0.8,4.3184,M,9.8160,M,11,0*70
$GNRMC,063212.30,A,3039.09321664,N,12047.27735880,E,0.046,180.5,170120,5.8,W,D*3D
#HEADINGA,COM2,0,49.0,FINE,2088,455550.300,1612684,17,18;SOL_COMPUTED,NARROW_FLOAT,0.7625,122.7544,14.9690,0.0000,0.3041,0.9061,"999",30,25,25,12,3,01,1,f3*c0b297eb
$GNGGA,063212.40,3039.09321799,N,12047.27736074,E,4,26,0.8,4.3323,M,9.8160,M,11,0*7B
$GNRMC,063212.40,A,3039.09321799,N,12047.27736074,E,0.078,51.1,170120,5.8,W,D*0D
#HEADINGA,COM2,0,49.0,FINE,2088,455550.400,1612783,19,18;SOL_COMPUTED,NARROW_FLOAT,0.7643,123.0427,14.5447,0.0000,0.2921,0.8872,"999",30,26,26,12,3,01,1,f3*7b5b7483
$GNGGA,063212.50,3039.09321815,N,12047.27736126,E,4,26,0.8,4.3278,M,9.8160,M,11,0*78
$GNRMC,063212.50,A,3039.09321815,N,12047.27736126,E,0.017,70.7,170120,5.8,W,D*0D
#HEADINGA,COM2,0,49.0,FINE,2088,455550.500,1612883,17,18;SOL_COMPUTED,NARROW_FLOAT,0.7607,122.7934,14.3390,0.0000,0.3039,0.9131,"999",30,25,25,12,3,01,1,f3*ad469999
$GNGGA,063212.60,3039.09321835,N,12047.27735826,E,4,26,0.8,4.3194,M,9.8160,M,11,0*72
$GNRMC,063212.60,A,3039.09321835,N,12047.27735826,E,0.093,274.5,170120,5.8,W,D*3E
#HEADINGA,COM2,0,49.0,FINE,2088,455550.600,1612984,16,18;SOL_COMPUTED,NARROW_FLOAT,0.7560,122.7327,13.9422,0.0000,0.3053,0.9219,"999",30,25,25,12,3,01,1,f3*1073106e
$GNGGA,063212.70,3039.09321946,N,12047.27736170,E,4,26,0.8,4.3266,M,9.8160,M,11,0*71
$GNRMC,063212.70,A,3039.09321946,N,12047.27736170,E,0.114,69.6,170120,5.8,W,D*00
#HEADINGA,COM2,0,49.0,FINE,2088,455550.700,1613083,16,18;SOL_COMPUTED,NARROW_FLOAT,0.7614,122.9658,14.5096,0.0000,0.3037,0.9111,"999",30,25,25,12,3,01,1,f3*d767729f
$GNGGA,063212.80,3039.09322001,N,12047.27736023,E,4,26,0.8,4.3215,M,9.8160,M,11,0*74
$GNRMC,063212.80,A,3039.09322001,N,12047.27736023,E,0.050,293.1,170120,5.8,W,D*30
#HEADINGA,COM2,0,49.0,FINE,2088,455550.800,1613183,16,18;SOL_COMPUTED,NARROW_FLOAT,0.7645,122.9519,14.4622,0.0000,0.3024,0.9077,"999",30,25,25,12,3,01,1,f3*32af7813
$GNGGA,063212.90,3039.09321733,N,12047.27735841,E,4,26,0.8,4.3250,M,9.8160,M,11,0*7E
$GNRMC,063212.90,A,3039.09321733,N,12047.27735841,E,0.112,210.4,170120,5.8,W,D*32
#HEADINGA,COM2,0,49.0,FINE,2088,455550.900,1613284,16,18;SOL_COMPUTED,NARROW_FLOAT,0.7642,122.7928,14.2168,0.0000,0.3024,0.9099,"999",30,25,25,12,3,01,1,f3*1f9a8c02
#REFSTATIONA,COM2,0,48.0,FINE,2088,455537.000,1611584,1804,18;00000000,-2811044.342,4717820.352,3232735.546,0,RTCMV3,"0000"*e9e76232
$GNGGA,063213.00,3039.09321697,N,12047.27735727,E,4,26,0.8,4.3053,M,9.8160,M,12,0*74
$GNRMC,063213.00,A,3039.09321697,N,12047.27735727,E,0.038,250.2,170120,5.8,W,D*31
#HEADINGA,COM2,0,49.0,FINE,2088,455551.000,1613383,22,18;SOL_COMPUTED,NARROW_FLOAT,0.7603,122.4232,14.3344,0.0000,0.3048,0.9140,"999",30,25,25,12,3,01,1,f3*10d6b097
$GNGGA,063213.10,3039.09321925,N,12047.27736077,E,4,26,0.8,4.3225,M,9.8160,M,12,0*71
$GNRMC,063213.10,A,3039.09321925,N,12047.27736077,E,0.136,53.1,170120,5.8,W,D*0A
#HEADINGA,COM2,0,49.0,FINE,2088,455551.100,1613484,17,18;SOL_COMPUTED,NARROW_FLOAT,0.7645,122.5320,14.5799,0.0000,0.3036,0.9211,"999",30,24,24,12,3,01,1,f3*3f65bd39
$GNGGA,063213.20,3039.09321905,N,12047.27736033,E,4,26,0.8,4.3336,M,9.8160,M,12,0*73
$GNRMC,063213.20,A,3039.09321905,N,12047.27736033,E,0.016,242.3,170120,5.8,W,D*38
#HEADINGA,COM2,0,49.0,FINE,2088,455551.200,1613585,17,18;SOL_COMPUTED,NARROW_FLOAT,0.7685,123.0972,14.8291,0.0000,0.2908,0.8803,"999",30,26,26,12,3,01,1,f3*44469b1e
$GNGGA,063213.30,3039.09322054,N,12047.27736321,E,4,26,0.8,4.3369,M,9.8160,M,12,0*76
$GNRMC,063213.30,A,3039.09322054,N,12047.27736321,E,0.104,59.0,170120,5.8,W,D*0E
#HEADINGA,COM2,0,49.0,FINE,2088,455551.300,1613684,17,18;SOL_COMPUTED,NARROW_FLOAT,0.7631,123.0938,14.3870,0.0000,0.3027,0.9099,"999",30,25,25,12,3,01,1,f3*01728d38
$GNGGA,063213.40,3039.09322041,N,12047.27736305,E,4,26,0.8,4.3387,M,9.8160,M,12,0*73
$GNRMC,063213.40,A,3039.09322041,N,12047.27736305,E,0.007,226.1,170120,5.8,W,D*32
#HEADINGA,COM2,0,49.0,FINE,2088,455551.400,1613783,17,18;SOL_COMPUTED,NARROW_FLOAT,0.7807,123.7944,15.4293,0.0000,0.3069,0.7901,"999",30,26,26,13,3,01,1,f3*dfe03f59
$GNGGA,063213.50,3039.09321814,N,12047.27736463,E,4,26,0.8,4.3531,M,9.8160,M,12,0*75
$GNRMC,063213.50,A,3039.09321814,N,12047.27736463,E,0.095,148.9,170120,5.8,W,D*37
#HEADINGA,COM2,0,49.0,FINE,2088,455551.500,1613884,19,18;SOL_COMPUTED,NARROW_FLOAT,0.7695,123.0790,13.9368,0.0000,0.3225,0.8298,"999",30,25,25,13,3,01,1,f3*7958d27c
$GNGGA,063213.60,3039.09321784,N,12047.27736628,E,4,26,0.8,4.3488,M,9.8160,M,12,0*7E
$GNRMC,063213.60,A,3039.09321784,N,12047.27736628,E,0.052,101.9,170120,5.8,W,D*39
#HEADINGA,COM2,0,49.0,FINE,2088,455551.600,1613983,17,18;SOL_COMPUTED,NARROW_FLOAT,0.7686,123.2038,14.5237,0.0000,0.3234,0.8266,"999",30,25,25,13,3,01,1,f3*5bab9506
$GNGGA,063213.70,3039.09321962,N,12047.27736728,E,4,26,0.8,4.3588,M,9.8160,M,12,0*79
$GNRMC,063213.70,A,3039.09321962,N,12047.27736728,E,0.071,25.9,170120,5.8,W,D*09
#HEADINGA,COM2,0,49.0,FINE,2088,455551.700,1614083,16,18;SOL_COMPUTED,NARROW_FLOAT,0.7680,123.0443,13.8339,0.0000,0.3230,0.8321,"999",30,25,25,13,3,01,1,f3*01128bc9
$GNGGA,063213.80,3039.09321824,N,12047.27736135,E,4,26,0.8,4.3318,M,9.8160,M,12,0*70
$GNRMC,063213.80,A,3039.09321824,N,12047.27736135,E,0.191,254.9,170120,5.8,W,D*34
#HEADINGA,COM2,0,49.0,FINE,2088,455551.800,1614183,16,18;SOL_COMPUTED,NARROW_FLOAT,0.7774,123.4454,15.2498,0.0000,0.3084,0.7945,"999",30,26,26,13,3,01,1,f3*7286aaa7
$GNGGA,063213.90,3039.09321640,N,12047.27736301,E,4,26,0.8,4.3359,M,9.8160,M,12,0*7D
$GNRMC,063213.90,A,3039.09321640,N,12047.27736301,E,0.084,142.0,170120,5.8,W,D*34
#HEADINGA,COM2,0,49.0,FINE,2088,455551.900,1614283,18,18;SOL_COMPUTED,NARROW_FLOAT,0.7713,122.7703,13.7850,0.0000,0.3244,0.8836,"999",30,23,23,12,3,01,1,f3*7e0f21e5
#REFSTATIONA,COM2,0,48.0,FINE,2088,455537.000,1611584,2804,18;00000000,-2811044.342,4717820.352,3232735.546,0,RTCMV3,"0000"*4d99e0f7
$GNGGA,063214.00,3039.09321697,N,12047.27736628,E,4,26,0.8,4.3512,M,9.8160,M,13,0*7F
$GNRMC,063214.00,A,3039.09321697,N,12047.27736628,E,0.104,78.6,170120,5.8,W,D*09
#HEADINGA,COM2,0,49.0,FINE,2088,455552.000,1614383,21,18;SOL_COMPUTED,NARROW_FLOAT,0.7710,123.5868,15.0806,0.0000,0.3104,0.8017,"999",30,26,26,12,3,01,1,f3*443d7929
$GNGGA,063214.10,3039.09321542,N,12047.27736384,E,4,26,0.8,4.3483,M,9.8160,M,13,0*7F
$GNRMC,063214.10,A,3039.09321542,N,12047.27736384,E,0.094,233.7,170120,5.8,W,D*34
#HEADINGA,COM2,0,49.0,FINE,2088,455552.100,1614484,18,18;SOL_COMPUTED,NARROW_FLOAT,0.7716,122.9105,14.7429,0.0000,0.3234,0.8212,"999",30,25,25,12,3,01,1,f3*99fe99e1
$GNGGA,063214.20,3039.09321659,N,12047.27736256,E,4,26,0.8,4.3416,M,9.8160,M,13,0*77
$GNRMC,063214.20,A,3039.09321659,N,12047.27736256,E,0.058,316.6,170120,5.8,W,D*37
#HEADINGA,COM2,0,49.0,FINE,2088,455552.200,1614585,17,18;SOL_COMPUTED,NARROW_FLOAT,0.7727,123.0443,15.1463,0.0000,0.3112,0.8001,"999",30,26,26,11,3,01,1,f3*6e5b1117
$GNGGA,063214.30,3039.09321626,N,12047.27736421,E,4,26,0.8,4.3352,M,9.8160,M,10,0*7C
$GNRMC,063214.30,A,3039.09321626,N,12047.27736421,E,0.053,103.2,170120,5.8,W,D*31
#HEADINGA,COM2,0,49.0,FINE,2088,455552.300,1614684,17,18;SOL_COMPUTED,NARROW_FLOAT,0.7669,123.1255,14.8392,0.0000,0.2928,0.8962,"999",30,25,25,11,3,01,1,f3*646f5d93
$GNGGA,063214.40,3039.09321836,N,12047.27736598,E,4,26,0.8,4.3408,M,9.8160,M,10,0*7F
$GNRMC,063214.40,A,3039.09321836,N,12047.27736598,E,0.093,36.0,170120,5.8,W,D*03
#HEADINGA,COM2,0,49.0,FINE,2088,455552.400,1614784,17,18;SOL_COMPUTED,NARROW_FLOAT,0.7627,122.8563,14.6737,0.0000,0.3038,0.9089,"999",30,25,25,11,3,01,1,f3*05d1e21b
$GNGGA,063214.50,3039.09321738,N,12047.27736476,E,4,26,0.8,4.3426,M,9.8160,M,10,0*72
$GNRMC,063214.50,A,3039.09321738,N,12047.27736476,E,0.052,227.2,170120,5.8,W,D*3F
#HEADINGA,COM2,0,49.0,FINE,2088,455552.500,1614883,18,18;SOL_COMPUTED,NARROW_FLOAT,0.7634,122.8978,14.6230,0.0000,0.2941,0.9019,"999",30,25,25,11,3,01,1,f3*0da6a632
$GNGGA,063214.60,3039.09321724,N,12047.27736251,E,4,26,0.8,4.3280,M,9.8160,M,10,0*75
$GNRMC,063214.60,A,3039.09321724,N,12047.27736251,E,0.070,265.9,170120,5.8,W,D*3F
#HEADINGA,COM2,0,49.0,FINE,2088,455552.600,1614983,20,18;SOL_COMPUTED,NARROW_FLOAT,0.7585,122.5038,13.4250,0.0000,0.3051,0.9383,"999",30,24,24,11,3,01,1,f3*8dee1747
$GNGGA,063214.70,3039.09322009,N,12047.27736190,E,4,26,0.8,4.3125,M,9.8160,M,10,0*7D
$GNRMC,063214.70,A,3039.09322009,N,12047.27736190,E,0.104,349.4,170120,5.8,W,D*3B
#HEADINGA,COM2,0,49.0,FINE,2088,455552.700,1615083,17,18;SOL_COMPUTED,NARROW_FLOAT,0.7596,122.5909,13.7270,0.0000,0.3050,0.9346,"999",30,24,24,11,3,01,1,f3*728d28f6
$GNGGA,063214.80,3039.09322109,N,12047.27736111,E,4,26,0.8,4.3208,M,9.8160,M,10,0*76
$GNRMC,063214.80,A,3039.09322109,N,12047.27736111,E,0.043,325.7,170120,5.8,W,D*37
#HEADINGA,COM2,0,49.0,FINE,2088,455552.800,1615183,17,18;SOL_COMPUTED,NARROW_FLOAT,0.7632,122.8979,14.1518,0.0000,0.3032,0.9128,"999",30,25,25,11,3,01,1,f3*f309ce0d
$GNGGA,063214.90,3039.09321915,N,12047.27736344,E,4,26,0.8,4.3287,M,9.8160,M,10,0*74
$GNRMC,063214.90,A,3039.09321915,N,12047.27736344,E,0.100,134.0,170120,5.8,W,D*31
#HEADINGA,COM2,0,48.0,FINE,2088,455552.900,1615283,17,18;SOL_COMPUTED,NARROW_FLOAT,0.7578,122.5710,13.4114,0.0000,0.3053,0.9391,"999",30,24,24,11,3,01,1,f3*73b74d03
#REFSTATIONA,COM2,0,49.0,FINE,2088,455542.000,1614585,803,18;00000000,-2811044.342,4717820.352,3232735.546,0,RTCMV3,"0000"*76841023
$GNGGA,063215.00,3039.09321882,N,12047.27736093,E,4,26,0.8,4.3217,M,9.8160,M,11,0*72
$GNRMC,063215.00,A,3039.09321882,N,12047.27736093,E,0.079,261.3,170120,5.8,W,D*30
#HEADINGA,COM2,0,48.0,FINE,2088,455553.000,1615384,21,18;SOL_COMPUTED,NARROW_FLOAT,0.7617,122.6731,14.1783,0.0000,0.3040,0.9143,"999",30,25,25,11,3,01,1,f3*77cc95a0
$GNGGA,063215.10,3039.09322068,N,12047.27736060,E,4,26,0.8,4.3091,M,9.8160,M,11,0*7C
$GNRMC,063215.10,A,3039.09322068,N,12047.27736060,E,0.068,351.2,170120,5.8,W,D*31
#HEADINGA,COM2,0,48.0,FINE,2088,455553.100,1615483,18,18;SOL_COMPUTED,NARROW_FLOAT,0.7626,122.5478,14.0289,0.0000,0.3038,0.9280,"999",30,24,24,11,3,01,1,f3*d7f44d87
$GNGGA,063215.20,3039.09321970,N,12047.27736285,E,4,26,0.8,4.3224,M,9.8160,M,11,0*79
$GNRMC,063215.20,A,3039.09321970,N,12047.27736285,E,0.078,116.9,170120,5.8,W,D*33
#HEADINGA,COM2,0,48.0,FINE,2088,455553.200,1615584,18,18;SOL_COMPUTED,NARROW_FLOAT,0.7610,122.7247,13.9691,0.0000,0.3035,0.9161,"999",30,25,25,11,3,01,1,f3*b0e4ab7c
$GNGGA,063215.30,3039.09322009,N,12047.27736225,E,4,26,0.8,4.3143,M,9.8160,M,10,0*75
$GNRMC,063215.30,A,3039.09322009,N,12047.27736225,E,0.023,307.2,170120,5.8,W,D*3B
#HEADINGA,COM2,0,48.0,FINE,2088,455553.300,1615684,17,18;SOL_COMPUTED,NARROW_FLOAT,0.7708,123.2419,14.9345,0.0000,0.3230,0.8206,"999",30,25,25,12,3,01,1,f3*9ed907ca
$GNGGA,063215.40,3039.09321976,N,12047.27736009,E,4,26,0.8,4.3150,M,9.8160,M,10,0*7E
$GNRMC,063215.40,A,3039.09321976,N,12047.27736009,E,0.068,260.0,170120,5.8,W,D*3F
#HEADINGA,COM2,0,48.0,FINE,2088,455553.400,1615784,17,18;SOL_COMPUTED,NARROW_FLOAT,0.7720,123.0351,14.6433,0.0000,0.3225,0.8214,"999",30,25,25,12,3,01,1,f3*c74b878b
$GNGGA,063215.50,3039.09321859,N,12047.27736090,E,4,26,0.8,4.3192,M,9.8160,M,10,0*7D
$GNRMC,063215.50,A,3039.09321859,N,12047.27736090,E,0.049,149.4,170120,5.8,W,D*3D
#HEADINGA,COM2,0,48.0,FINE,2088,455553.500,1615883,19,18;SOL_COMPUTED,NARROW_FLOAT,0.7720,123.4160,14.8005,0.0000,0.3101,0.8027,"999",30,26,26,12,3,01,1,f3*a5a900ef
$GNGGA,063215.60,3039.09321887,N,12047.27736042,E,4,26,0.8,4.3068,M,9.8160,M,10,0*76
$GNRMC,063215.60,A,3039.09321887,N,12047.27736042,E,0.018,304.1,170120,5.8,W,D*38
#HEADINGA,COM2,0,48.0,FINE,2088,455553.600,1615983,17,18;SOL_COMPUTED,NARROW_FLOAT,0.7714,122.8196,15.0050,0.0000,0.3238,0.8196,"999",30,25,25,12,3,01,1,f3*99e47ada
$GNGGA,063215.70,3039.09321827,N,12047.27736064,E,4,26,0.8,4.3170,M,9.8160,M,10,0*71
$GNRMC,063215.70,A,3039.09321827,N,12047.27736064,E,0.022,162.6,170120,5.8,W,D*3B
#HEADINGA,COM2,0,48.0,FINE,2088,455553.700,1616083,16,18;SOL_COMPUTED,NARROW_FLOAT,0.7646,123.0032,13.7965,0.0000,0.3246,0.8374,"999",30,25,25,12,3,01,1,f3*01e18878
$GNGGA,063215.80,3039.09321868,N,12047.27736107,E,4,26,0.8,4.3145,M,9.8160,M,10,0*77
$GNRMC,063215.80,A,3039.09321868,N,12047.27736107,E,0.020,42.1,170120,5.8,W,D*0D
#HEADINGA,COM2,0,48.0,FINE,2088,455553.800,1616183,16,18;SOL_COMPUTED,NARROW_FLOAT,0.7708,123.0638,14.8356,0.0000,0.3231,0.8217,"999",30,25,25,12,3,01,1,f3*be475a34
$GNGGA,063215.90,3039.09321668,N,12047.27736168,E,4,26,0.8,4.3277,M,9.8160,M,10,0*73
$GNRMC,063215.90,A,3039.09321668,N,12047.27736168,E,0.074,165.2,170120,5.8,W,D*3D
#HEADINGA,COM2,0,48.0,FINE,2088,455553.900,1616283,15,18;SOL_COMPUTED,NARROW_FLOAT,0.7709,123.2287,14.7774,0.0000,0.3108,0.8045,"999",30,26,26,12,3,01,1,f3*4732adf6
#REFSTATIONA,COM2,0,48.0,FINE,2088,455542.000,1615584,804,18;00000000,-2811044.342,4717820.352,3232735.546,0,RTCMV3,"0000"*70084165
$GNGGA,063216.00,3039.09322008,N,12047.27736239,E,4,26,0.8,4.3224,M,9.8160,M,11,0*7A
$GNRMC,063216.00,A,3039.09322008,N,12047.27736239,E,0.124,10.2,170120,5.8,W,D*04
#HEADINGA,COM2,0,48.0,FINE,2088,455554.000,1616383,21,18;SOL_COMPUTED,NARROW_FLOAT,0.7706,123.4354,14.7285,0.0000,0.3103,0.8042,"999",30,26,26,12,3,01,1,f3*22fb1a42
$GNGGA,063216.10,3039.09321956,N,12047.27736062,E,4,26,0.8,4.3095,M,9.8160,M,11,0*7E
$GNRMC,063216.10,A,3039.09321956,N,12047.27736062,E,0.058,251.2,170120,5.8,W,D*35
#HEADINGA,COM2,0,48.0,FINE,2088,455554.100,1616484,17,18;SOL_COMPUTED,NARROW_FLOAT,0.7731,123.0647,15.1092,0.0000,0.3225,0.8166,"999",30,25,25,12,3,01,1,f3*584571c4
$GNGGA,063216.20,3039.09321901,N,12047.27736313,E,4,26,0.8,4.3280,M,9.8160,M,11,0*7C
$GNRMC,063216.20,A,3039.09321901,N,12047.27736313,E,0.080,104.1,170120,5.8,W,D*34
#HEADINGA,COM2,0,48.0,FINE,2088,455554.200,1616585,18,18;SOL_COMPUTED,NARROW_FLOAT,0.7707,122.9701,14.5292,0.0000,0.3229,0.8234,"999",30,25,25,12,3,01,1,f3*83d458ab
$GNGGA,063216.30,3039.09321882,N,12047.27736164,E,4,26,0.8,4.3266,M,9.8160,M,08,0*75
$GNRMC,063216.30,A,3039.09321882,N,12047.27736164,E,0.047,261.4,170120,5.8,W,D*33
#HEADINGA,COM2,0,48.0,FINE,2088,455554.300,1616684,16,18;SOL_COMPUTED,NARROW_FLOAT,0.7739,123.4804,15.2417,0.0000,0.3097,0.7974,"999",30,26,26,12,3,01,1,f3*a46ef2c2
$GNGGA,063216.40,3039.09321760,N,12047.27736196,E,4,26,0.8,4.3195,M,9.8160,M,08,0*73
$GNRMC,063216.40,A,3039.09321760,N,12047.27736196,E,0.045,167.3,170120,5.8,W,D*3A
#HEADINGA,COM2,0,48.0,FINE,2088,455554.400,1616783,18,18;SOL_COMPUTED,NARROW_FLOAT,0.7556,122.6497,13.8704,0.0000,0.3057,0.9230,"999",30,25,25,13,3,01,1,f3*35c25e9a
$GNGGA,063216.50,3039.09321806,N,12047.27736109,E,4,26,0.8,4.3055,M,9.8160,M,08,0*76
$GNRMC,063216.50,A,3039.09321806,N,12047.27736109,E,0.032,301.4,170120,5.8,W,D*37
#HEADINGA,COM2,0,48.0,FINE,2088,455554.500,1616883,17,18;SOL_COMPUTED,NARROW_FLOAT,0.7665,123.2954,15.4031,0.0000,0.2921,0.8777,"999",30,26,26,13,3,01,1,f3*54f315a4
$GNGGA,063216.60,3039.09321769,N,12047.27736424,E,4,26,0.8,4.3379,M,9.8160,M,08,0*74
$GNRMC,063216.60,A,3039.09321769,N,12047.27736424,E,0.099,97.7,170120,5.8,W,D*06
#HEADINGA,COM2,0,48.0,FINE,2088,455554.600,1616983,20,18;SOL_COMPUTED,NARROW_FLOAT,0.7609,123.0233,13.6246,0.0000,0.3037,0.9332,"999",30,24,24,13,3,01,1,f3*1b0930be
$GNGGA,063216.70,3039.09321425,N,12047.27736300,E,4,26,0.8,4.3468,M,9.8160,M,08,0*78
$GNRMC,063216.70,A,3039.09321425,N,12047.27736300,E,0.130,197.3,170120,5.8,W,D*3A
#HEADINGA,COM2,0,48.0,FINE,2088,455554.700,1617083,16,18;SOL_COMPUTED,NARROW_FLOAT,0.7626,122.5566,13.9076,0.0000,0.3039,0.9291,"999",30,24,24,13,3,01,1,f3*87d00dd6
$GNGGA,063216.80,3039.09321541,N,12047.27736287,E,4,26,0.8,4.3482,M,9.8160,M,08,0*7E
$GNRMC,063216.80,A,3039.09321541,N,12047.27736287,E,0.042,354.2,170120,5.8,W,D*30
#HEADINGA,COM2,0,48.0,FINE,2088,455554.800,1617183,16,18;SOL_COMPUTED,NARROW_FLOAT,0.7633,122.5998,14.2994,0.0000,0.3035,0.9112,"999",30,25,25,13,3,01,1,f3*66e4509b
$GNGGA,063216.90,3039.09321603,N,12047.27736163,E,4,26,0.8,4.3371,M,9.8160,M,08,0*78
$GNRMC,063216.90,A,3039.09321603,N,12047.27736163,E,0.044,300.1,170120,5.8,W,D*39
#HEADINGA,COM2,0,48.0,FINE,2088,455554.900,1617282,17,18;SOL_COMPUTED,NARROW_FLOAT,0.7573,122.6757,13.3516,0.0000,0.3053,0.9398,"999",30,24,24,13,3,01,1,f3*4c89e0f3
#REFSTATIONA,COM2,0,48.0,FINE,2088,455546.000,1616585,802,18;00000000,-2811044.342,4717820.352,3232735.546,0,RTCMV3,"0000"*162afac8
$GNGGA,063217.00,3039.09321485,N,12047.27736028,E,4,26,0.8,4.3213,M,9.8160,M,09,0*76
$GNRMC,063217.00,A,3039.09321485,N,12047.27736028,E,0.060,224.6,170120,5.8,W,D*35
#HEADINGA,COM2,0,48.0,FINE,2088,455555.000,1617383,21,18;SOL_COMPUTED,NARROW_FLOAT,0.7612,122.6763,14.3556,0.0000,0.3042,0.9130,"999",30,25,25,13,3,01,1,f3*89a5cbce
$GNGGA,063217.10,3039.09321666,N,12047.27736563,E,4,26,0.8,4.3425,M,9.8160,M,09,0*71
$GNRMC,063217.10,A,3039.09321666,N,12047.27736563,E,0.179,68.6,170120,5.8,W,D*02
#HEADINGA,COM2,0,48.0,FINE,2088,455555.100,1617483,17,18;SOL_COMPUTED,NARROW_FLOAT,0.7551,123.0174,13.8629,0.0000,0.3057,0.9259,"999",30,25,25,13,3,01,1,f3*02f4a9c5
$GNGGA,063217.20,3039.09321609,N,12047.27736456,E,4,26,0.8,4.3511,M,9.8160,M,09,0*7A
$GNRMC,063217.20,A,3039.09321609,N,12047.27736456,E,0.039,238.2,170120,5.8,W,D*39
#HEADINGA,COM2,0,48.0,FINE,2088,455555.200,1617584,17,18;SOL_COMPUTED,NARROW_FLOAT,0.7635,122.7175,14.1244,0.0000,0.3028,0.9116,"999",30,25,25,13,3,01,1,f3*5f421f5a
$GNGGA,063217.30,3039.09321503,N,12047.27736174,E,4,26,0.8,4.3436,M,9.8160,M,09,0*73
$GNRMC,063217.30,A,3039.09321503,N,12047.27736174,E,0.096,246.6,170120,5.8,W,D*3C
#HEADINGA,COM2,0,48.0,FINE,2088,455555.300,1617683,16,18;SOL_COMPUTED,NARROW_FLOAT,0.7680,123.1459,14.7656,0.0000,0.2911,0.8820,"999",30,26,26,13,3,01,1,f3*6227e3c0
$GNGGA,063217.40,3039.09321617,N,12047.27736176,E,4,26,0.8,4.3467,M,9.8160,M,09,0*74
$GNRMC,063217.40,A,3039.09321617,N,12047.27736176,E,0.041,0.8,170120,5.8,W,D*3B
#HEADINGA,COM2,0,48.0,FINE,2088,455555.400,1617783,17,18;SOL_COMPUTED,NARROW_FLOAT,0.7731,122.6992,14.5181,0.0000,0.3232,0.8223,"999",30,25,25,13,3,01,1,f3*a3607243
$GNGGA,063217.50,3039.09321533,N,12047.27736468,E,4,26,0.8,4.3545,M,9.8160,M,09,0*7B
$GNRMC,063217.50,A,3039.09321533,N,12047.27736468,E,0.096,108.4,170120,5.8,W,D*3A
#HEADINGA,COM2,0,48.0,FINE,2088,455555.500,1617882,20,18;SOL_COMPUTED,NARROW_FLOAT,0.7708,122.9913,14.9003,0.0000,0.3236,0.8212,"999",30,25,25,13,3,01,1,f3*b2a71c5c
$GNGGA,063217.60,3039.09321532,N,12047.27736531,E,4,26,0.8,4.3603,M,9.8160,M,09,0*75
$GNRMC,063217.60,A,3039.09321532,N,12047.27736531,E,0.020,90.7,170120,5.8,W,D*0B
#HEADINGA,COM2,0,48.0,FINE,2088,455555.600,1617983,15,18;SOL_COMPUTED,NARROW_FLOAT,0.7755,123.3321,15.1838,0.0000,0.3097,0.7970,"999",30,26,26,13,3,01,1,f3*bbdcf3ae
$GNGGA,063217.70,3039.09321600,N,12047.27736463,E,4,26,0.8,4.3582,M,9.8160,M,09,0*7A
$GNRMC,063217.70,A,3039.09321600,N,12047.27736463,E,0.032,319.0,170120,5.8,W,D*38
#HEADINGA,COM2,0,48.0,FINE,2088,455555.700,1618082,16,18;SOL_COMPUTED,NARROW_FLOAT,0.7771,123.0350,14.8619,0.0000,0.3212,0.8154,"999",30,25,25,13,3,01,1,f3*bdfc27c0
$GNGGA,063217.80,3039.09321562,N,12047.27736517,E,4,26,0.8,4.3544,M,9.8160,M,09,0*7A
$GNRMC,063217.80,A,3039.09321562,N,12047.27736517,E,0.022,129.7,170120,5.8,W,D*35
#HEADINGA,COM2,0,48.0,FINE,2088,455555.800,1618183,16,18;SOL_COMPUTED,NARROW_FLOAT,0.7763,122.6516,14.9293,0.0000,0.3224,0.8157,"999",30,25,25,13,3,01,1,f3*12bea538
$GNGGA,063217.90,3039.09321614,N,12047.27736870,E,4,26,0.8,4.3570,M,9.8160,M,09,0*72
$GNRMC,063217.90,A,3039.09321614,N,12047.27736870,E,0.111,80.2,170120,5.8,W,D*0C
#HEADINGA,COM2,0,51.0,FINE,2088,455555.900,1618282,17,18;SOL_COMPUTED,NARROW_FLOAT,0.7665,123.2015,14.6261,0.0000,0.3247,0.8266,"999",30,25,25,13,3,01,1,f3*bd6df095
#REFSTATIONA,COM2,0,48.0,FINE,2088,455546.000,1616585,1802,18;00000000,-2811044.342,4717820.352,3232735.546,0,RTCMV3,"0000"*dea24849
$GNGGA,063218.00,3039.09321693,N,12047.27736553,E,4,26,0.8,4.3532,M,9.8160,M,10,0*79
$GNRMC,063218.00,A,3039.09321693,N,12047.27736553,E,0.102,286.0,170120,5.8,W,D*3D
#HEADINGA,COM2,0,51.0,FINE,2088,455556.000,1618383,21,18;SOL_COMPUTED,NARROW_FLOAT,0.7731,123.0302,14.7715,0.0000,0.3225,0.8195,"999",30,25,25,13,3,01,1,f3*9a9853ce
$GNGGA,063218.10,3039.09321682,N,12047.27736183,E,4,26,0.8,4.3463,M,9.8160,M,10,0*74
$GNRMC,063218.10,A,3039.09321682,N,12047.27736183,E,0.115,268.2,170120,5.8,W,D*31
#HEADINGA,COM2,0,51.0,FINE,2088,455556.100,1618483,16,18;SOL_COMPUTED,NARROW_FLOAT,0.7763,123.4195,14.9632,0.0000,0.3088,0.7960,"999",30,26,26,13,3,01,1,f3*89082130
$GNGGA,063218.20,3039.09321433,N,12047.27736304,E,4,26,0.8,4.3517,M,9.8160,M,10,0*70
$GNRMC,063218.20,A,3039.09321433,N,12047.27736304,E,0.097,157.1,170120,5.8,W,D*30
#HEADINGA,COM2,0,51.0,FINE,2088,455556.200,1618584,16,18;SOL_COMPUTED,NARROW_FLOAT,0.7674,123.3163,14.4777,0.0000,0.3119,0.8087,"999",30,26,26,13,3,01,1,f3*a294d81a
$GNGGA,063218.30,3039.09321503,N,12047.27736405,E,4,26,0.8,4.3586,M,9.8160,M,10,0*7D
$GNRMC,063218.30,A,3039.09321503,N,12047.27736405,E,0.040,51.2,170120,5.8,W,D*0B
#HEADINGA,COM2,0,51.0,FINE,2088,455556.300,1618683,17,18;SOL_COMPUTED,NARROW_FLOAT,0.7627,122.7549,14.0344,0.0000,0.3032,0.9105,"999",30,25,25,13,3,01,1,f3*aa4d1708
$GNGGA,063218.40,3039.09321438,N,12047.27735930,E,4,26,0.8,4.3350,M,9.8160,M,10,0*76
$GNRMC,063218.40,A,3039.09321438,N,12047.27735930,E,0.149,261.0,170120,5.8,W,D*36
#HEADINGA,COM2,0,51.0,FINE,2088,455556.400,1618783,19,18;SOL_COMPUTED,NARROW_FLOAT,0.7663,122.5179,14.7028,0.0000,0.3030,0.9014,"999",30,25,25,13,3,01,1,f3*39ea10d4
$GNGGA,063218.50,3039.09321514,N,12047.27735850,E,4,26,0.8,4.3339,M,9.8160,M,10,0*70
$GNRMC,063218.50,A,3039.09321514,N,12047.27735850,E,0.037,317.9,170120,5.8,W,D*3E
#HEADINGA,COM2,0,51.0,FINE,2088,455556.500,1618883,16,18;SOL_COMPUTED,NARROW_FLOAT,0.7646,122.7754,14.4943,0.0000,0.3031,0.9049,"999",30,25,25,13,3,01,1,f3*3663c047
$GNGGA,063218.60,3039.09321429,N,12047.27735930,E,4,26,0.8,4.3336,M,9.8160,M,10,0*74
$GNRMC,063218.60,A,3039.09321429,N,12047.27735930,E,0.040,141.0,170120,5.8,W,D*3D
#HEADINGA,COM2,0,51.0,FINE,2088,455556.600,1618983,16,18;SOL_COMPUTED,NARROW_FLOAT,0.7698,122.5224,14.8370,0.0000,0.3018,0.8961,"999",30,25,25,13,3,01,1,f3*fe6c416f
$GNGGA,063218.70,3039.09321447,N,12047.27735764,E,4,26,0.8,4.3321,M,9.8160,M,10,0*74
$GNRMC,063218.70,A,3039.09321447,N,12047.27735764,E,0.052,277.2,170120,5.8,W,D*3C
#HEADINGA,COM2,0,51.0,FINE,2088,455556.700,1619082,17,18;SOL_COMPUTED,NARROW_FLOAT,0.7679,122.3973,14.2124,0.0000,0.3025,0.9172,"999",30,24,24,13,3,01,1,f3*d99ca672
$GNGGA,063218.80,3039.09321533,N,12047.27735895,E,4,26,0.8,4.3311,M,9.8160,M,10,0*7B
$GNRMC,063218.80,A,3039.09321533,N,12047.27735895,E,0.051,52.6,170120,5.8,W,D*02
#HEADINGA,COM2,0,51.0,FINE,2088,455556.800,1619183,16,18;SOL_COMPUTED,NARROW_FLOAT,0.7621,122.5642,14.2046,0.0000,0.3040,0.9099,"999",30,25,25,13,3,01,1,f3*f7eb7f15
$GNGGA,063218.90,3039.09321378,N,12047.27735766,E,4,26,0.8,4.3160,M,9.8160,M,10,0*74
$GNRMC,063218.90,A,3039.09321378,N,12047.27735766,E,0.069,215.7,170120,5.8,W,D*32
#HEADINGA,COM2,0,51.0,FINE,2088,455556.900,1619283,16,18;SOL_COMPUTED,NARROW_FLOAT,0.7615,122.4693,14.1958,0.0000,0.3043,0.9107,"999",30,25,25,13,3,01,1,f3*91d2d263
#REFSTATIONA,COM2,0,48.0,FINE,2088,455546.000,1616585,2802,18;00000000,-2811044.342,4717820.352,3232735.546,0,RTCMV3,"0000"*7adcca8c
$GNGGA,063219.00,3039.09321441,N,12047.27736141,E,4,26,0.8,4.3354,M,9.8160,M,11,0*75
$GNRMC,063219.00,A,3039.09321441,N,12047.27736141,E,0.119,78.9,170120,5.8,W,D*06
#HEADINGA,COM2,0,51.0,FINE,2088,455557.000,1619383,21,18;SOL_COMPUTED,NARROW_FLOAT,0.7628,122.6263,14.5667,0.0000,0.3041,0.9065,"999",30,25,25,13,3,01,1,f3*28bc0803
$GNGGA,063219.10,3039.09321449,N,12047.27736551,E,4,26,0.8,4.3552,M,9.8160,M,11,0*79
$GNRMC,063219.10,A,3039.09321449,N,12047.27736551,E,0.127,88.8,170120,5.8,W,D*09
#HEADINGA,COM2,0,51.0,FINE,2088,455557.100,1619483,17,18;SOL_COMPUTED,NARROW_FLOAT,0.7542,122.7725,13.6234,0.0000,0.3068,0.9381,"999",30,24,24,13,3,01,1,f3*92af3e79
$GNGGA,063219.20,3039.09321343,N,12047.27736126,E,4,26,0.8,4.3440,M,9.8160,M,11,0*71
$GNRMC,063219.20,A,3039.09321343,N,12047.27736126,E,0.137,253.9,170120,5.8,W,D*37
#HEADINGA,COM2,0,51.0,FINE,2088,455557.200,1619584,18,18;SOL_COMPUTED,NARROW_FLOAT,0.7558,122.4415,13.8936,0.0000,0.3063,0.9220,"999",30,25,25,13,3,01,1,f3*2174ced9
$GNGGA,063219.30,3039.09321420,N,12047.27736043,E,4,26,0.8,4.3455,M,9.8160,M,08,0*7C
$GNRMC,063219.30,A,3039.09321420,N,12047.27736043,E,0.038,317.2,170120,5.8,W,D*32
#HEADINGA,COM2,0,51.0,FINE,2088,455557.300,1619683,16,18;SOL_COMPUTED,NARROW_FLOAT,0.7710,123.4004,14.7630,0.0000,0.3107,0.8035,"999",30,26,26,13,3,01,1,f3*7b05672f
$GNGGA,063219.40,3039.09321334,N,12047.27736273,E,4,25,0.8,4.3600,M,9.8160,M,08,0*79
$GNRMC,063219.40,A,3039.09321334,N,12047.27736273,E,0.078,113.2,170120,5.8,W,D*34
#HEADINGA,COM2,0,51.0,FINE,2088,455557.400,1619783,17,18;SOL_COMPUTED,NARROW_FLOAT,0.7707,123.2430,14.4310,0.0000,0.3114,0.8327,"999",30,25,25,13,3,01,1,f3*3acb82de
$GNGGA,063219.50,3039.09321695,N,12047.27736063,E,4,25,0.8,4.3321,M,9.8160,M,08,0*73
$GNRMC,063219.50,A,3039.09321695,N,12047.27736063,E,0.145,333.2,170120,5.8,W,D*37
#HEADINGA,COM2,0,51.0,FINE,2088,455557.500,1619883,18,18;SOL_COMPUTED,NARROW_FLOAT,0.7786,123.2962,15.1399,0.0000,0.3089,0.8190,"999",30,25,25,13,3,01,1,f3*a0a5dc7a
$GNGGA,063219.60,3039.09321659,N,12047.27735991,E,4,25,0.8,4.3400,M,9.8160,M,08,0*73
$GNRMC,063219.60,A,3039.09321659,N,12047.27735991,E,0.026,239.7,170120,5.8,W,D*39
#HEADINGA,COM2,0,51.0,FINE,2088,455557.600,1619983,15,18;SOL_COMPUTED,NARROW_FLOAT,0.7764,123.5738,14.9974,0.0000,0.3090,0.8224,"999",30,25,25,13,3,01,1,f3*d353257b
$GNGGA,063219.70,3039.09321745,N,12047.27735734,E,4,25,0.8,4.3228,M,9.8160,M,08,0*73
$GNRMC,063219.70,A,3039.09321745,N,12047.27735734,E,0.085,291.2,170120,5.8,W,D*3B
#HEADINGA,COM2,0,51.0,FINE,2088,455557.700,1620083,15,18;SOL_COMPUTED,NARROW_FLOAT,0.7772,123.3553,15.1173,0.0000,0.3093,0.8206,"999",30,25,25,13,3,01,1,f3*8d23871c
$GNGGA,063219.80,3039.09321490,N,12047.27736346,E,4,25,0.8,4.3570,M,9.8160,M,08,0*7F
$GNRMC,063219.80,A,3039.09321490,N,12047.27736346,E,0.211,115.7,170120,5.8,W,D*38
#HEADINGA,COM2,0,51.0,FINE,2088,455557.800,1620183,15,18;SOL_COMPUTED,NARROW_FLOAT,0.7708,123.3722,14.6625,0.0000,0.3112,0.8307,"999",30,25,25,13,3,01,1,f3*064ef6cf
$GNGGA,063219.90,3039.09321732,N,12047.27736292,E,4,25,0.8,4.3637,M,9.8160,M,08,0*7D
$GNRMC,063219.90,A,3039.09321732,N,12047.27736292,E,0.088,349.1,170120,5.8,W,D*35
#HEADINGA,COM2,0,51.0,FINE,2088,455557.900,1620283,15,18;SOL_COMPUTED,NARROW_FLOAT,0.7752,123.5658,14.5371,0.0000,0.3089,0.8268,"999",30,25,25,13,3,01,1,f3*1bb2e519
#REFSTATIONA,COM2,0,51.0,FINE,2088,455546.000,1619584,803,18;00000000,-2811044.342,4717820.352,3232735.546,0,RTCMV3,"0000"*eaab0a2d
$GNGGA,063220.00,3039.09321541,N,12047.27736038,E,4,25,0.8,4.3581,M,9.8160,M,09,0*75
$GNRMC,063220.00,A,3039.09321541,N,12047.27736038,E,0.104,229.0,170120,5.8,W,D*31
#HEADINGA,COM2,0,51.0,FINE,2088,455558.000,1620383,21,18;SOL_COMPUTED,NARROW_FLOAT,0.7707,122.8418,14.0024,0.0000,0.3232,0.8552,"999",30,24,24,13,3,01,1,f3*a2943a41
$GNGGA,063220.10,3039.09321575,N,12047.27735984,E,4,25,0.8,4.3508,M,9.8160,M,09,0*7F
$GNRMC,063220.10,A,3039.09321575,N,12047.27735984,E,0.021,305.7,170120,5.8,W,D*34
#HEADINGA,COM2,0,51.0,FINE,2088,455558.100,1620483,17,18;SOL_COMPUTED,NARROW_FLOAT,0.7713,123.3051,14.2286,0.0000,0.3104,0.8315,"999",30,25,25,13,3,01,1,f3*2f14f76e
$GNGGA,063220.20,3039.09321623,N,12047.27736198,E,4,25,0.8,4.3532,M,9.8160,M,09,0*73
$GNRMC,063220.20,A,3039.09321623,N,12047.27736198,E,0.069,75.3,170120,5.8,W,D*0D
#HEADINGA,COM2,0,51.0,FINE,2088,455558.200,1620584,17,18;SOL_COMPUTED,NARROW_FLOAT,0.7698,123.0556,13.6790,0.0000,0.3225,0.8567,"999",30,24,24,13,3,01,1,f3*d8277b7f
$GNGGA,063220.30,3039.09321540,N,12047.27736129,E,4,25,0.8,4.3525,M,9.8160,M,09,0*78
$GNRMC,063220.30,A,3039.09321540,N,12047.27736129,E,0.037,215.7,170120,5.8,W,D*3B
#HEADINGA,COM2,0,51.0,FINE,2088,455558.300,1620683,17,18;SOL_COMPUTED,NARROW_FLOAT,0.7636,122.5370,14.1193,0.0000,0.3040,0.9250,"999",30,24,24,13,3,01,1,f3*dbcd8d12
$GNGGA,063220.40,3039.09321805,N,12047.27735979,E,4,25,0.8,4.3141,M,9.8160,M,09,0*7B
$GNRMC,063220.40,A,3039.09321805,N,12047.27735979,E,0.106,333.9,170120,5.8,W,D*36
#HEADINGA,COM2,0,51.0,FINE,2088,455558.400,1620783,20,18;SOL_COMPUTED,NARROW_FLOAT,0.7647,122.5840,13.8896,0.0000,0.3033,0.9252,"999",30,24,24,13,3,01,1,f3*aaf12cbe
$GNGGA,063220.50,3039.09321664,N,12047.27735910,E,4,25,0.8,4.3209,M,9.8160,M,09,0*73
$GNRMC,063220.50,A,3039.09321664,N,12047.27735910,E,0.055,203.2,170120,5.8,W,D*3F
#HEADINGA,COM2,0,51.0,FINE,2088,455558.500,1620883,16,18;SOL_COMPUTED,NARROW_FLOAT,0.7679,122.4958,14.0900,0.0000,0.3024,0.9202,"999",30,24,24,13,3,01,1,f3*017cc69e
$GNGGA,063220.60,3039.09321767,N,12047.27736332,E,4,25,0.8,4.3332,M,9.8160,M,09,0*72
$GNRMC,063220.60,A,3039.09321767,N,12047.27736332,E,0.136,74.2,170120,5.8,W,D*01
#HEADINGA,COM2,0,51.0,FINE,2088,455558.600,1620983,16,18;SOL_COMPUTED,NARROW_FLOAT,0.7699,122.9439,14.0129,0.0000,0.3010,0.9183,"999",30,24,24,13,3,01,1,f3*645bbdd2
$GNGGA,063220.70,3039.09321982,N,12047.27736136,E,4,25,0.8,4.3387,M,9.8160,M,09,0*7E
$GNRMC,063220.70,A,3039.09321982,N,12047.27736136,E,0.098,321.9,170120,5.8,W,D*3E
#HEADINGA,COM2,0,51.0,FINE,2088,455558.700,1621083,16,18;SOL_COMPUTED,NARROW_FLOAT,0.7636,122.8345,13.4469,0.0000,0.3091,0.9310,"999",30,23,23,13,3,01,1,f3*8d8c4a56
$GNGGA,063220.80,3039.09321596,N,12047.27736321,E,4,25,0.8,4.3354,M,9.8160,M,09,0*72
$GNRMC,063220.80,A,3039.09321596,N,12047.27736321,E,0.150,157.6,170120,5.8,W,D*35
#HEADINGA,COM2,0,51.0,FINE,2088,455558.800,1621183,16,18;SOL_COMPUTED,NARROW_FLOAT,0.7567,122.5121,13.9409,0.0000,0.3066,0.9349,"999",30,24,24,13,3,01,1,f3*6590ae47
$GNGGA,063220.90,3039.09321802,N,12047.27736342,E,4,25,0.8,4.3246,M,9.8160,M,09,0*74
$GNRMC,063220.90,A,3039.09321802,N,12047.27736342,E,0.074,5.2,170120,5.8,W,D*34
#HEADINGA,COM2,0,57.0,FINE,2088,455558.900,1621283,16,18;SOL_COMPUTED,NARROW_FLOAT,0.7593,122.4912,13.4405,0.0000,0.3065,0.9855,"999",30,21,21,13,3,01,0,f3*ab871edf
#REFSTATIONA,COM2,0,51.0,FINE,2088,455546.000,1619584,1803,18;00000000,-2811044.342,4717820.352,3232735.546,0,RTCMV3,"0000"*ca969609
$GNGGA,063221.00,3039.09321749,N,12047.27736194,E,4,25,0.8,4.3192,M,9.8160,M,10,0*77
$GNRMC,063221.00,A,3039.09321749,N,12047.27736194,E,0.050,247.4,170120,5.8,W,D*31
#HEADINGA,COM2,0,57.0,FINE,2088,455559.000,1621383,22,18;SOL_COMPUTED,NARROW_FLOAT,0.7575,122.7875,13.8025,0.0000,0.3060,0.9353,"999",30,24,24,13,3,01,1,f3*eb3c18a0
$GNGGA,063221.10,3039.09321829,N,12047.27736429,E,4,25,0.8,4.3391,M,9.8160,M,10,0*7D
$GNRMC,063221.10,A,3039.09321829,N,12047.27736429,E,0.079,68.4,170120,5.8,W,D*0E
#HEADINGA,COM2,0,57.0,FINE,2088,455559.100,1621483,17,18;SOL_COMPUTED,NARROW_FLOAT,0.7568,122.8113,13.0551,0.0000,0.3053,0.9416,"999",30,24,24,13,3,01,1,f3*1a27ac27
$GNGGA,063221.20,3039.09321727,N,12047.27736410,E,4,25,0.8,4.3267,M,9.8160,M,10,0*7D
$GNRMC,063221.20,A,3039.09321727,N,12047.27736410,E,0.037,189.2,170120,5.8,W,D*34
#HEADINGA,COM2,0,57.0,FINE,2088,455559.200,1621584,18,18;SOL_COMPUTED,NARROW_FLOAT,0.7602,122.7658,14.1703,0.0000,0.3053,0.9290,"999",30,24,24,13,3,01,1,f3*41941c55
$GNGGA,063221.30,3039.09321596,N,12047.27736173,E,4,25,0.8,4.3269,M,9.8160,M,10,0*7A
$GNRMC,063221.30,A,3039.09321596,N,12047.27736173,E,0.087,237.2,170120,5.8,W,D*30
#HEADINGA,COM2,0,57.0,FINE,2088,455559.300,1621683,16,18;SOL_COMPUTED,NARROW_FLOAT,0.7710,123.2777,14.6170,0.0000,0.3113,0.8294,"999",30,25,25,13,3,01,1,f3*4e824437
$GNGGA,063221.40,3039.09321689,N,12047.27736668,E,4,25,0.8,4.3466,M,9.8160,M,10,0*74
$GNRMC,063221.40,A,3039.09321689,N,12047.27736668,E,0.157,77.7,170120,5.8,W,D*08
#HEADINGA,COM2,0,57.0,FINE,2088,455559.400,1621783,19,18;SOL_COMPUTED,NARROW_FLOAT,0.7723,123.1637,14.9937,0.0000,0.3231,0.8447,"999",30,24,24,13,3,01,1,f3*84d5ca22
$GNGGA,063221.50,3039.09321845,N,12047.27736037,E,4,25,0.8,4.3291,M,9.8160,M,10,0*79
$GNRMC,063221.50,A,3039.09321845,N,12047.27736037,E,0.204,286.0,170120,5.8,W,D*35
#HEADINGA,COM2,0,57.0,FINE,2088,455559.500,1621883,15,18;SOL_COMPUTED,NARROW_FLOAT,0.7746,123.4127,14.7102,0.0000,0.3095,0.8244,"999",30,25,25,13,3,01,1,f3*559f46b2
$GNGGA,063221.60,3039.09321625,N,12047.27736363,E,4,26,0.8,4.3421,M,9.8160,M,10,0*7E
$GNRMC,063221.60,A,3039.09321625,N,12047.27736363,E,0.129,128.1,170120,5.8,W,D*36
#HEADINGA,COM2,0,57.0,FINE,2088,455559.600,1621983,15,18;SOL_COMPUTED,NARROW_FLOAT,0.7663,123.4532,14.3908,0.0000,0.3123,0.8358,"999",30,25,25,13,3,01,1,f3*ed0dea88
$GNGGA,063221.70,3039.09321759,N,12047.27736715,E,4,26,0.8,4.3450,M,9.8160,M,10,0*76
$GNRMC,063221.70,A,3039.09321759,N,12047.27736715,E,0.120,66.1,170120,5.8,W,D*0A
#HEADINGA,COM2,0,57.0,FINE,2088,455559.700,1622083,15,18;SOL_COMPUTED,NARROW_FLOAT,0.7682,123.2742,14.1525,0.0000,0.3234,0.8552,"999",30,24,24,13,3,01,1,f3*01d73e79
$GNGGA,063221.80,3039.09321715,N,12047.27736433,E,4,26,0.8,4.3521,M,9.8160,M,10,0*71
$GNRMC,063221.80,A,3039.09321715,N,12047.27736433,E,0.089,259.6,170120,5.8,W,D*31
#HEADINGA,COM2,0,57.0,FINE,2088,455559.800,1622183,15,18;SOL_COMPUTED,NARROW_FLOAT,0.7691,123.5143,14.3965,0.0000,0.3113,0.8329,"999",30,25,25,13,3,01,1,f3*7b1e609b
$GNGGA,063221.90,3039.09321613,N,12047.27736775,E,4,26,0.8,4.3555,M,9.8160,M,10,0*75
$GNRMC,063221.90,A,3039.09321613,N,12047.27736775,E,0.112,109.0,170120,5.8,W,D*35
#HEADINGA,COM2,0,57.0,FINE,2088,455559.900,1622283,15,18;SOL_COMPUTED,NARROW_FLOAT,0.7681,123.5266,14.9399,0.0000,0.3129,0.8305,"999",30,25,25,13,3,01,1,f3*d51a2e24
#REFSTATIONA,COM2,0,51.0,FINE,2088,455546.000,1619584,2803,18;00000000,-2811044.342,4717820.352,3232735.546,0,RTCMV3,"0000"*6ee814cc
$GNGGA,063222.00,3039.09321687,N,12047.27735890,E,4,26,0.8,4.3138,M,9.8160,M,11,0*7B
$GNRMC,063222.00,A,3039.09321687,N,12047.27735890,E,0.276,275.5,170120,5.8,W,D*39
#HEADINGA,COM2,0,57.0,FINE,2088,455560.000,1622383,21,18;SOL_COMPUTED,NARROW_FLOAT,0.7743,123.3800,15.4213,0.0000,0.3113,0.8206,"999",30,25,25,13,3,01,1,f3*72948d65
$GNGGA,063222.10,3039.09321695,N,12047.27736506,E,4,26,0.8,4.3357,M,9.8160,M,11,0*73
$GNRMC,063222.10,A,3039.09321695,N,12047.27736506,E,0.191,89.1,170120,5.8,W,D*05
#HEADINGA,COM2,0,57.0,FINE,2088,455560.100,1622483,16,18;SOL_COMPUTED,NARROW_FLOAT,0.7708,123.4199,15.0441,0.0000,0.3121,0.8269,"999",30,25,25,13,3,01,1,f3*c208358b
$GNGGA,063222.20,3039.09321757,N,12047.27736229,E,4,26,0.8,4.3333,M,9.8160,M,11,0*77
$GNRMC,063222.20,A,3039.09321757,N,12047.27736229,E,0.089,284.6,170120,5.8,W,D*33
#HEADINGA,COM2,0,57.0,FINE,2088,455560.200,1622584,17,18;SOL_COMPUTED,NARROW_FLOAT,0.7740,123.5850,14.7658,0.0000,0.3098,0.8253,"999",30,25,25,13,3,01,1,f3*f8d7c1dc
$GNGGA,063222.30,3039.09321528,N,12047.27736543,E,4,26,0.8,4.3583,M,9.8160,M,11,0*7A
$GNRMC,063222.30,A,3039.09321528,N,12047.27736543,E,0.128,130.3,170120,5.8,W,D*30
#HEADINGA,COM2,0,57.0,FINE,2088,455560.300,1622683,17,18;SOL_COMPUTED,NARROW_FLOAT,0.7699,122.9445,15.2117,0.0000,0.2918,0.8762,"999",30,26,26,13,3,01,1,f3*57a6e5eb
$GNGGA,063222.40,3039.09321684,N,12047.27736567,E,4,26,0.8,4.3405,M,9.8160,M,11,0*71
$GNRMC,063222.40,A,3039.09321684,N,12047.27736567,E,0.057,7.7,170120,5.8,W,D*3C
#HEADINGA,COM2,0,57.0,FINE,2088,455560.400,1622783,20,18;SOL_COMPUTED,NARROW_FLOAT,0.7646,122.9351,14.7733,0.0000,0.3036,0.9055,"999",30,25,25,13,3,01,1,f3*9c5fbf26
$GNGGA,063222.50,3039.09321710,N,12047.27736226,E,4,26,0.8,4.3310,M,9.8160,M,11,0*7D
$GNRMC,063222.50,A,3039.09321710,N,12047.27736226,E,0.106,275.0,170120,5.8,W,D*36
#HEADINGA,COM2,0,57.0,FINE,2088,455560.500,1622883,16,18;SOL_COMPUTED,NARROW_FLOAT,0.7657,123.3556,14.5261,0.0000,0.2929,0.8990,"999",30,25,25,13,3,01,1,f3*25cebe70
$GNGGA,063222.60,3039.09321690,N,12047.27736522,E,4,26,0.8,4.3507,M,9.8160,M,11,0*74
$GNRMC,063222.60,A,3039.09321690,N,12047.27736522,E,0.092,94.5,170120,5.8,W,D*0B
#HEADINGA,COM2,0,57.0,FINE,2088,455560.600,1622983,17,18;SOL_COMPUTED,NARROW_FLOAT,0.7635,122.7973,14.7009,0.0000,0.3041,0.9071,"999",30,25,25,13,3,01,1,f3*2b192533
$GNGGA,063222.70,3039.09321667,N,12047.27736394,E,4,26,0.8,4.3459,M,9.8160,M,11,0*7C
$GNRMC,063222.70,A,3039.09321667,N,12047.27736394,E,0.041,258.1,170120,5.8,W,D*31
#HEADINGA,COM2,0,57.0,FINE,2088,455560.700,1623083,16,18;SOL_COMPUTED,NARROW_FLOAT,0.7613,122.5406,14.4576,0.0000,0.3049,0.9116,"999",30,25,25,13,3,01,1,f3*9d15b297
$GNGGA,063222.80,3039.09321831,N,12047.27736571,E,4,26,0.8,4.3436,M,9.8160,M,11,0*7A
$GNRMC,063222.80,A,3039.09321831,N,12047.27736571,E,0.081,43.0,170120,5.8,W,D*0B
#HEADINGA,COM2,0,57.0,FINE,2088,455560.800,1623183,16,18;SOL_COMPUTED,NARROW_FLOAT,0.7580,122.9463,14.2458,0.0000,0.3055,0.9172,"999",30,25,25,13,3,01,1,f3*9ab01c55
$GNGGA,063222.90,3039.09321665,N,12047.27736503,E,4,26,0.8,4.3509,M,9.8160,M,11,0*7C
$GNRMC,063222.90,A,3039.09321665,N,12047.27736503,E,0.063,199.5,170120,5.8,W,D*3F
#HEADINGA,COM2,0,57.0,FINE,2088,455560.900,1623283,16,18;SOL_COMPUTED,NARROW_FLOAT,0.7603,122.5602,13.8617,0.0000,0.3051,0.9317,"999",30,24,24,13,3,01,1,f3*ed9b0594
#REFSTATIONA,COM2,0,51.0,FINE,2088,455546.000,1619584,3804,18;00000000,-2811044.342,4717820.352,3232735.546,0,RTCMV3,"0000"*9d002dac
$GNGGA,063223.00,3039.09321738,N,12047.27736734,E,4,26,0.8,4.3516,M,9.8160,M,12,0*76
$GNRMC,063223.00,A,3039.09321738,N,12047.27736734,E,0.076,69.8,170120,5.8,W,D*0F
#HEADINGA,COM2,0,57.0,FINE,2088,455561.000,1623383,22,18;SOL_COMPUTED,NARROW_FLOAT,0.7615,122.7732,13.8560,0.0000,0.3038,0.9159,"999",30,25,25,13,3,01,1,f3*47d70593
$GNGGA,063223.10,3039.09321650,N,12047.27736642,E,4,26,0.8,4.3496,M,9.8160,M,12,0*71
$GNRMC,063223.10,A,3039.09321650,N,12047.27736642,E,0.043,221.9,170120,5.8,W,D*38
#HEADINGA,COM2,0,57.0,FINE,2088,455561.100,1623483,16,18;SOL_COMPUTED,NARROW_FLOAT,0.7686,123.2652,15.2150,0.0000,0.2920,0.8774,"999",30,26,26,13,3,01,1,f3*89ee7975
$GNGGA,063223.20,3039.09321646,N,12047.27736472,E,4,26,0.8,4.3521,M,9.8160,M,12,0*79
$GNRMC,063223.20,A,3039.09321646,N,12047.27736472,E,0.053,268.6,170120,5.8,W,D*3E
#HEADINGA,COM2,0,57.0,FINE,2088,455561.200,1623584,18,18;SOL_COMPUTED,NARROW_FLOAT,0.7627,122.4191,14.1382,0.0000,0.3042,0.9142,"999",30,25,25,13,3,01,1,f3*a40aebd0
$GNGGA,063223.30,3039.09321630,N,12047.27736579,E,4,26,0.8,4.3475,M,9.8160,M,12,0*73
$GNRMC,063223.30,A,3039.09321630,N,12047.27736579,E,0.034,99.9,170120,5.8,W,D*06
#HEADINGA,COM2,0,57.0,FINE,2088,455561.300,1623684,17,18;SOL_COMPUTED,NARROW_FLOAT,0.7566,122.4970,14.0670,0.0000,0.3068,0.9218,"999",30,25,25,13,3,01,1,f3*7d79dbf9
$GNGGA,063223.40,3039.09321593,N,12047.27736395,E,4,26,0.8,4.3351,M,9.8160,M,11,0*78
$GNRMC,063223.40,A,3039.09321593,N,12047.27736395,E,0.059,256.9,170120,5.8,W,D*35
#HEADINGA,COM2,0,57.0,FINE,2088,455561.400,1623783,17,18;SOL_COMPUTED,NARROW_FLOAT,0.7711,122.7929,14.8373,0.0000,0.3247,0.8227,"999",30,25,25,13,3,01,1,f3*8f86df84
$GNGGA,063223.50,3039.09321586,N,12047.27736361,E,4,26,0.8,4.3364,M,9.8160,M,11,0*70
$GNRMC,063223.50,A,3039.09321586,N,12047.27736361,E,0.011,256.4,170120,5.8,W,D*3A
#HEADINGA,COM2,0,57.0,FINE,2088,455561.500,1623882,20,18;SOL_COMPUTED,NARROW_FLOAT,0.7686,122.8914,14.4052,0.0000,0.3249,0.8284,"999",30,25,25,13,3,01,1,f3*d532d69c
$GNGGA,063223.60,3039.09321576,N,12047.27736439,E,4,26,0.8,4.3362,M,9.8160,M,11,0*70
$GNRMC,063223.60,A,3039.09321576,N,12047.27736439,E,0.024,98.6,170120,5.8,W,D*08
#HEADINGA,COM2,0,57.0,FINE,2088,455561.600,1623983,15,18;SOL_COMPUTED,NARROW_FLOAT,0.7676,123.4237,15.0204,0.0000,0.3133,0.8072,"999",30,26,26,13,3,01,1,f3*905fbce9
$GNGGA,063223.70,3039.09321552,N,12047.27736237,E,4,26,0.8,4.3457,M,9.8160,M,11,0*7E
$GNRMC,063223.70,A,3039.09321552,N,12047.27736237,E,0.063,262.4,170120,5.8,W,D*31
#HEADINGA,COM2,0,57.0,FINE,2088,455561.700,1624082,16,18;SOL_COMPUTED,NARROW_FLOAT,0.7714,123.1230,14.8637,0.0000,0.3121,0.8044,"999",30,26,26,13,3,01,1,f3*0a206af1
$GNGGA,063223.80,3039.09321596,N,12047.27736496,E,4,26,0.8,4.3398,M,9.8160,M,11,0*70
$GNRMC,063223.80,A,3039.09321596,N,12047.27736496,E,0.082,79.1,170120,5.8,W,D*09
#HEADINGA,COM2,0,57.0,FINE,2088,455561.800,1624182,16,18;SOL_COMPUTED,NARROW_FLOAT,0.7640,123.2296,14.4459,0.0000,0.3142,0.8138,"999",30,26,26,13,3,01,1,f3*0ae29f55
$GNGGA,063223.90,3039.09321695,N,12047.27736402,E,4,26,0.8,4.3427,M,9.8160,M,11,0*7F
$GNRMC,063223.90,A,3039.09321695,N,12047.27736402,E,0.046,320.6,170120,5.8,W,D*35
#HEADINGA,COM2,0,55.0,FINE,2088,455561.900,1624282,16,18;SOL_COMPUTED,NARROW_FLOAT,0.7683,123.2862,14.7936,0.0000,0.3128,0.8068,"999",30,26,26,13,3,01,1,f3*429f96bf
#REFSTATIONA,COM2,0,57.0,FINE,2088,455546.000,1623684,703,18;00000000,-2811044.342,4717820.352,3232735.546,0,RTCMV3,"0000"*39bfb568
$GNGGA,063224.00,3039.09321525,N,12047.27736578,E,4,26,0.8,4.3404,M,9.8160,M,12,0*77
$GNRMC,063224.00,A,3039.09321525,N,12047.27736578,E,0.082,138.1,170120,5.8,W,D*3B
#HEADINGA,COM2,0,55.0,FINE,2088,455562.000,1624383,21,18;SOL_COMPUTED,NARROW_FLOAT,0.7653,122.8564,14.6990,0.0000,0.3266,0.8280,"999",30,25,25,13,3,01,1,f3*db141ec8
$GNGGA,063224.10,3039.09321612,N,12047.27736494,E,4,26,0.8,4.3438,M,9.8160,M,12,0*7D
$GNRMC,063224.10,A,3039.09321612,N,12047.27736494,E,0.041,320.1,170120,5.8,W,D*3A
#HEADINGA,COM2,0,55.0,FINE,2088,455562.100,1624483,16,18;SOL_COMPUTED,NARROW_FLOAT,0.7667,123.3626,14.8160,0.0000,0.3133,0.8082,"999",30,26,26,13,3,01,1,f3*be666fec
$GNGGA,063224.20,3039.09321561,N,12047.27736730,E,4,26,0.8,4.3625,M,9.8160,M,12,0*7A
$GNRMC,063224.20,A,3039.09321561,N,12047.27736730,E,0.075,104.0,170120,5.8,W,D*31
#HEADINGA,COM2,0,55.0,FINE,2088,455562.200,1624584,16,18;SOL_COMPUTED,NARROW_FLOAT,0.7704,123.4017,15.0958,0.0000,0.3122,0.8023,"999",30,26,26,13,3,01,1,f3*b5c5da90
$GNGGA,063224.30,3039.09321540,N,12047.27736418,E,4,26,0.8,4.3322,M,9.8160,M,12,0*73
$GNRMC,063224.30,A,3039.09321540,N,12047.27736418,E,0.097,265.5,170120,5.8,W,D*37
#HEADINGA,COM2,0,55.0,FINE,2088,455562.300,1624682,18,18;SOL_COMPUTED,NARROW_FLOAT,0.7608,122.8171,14.3005,0.0000,0.3050,0.9128,"999",30,25,25,13,3,01,1,f3*46e792dc
$GNGGA,063224.40,3039.09321573,N,12047.27736074,E,4,26,0.8,4.3307,M,9.8160,M,12,0*7D
$GNRMC,063224.40,A,3039.09321573,N,12047.27736074,E,0.108,276.3,170120,5.8,W,D*3D
#HEADINGA,COM2,0,55.0,FINE,2088,455562.400,1624782,21,18;SOL_COMPUTED,NARROW_FLOAT,0.7574,122.7041,13.6850,0.0000,0.3057,0.9343,"999",30,24,24,13,3,01,1,f3*cd7943f8
$GNGGA,063224.50,3039.09321518,N,12047.27736172,E,4,26,0.8,4.3378,M,9.8160,M,11,0*7D
$GNRMC,063224.50,A,3039.09321518,N,12047.27736172,E,0.036,122.9,170120,5.8,W,D*32
#HEADINGA,COM2,0,55.0,FINE,2088,455562.500,1624882,17,18;SOL_COMPUTED,NARROW_FLOAT,0.7555,122.4760,13.4160,0.0000,0.3060,0.9257,"999",30,25,25,13,3,01,1,f3*81be5214
$GNGGA,063224.60,3039.09321555,N,12047.27736057,E,4,26,0.8,4.3425,M,9.8160,M,11,0*7E
$GNRMC,063224.60,A,3039.09321555,N,12047.27736057,E,0.038,290.5,170120,5.8,W,D*36
#HEADINGA,COM2,0,55.0,FINE,2088,455562.600,1624983,16,18;SOL_COMPUTED,NARROW_FLOAT,0.7639,122.6788,14.2571,0.0000,0.3035,0.9103,"999",30,25,25,13,3,01,1,f3*aea5599d
$GNGGA,063224.70,3039.09321604,N,12047.27736315,E,4,26,0.8,4.3391,M,9.8160,M,11,0*75
$GNRMC,063224.70,A,3039.09321604,N,12047.27736315,E,0.082,77.6,170120,5.8,W,D*0C
#HEADINGA,COM2,0,55.0,FINE,2088,455562.700,1625082,16,18;SOL_COMPUTED,NARROW_FLOAT,0.7582,123.3707,14.3871,0.0000,0.2948,0.8950,"999",30,26,26,13,3,01,1,f3*17337234
$GNGGA,063224.80,3039.09321542,N,12047.27736115,E,4,26,0.8,4.3293,M,9.8160,M,11,0*7A
$GNRMC,063224.80,A,3039.09321542,N,12047.27736115,E,0.066,250.2,170120,5.8,W,D*39
#HEADINGA,COM2,0,55.0,FINE,2088,455562.800,1625182,17,18;SOL_COMPUTED,NARROW_FLOAT,0.7625,122.3613,14.0827,0.0000,0.3048,0.9266,"999",30,24,24,13,3,01,1,f3*4ff01974
$GNGGA,063224.90,3039.09321712,N,12047.27736654,E,4,26,0.8,4.3454,M,9.8160,M,11,0*73
$GNRMC,063224.90,A,3039.09321712,N,12047.27736654,E,0.178,70.0,170120,5.8,W,D*01
#HEADINGA,COM2,0,55.0,FINE,2088,455562.900,1625282,17,18;SOL_COMPUTED,NARROW_FLOAT,0.7588,122.9043,13.7159,0.0000,0.3052,0.9337,"999",30,24,24,13,3,01,1,f3*1f6fd22c
#REFSTATIONA,COM2,0,55.0,FINE,2088,455546.000,1624782,605,18;00000000,-2811044.342,4717820.352,3232735.546,0,RTCMV3,"0000"*fdb97930
$GNGGA,063225.00,3039.09321496,N,12047.27736755,E,4,26,0.8,4.3645,M,9.8160,M,12,0*75
$GNRMC,063225.00,A,3039.09321496,N,12047.27736755,E,0.084,158.1,170120,5.8,W,D*3E
#HEADINGA,COM2,0,55.0,FINE,2088,455563.000,1625383,21,18;SOL_COMPUTED,NARROW_FLOAT,0.7577,122.8558,13.9955,0.0000,0.3053,0.9168,"999",30,25,25,13,3,01,1,f3*2dccecf4
$GNGGA,063225.10,3039.09321466,N,12047.27736482,E,4,26,0.8,4.3480,M,9.8160,M,12,0*79
$GNRMC,063225.10,A,3039.09321466,N,12047.27736482,E,0.085,262.6,170120,5.8,W,D*35
#HEADINGA,COM2,0,55.0,FINE,2088,455563.100,1625483,16,18;SOL_COMPUTED,NARROW_FLOAT,0.7602,122.5831,14.0158,0.0000,0.3047,0.9156,"999",30,25,25,13,3,01,1,f3*277f2879
$GNGGA,063225.20,3039.09321552,N,12047.27736304,E,4,26,0.8,4.3518,M,9.8160,M,12,0*75
$GNRMC,063225.20,A,3039.09321552,N,12047.27736304,E,0.063,299.3,170120,5.8,W,D*30
#HEADINGA,COM2,0,55.0,FINE,2088,455563.200,1625584,17,18;SOL_COMPUTED,NARROW_FLOAT,0.7611,122.6190,14.1940,0.0000,0.3046,0.9131,"999",30,25,25,13,3,01,1,f3*da5d1f13
$GNGGA,063225.30,3039.09321443,N,12047.27736280,E,4,26,0.8,4.3543,M,9.8160,M,12,0*76
$GNRMC,063225.30,A,3039.09321443,N,12047.27736280,E,0.040,190.8,170120,5.8,W,D*3D
#HEADINGA,COM2,0,55.0,FINE,2088,455563.300,1625683,16,18;SOL_COMPUTED,NARROW_FLOAT,0.7654,123.5195,14.2044,0.0000,0.3127,0.8141,"999",30,26,26,13,3,01,1,f3*949e9cdd
$GNGGA,063225.40,3039.09321595,N,12047.27736131,E,4,26,0.8,4.3230,M,9.8160,M,12,0*71
$GNRMC,063225.40,A,3039.09321595,N,12047.27736131,E,0.072,319.9,170120,5.8,W,D*3A
#HEADINGA,COM2,0,55.0,FINE,2088,455563.400,1625782,20,18;SOL_COMPUTED,NARROW_FLOAT,0.7683,122.9297,14.4810,0.0000,0.3255,0.8260,"999",30,25,25,13,3,01,1,f3*36dd2efd
$GNGGA,063225.50,3039.09321570,N,12047.27736170,E,4,26,0.8,4.3383,M,9.8160,M,12,0*77
$GNRMC,063225.50,A,3039.09321570,N,12047.27736170,E,0.015,127.1,170120,5.8,W,D*33
#HEADINGA,COM2,0,55.0,FINE,2088,455563.500,1625882,16,18;SOL_COMPUTED,NARROW_FLOAT,0.7718,123.5183,15.1025,0.0000,0.3119,0.8008,"999",30,26,26,13,3,01,1,f3*c7d5d610
$GNGGA,063225.60,3039.09321543,N,12047.27735884,E,4,26,0.8,4.3210,M,9.8160,M,12,0*7E
$GNRMC,063225.60,A,3039.09321543,N,12047.27735884,E,0.090,263.8,170120,5.8,W,D*36
#HEADINGA,COM2,0,55.0,FINE,2088,455563.600,1625982,16,18;SOL_COMPUTED,NARROW_FLOAT,0.7731,123.3673,15.4682,0.0000,0.3124,0.7982,"999",30,26,26,13,3,01,1,f3*8472d040
$GNGGA,063225.70,3039.09321403,N,12047.27735755,E,4,26,0.8,4.3167,M,9.8160,M,12,0*7A
$GNRMC,063225.70,A,3039.09321403,N,12047.27735755,E,0.064,218.6,170120,5.8,W,D*38
#HEADINGA,COM2,0,55.0,FINE,2088,455563.700,1626082,16,18;SOL_COMPUTED,NARROW_FLOAT,0.7733,123.2169,15.3049,0.0000,0.3124,0.7992,"999",30,26,26,13,3,01,1,f3*d55ff8d4
$GNGGA,063225.80,3039.09321681,N,12047.27735639,E,4,26,0.8,4.3001,M,9.8160,M,12,0*77
$GNRMC,063225.80,A,3039.09321681,N,12047.27735639,E,0.106,340.3,170120,5.8,W,D*38
#HEADINGA,COM2,0,55.0,FINE,2088,455563.800,1626182,16,18;SOL_COMPUTED,NARROW_FLOAT,0.7728,123.4739,15.2823,0.0000,0.3120,0.7998,"999",30,26,26,13,3,01,1,f3*be6794fd
$GNGGA,063225.90,3039.09321565,N,12047.27735876,E,4,26,0.8,4.3109,M,9.8160,M,12,0*73
$GNRMC,063225.90,A,3039.09321565,N,12047.27735876,E,0.084,119.5,170120,5.8,W,D*36
#HEADINGA,COM2,0,55.0,FINE,2088,455563.900,1626282,17,18;SOL_COMPUTED,NARROW_FLOAT,0.7675,123.1685,14.4123,0.0000,0.3254,0.8291,"999",30,25,25,13,3,01,1,f3*58d736c3
#REFSTATIONA,COM2,0,55.0,FINE,2088,455546.000,1625882,505,18;00000000,-2811044.342,4717820.352,3232735.546,0,RTCMV3,"0000"*29ecb451
$GNGGA,063226.00,3039.09321391,N,12047.27735894,E,4,26,0.8,4.3241,M,9.8160,M,13,0*76
$GNRMC,063226.00,A,3039.09321391,N,12047.27735894,E,0.063,174.9,170120,5.8,W,D*33
#HEADINGA,COM2,0,55.0,FINE,2088,455564.000,1626383,21,18;SOL_COMPUTED,NARROW_FLOAT,0.7707,123.0251,15.1854,0.0000,0.3137,0.8034,"999",30,26,26,13,3,01,1,f3*5362e98a
$GNGGA,063226.10,3039.09321571,N,12047.27736030,E,4,26,0.8,4.3262,M,9.8160,M,13,0*7B
$GNRMC,063226.10,A,3039.09321571,N,12047.27736030,E,0.077,33.1,170120,5.8,W,D*00
#HEADINGA,COM2,0,55.0,FINE,2088,455564.100,1626483,17,18;SOL_COMPUTED,NARROW_FLOAT,0.7701,122.9138,14.8034,0.0000,0.3255,0.8244,"999",30,25,25,13,3,01,1,f3*44660f21
$GNGGA,063226.20,3039.09321553,N,12047.27736140,E,4,26,0.8,4.3251,M,9.8160,M,13,0*7E
$GNRMC,063226.20,A,3039.09321553,N,12047.27736140,E,0.035,100.5,170120,5.8,W,D*36
#HEADINGA,COM2,0,55.0,FINE,2088,455564.200,1626584,17,18;SOL_COMPUTED,NARROW_FLOAT,0.7676,122.9899,14.1568,0.0000,0.3254,0.8314,"999",30,25,25,13,3,01,1,f3*c9e78836
$GNGGA,063226.30,3039.09321477,N,12047.27735470,E,4,26,0.8,4.3129,M,9.8160,M,12,0*70
$GNRMC,063226.30,A,3039.09321477,N,12047.27735470,E,0.210,262.5,170120,5.8,W,D*37
#HEADINGA,COM2,0,55.0,FINE,2088,455564.300,1626683,17,18;SOL_COMPUTED,NARROW_FLOAT,0.7598,122.8295,13.7775,0.0000,0.2954,0.9131,"999",30,25,25,13,3,01,1,f3*62e02eed
$GNGGA,063226.40,3039.09321404,N,12047.27736071,E,4,26,0.8,4.3245,M,9.8160,M,10,0*7E
$GNRMC,063226.40,A,3039.09321404,N,12047.27736071,E,0.188,98.0,170120,5.8,W,D*02
#HEADINGA,COM2,0,55.0,FINE,2088,455564.400,1626783,17,18;SOL_COMPUTED,NARROW_FLOAT,0.7560,122.7399,14.1091,0.0000,0.3070,0.9226,"999",30,25,25,13,3,01,1,f3*683b84bc
$GNGGA,063226.50,3039.09321486,N,12047.27736374,E,4,26,0.8,4.3360,M,9.8160,M,10,0*75
$GNRMC,063226.50,A,3039.09321486,N,12047.27736374,E,0.099,72.6,170120,5.8,W,D*0C
#HEADINGA,COM2,0,55.0,FINE,2088,455564.500,1626882,20,18;SOL_COMPUTED,NARROW_FLOAT,0.7570,122.8068,13.9152,0.0000,0.3069,0.9373,"999",30,24,24,13,3,01,1,f3*8d5c4683
$GNGGA,063226.60,3039.09321517,N,12047.27736268,E,4,26,0.8,4.3343,M,9.8160,M,10,0*72
$GNRMC,063226.60,A,3039.09321517,N,12047.27736268,E,0.035,288.2,170120,5.8,W,D*3F
#HEADINGA,COM2,0,55.0,FINE,2088,455564.600,1626983,16,18;SOL_COMPUTED,NARROW_FLOAT,0.7567,122.8120,14.0330,0.0000,0.3067,0.9243,"999",30,25,25,13,3,01,1,f3*08d77bdd
$GNGGA,063226.70,3039.09321492,N,12047.27736232,E,4,26,0.8,4.3419,M,9.8160,M,10,0*78
$GNRMC,063226.70,A,3039.09321492,N,12047.27736232,E,0.014,230.8,170120,5.8,W,D*37
#HEADINGA,COM2,0,55.0,FINE,2088,455564.700,1627083,16,18;SOL_COMPUTED,NARROW_FLOAT,0.7576,122.7084,13.2312,0.0000,0.3056,0.9431,"999",30,24,24,13,3,01,1,f3*8fb8d180
$GNGGA,063226.80,3039.09321296,N,12047.27735952,E,4,26,0.8,4.3332,M,9.8160,M,10,0*75
$GNRMC,063226.80,A,3039.09321296,N,12047.27735952,E,0.112,231.1,170120,5.8,W,D*3B
#HEADINGA,COM2,0,55.0,FINE,2088,455564.800,1627183,15,18;SOL_COMPUTED,NARROW_FLOAT,0.7664,123.1193,14.8139,0.0000,0.2930,0.8860,"999",30,26,26,13,3,01,1,f3*1ed842ca
$GNGGA,063226.90,3039.09321545,N,12047.27736153,E,4,26,0.8,4.3250,M,9.8160,M,10,0*72
$GNRMC,063226.90,A,3039.09321545,N,12047.27736153,E,0.109,34.9,170120,5.8,W,D*0C
#HEADINGA,COM2,0,55.0,FINE,2088,455564.900,1627283,17,18;SOL_COMPUTED,NARROW_FLOAT,0.7563,122.6949,13.8554,0.0000,0.3074,0.9402,"999",30,24,24,13,3,01,1,f3*d5b06d39
#REFSTATIONA,COM2,0,55.0,FINE,2088,455546.000,1626683,704,18;00000000,-2811044.342,4717820.352,3232735.546,0,RTCMV3,"0000"*12e999af
$GNGGA,063227.00,3039.09321358,N,12047.27735902,E,4,26,0.8,4.3150,M,9.8160,M,11,0*7D
$GNRMC,063227.00,A,3039.09321358,N,12047.27735902,E,0.103,229.2,170120,5.8,W,D*3E
#HEADINGA,COM2,0,57.0,FINE,2088,455565.000,1627383,22,18;SOL_COMPUTED,NARROW_FLOAT,0.7538,122.4873,13.8756,0.0000,0.3076,0.9291,"999",30,25,25,13,3,01,1,f3*376b0b42
$GNGGA,063227.10,3039.09321648,N,12047.27736085,E,4,26,0.8,4.3362,M,9.8160,M,11,0*7E
$GNRMC,063227.10,A,3039.09321648,N,12047.27736085,E,0.119,28.7,170120,5.8,W,D*03
#HEADINGA,COM2,0,57.0,FINE,2088,455565.100,1627483,18,18;SOL_COMPUTED,NARROW_FLOAT,0.7596,122.9196,13.5597,0.0000,0.3054,0.9386,"999",30,24,24,13,3,01,1,f3*3f58f8f0
$GNGGA,063227.20,3039.09321499,N,12047.27735921,E,4,26,0.8,4.3307,M,9.8160,M,11,0*74
$GNRMC,063227.20,A,3039.09321499,N,12047.27735921,E,0.074,223.7,170120,5.8,W,D*39
#HEADINGA,COM2,0,57.0,FINE,2088,455565.200,1627584,18,18;SOL_COMPUTED,NARROW_FLOAT,0.7643,122.4498,14.3290,0.0000,0.3044,0.9129,"999",30,25,25,13,3,01,1,f3*f3be9784
$GNGGA,063227.30,3039.09321366,N,12047.27736240,E,4,26,0.8,4.3532,M,9.8160,M,10,0*7C
$GNRMC,063227.30,A,3039.09321366,N,12047.27736240,E,0.110,115.8,170120,5.8,W,D*3A
#HEADINGA,COM2,0,57.0,FINE,2088,455565.300,1627684,16,18;SOL_COMPUTED,NARROW_FLOAT,0.7682,123.2607,14.7992,0.0000,0.3138,0.8101,"999",30,26,26,13,3,01,1,f3*4a1a1584
$GNGGA,063227.40,3039.09321619,N,12047.27735703,E,4,26,0.8,4.3140,M,9.8160,M,10,0*76
$GNRMC,063227.40,A,3039.09321619,N,12047.27735703,E,0.190,298.7,170120,5.8,W,D*30
#HEADINGA,COM2,0,57.0,FINE,2088,455565.400,1627784,16,18;SOL_COMPUTED,NARROW_FLOAT,0.7735,123.5049,15.2429,0.0000,0.3119,0.8015,"999",30,26,26,13,3,01,1,f3*54a415df
$GNGGA,063227.50,3039.09321461,N,12047.27736260,E,4,26,0.8,4.3499,M,9.8160,M,10,0*78
$GNRMC,063227.50,A,3039.09321461,N,12047.27736260,E,0.182,108.2,170120,5.8,W,D*33
#HEADINGA,COM2,0,57.0,FINE,2088,455565.500,1627883,19,18;SOL_COMPUTED,NARROW_FLOAT,0.7682,123.0364,14.1939,0.0000,0.3246,0.8305,"999",30,25,25,13,3,01,1,f3*65d162fd
$GNGGA,063227.60,3039.09321307,N,12047.27736478,E,4,26,0.8,4.3590,M,9.8160,M,10,0*7B
$GNRMC,063227.60,A,3039.09321307,N,12047.27736478,E,0.087,129.2,170120,5.8,W,D*3F
#HEADINGA,COM2,0,57.0,FINE,2088,455565.600,1627983,15,18;SOL_COMPUTED,NARROW_FLOAT,0.7682,123.4307,15.0554,0.0000,0.3130,0.8055,"999",30,26,26,13,3,01,1,f3*d0bdeab9
$GNGGA,063227.70,3039.09321225,N,12047.27736580,E,4,26,0.8,4.3702,M,9.8160,M,10,0*74
$GNRMC,063227.70,A,3039.09321225,N,12047.27736580,E,0.043,133.0,170120,5.8,W,D*38
#HEADINGA,COM2,0,57.0,FINE,2088,455565.700,1628083,15,18;SOL_COMPUTED,NARROW_FLOAT,0.7661,123.3309,14.6035,0.0000,0.3135,0.8109,"999",30,26,26,13,3,01,1,f3*b3bb1325
$GNGGA,063227.80,3039.09321309,N,12047.27736602,E,4,26,0.8,4.3677,M,9.8160,M,10,0*7E
$GNRMC,063227.80,A,3039.09321309,N,12047.27736602,E,0.031,12.9,170120,5.8,W,D*0F
#HEADINGA,COM2,0,57.0,FINE,2088,455565.800,1628183,16,18;SOL_COMPUTED,NARROW_FLOAT,0.7701,123.3414,15.0009,0.0000,0.3124,0.8039,"999",30,26,26,13,3,01,1,f3*6726d8da
$GNGGA,063227.90,3039.09321465,N,12047.27736424,E,4,26,0.8,4.3608,M,9.8160,M,10,0*7C
$GNRMC,063227.90,A,3039.09321465,N,12047.27736424,E,0.079,315.4,170120,5.8,W,D*30
#HEADINGA,COM2,0,57.0,FINE,2088,455565.900,1628283,16,18;SOL_COMPUTED,NARROW_FLOAT,0.7731,123.1038,15.1333,0.0000,0.3232,0.8144,"999",30,25,25,13,3,01,1,f3*456f50c3
#REFSTATIONA,COM2,0,57.0,FINE,2088,455546.000,1627584,804,18;00000000,-2811044.342,4717820.352,3232735.546,0,RTCMV3,"0000"*20227d0e
$GNGGA,063228.00,3039.09321466,N,12047.27736570,E,4,26,0.8,4.3707,M,9.8160,M,11,0*76
$GNRMC,063228.00,A,3039.09321466,N,12047.27736570,E,0.045,89.4,170120,5.8,W,D*0C
#HEADINGA,COM2,0,57.0,FINE,2088,455566.000,1628383,21,18;SOL_COMPUTED,NARROW_FLOAT,0.7706,123.4249,14.9804,0.0000,0.3118,0.8009,"999",30,26,26,13,3,01,1,f3*0f99d470
$GNGGA,063228.10,3039.09321243,N,12047.27736590,E,4,26,0.8,4.3636,M,9.8160,M,11,0*7B
$GNRMC,063228.10,A,3039.09321243,N,12047.27736590,E,0.081,175.4,170120,5.8,W,D*38
#HEADINGA,COM2,0,57.0,FINE,2088,455566.100,1628484,16,18;SOL_COMPUTED,NARROW_FLOAT,0.7732,123.2936,15.6258,0.0000,0.3118,0.7936,"999",30,26,26,13,3,01,1,f3*013ea280
$GNGGA,063228.20,3039.09321429,N,12047.27736410,E,4,26,0.8,4.3490,M,9.8160,M,11,0*75
$GNRMC,063228.20,A,3039.09321429,N,12047.27736410,E,0.087,320.0,170120,5.8,W,D*38
#HEADINGA,COM2,0,57.0,FINE,2088,455566.200,1628584,17,18;SOL_COMPUTED,NARROW_FLOAT,0.7709,122.8938,15.0865,0.0000,0.3245,0.8169,"999",30,25,25,13,3,01,1,f3*aea1a31b
$GNGGA,063228.30,3039.09321403,N,12047.27736580,E,4,26,0.8,4.3653,M,9.8160,M,11,0*79
$GNRMC,063228.30,A,3039.09321403,N,12047.27736580,E,0.054,100.1,170120,5.8,W,D*36
#HEADINGA,COM2,0,57.0,FINE,2088,455566.300,1628684,17,18;SOL_COMPUTED,NARROW_FLOAT,0.7596,122.6208,13.7777,0.0000,0.3048,0.9286,"999",30,24,24,13,3,01,1,f3*0086b94d
$GNGGA,063228.40,3039.09321387,N,12047.27736580,E,4,26,0.8,4.3803,M,9.8160,M,09,0*77
$GNRMC,063228.40,A,3039.09321387,N,12047.27736580,E,0.005,180.7,170120,5.8,W,D*30
#HEADINGA,COM2,0,57.0,FINE,2088,455566.400,1628783,18,18;SOL_COMPUTED,NARROW_FLOAT,0.7619,122.6795,13.6689,0.0000,0.3031,0.9123,"999",30,25,25,13,3,01,1,f3*f840f59b
$GNGGA,063228.50,3039.09321395,N,12047.27736622,E,4,26,0.8,4.3515,M,9.8160,M,09,0*74
$GNRMC,063228.50,A,3039.09321395,N,12047.27736622,E,0.013,78.0,170120,5.8,W,D*0F
#HEADINGA,COM2,0,57.0,FINE,2088,455566.500,1628883,19,18;SOL_COMPUTED,NARROW_FLOAT,0.7569,122.6806,14.5687,0.0000,0.3063,0.9120,"999",30,25,25,13,3,01,1,f3*3f8d691f
$GNGGA,063228.60,3039.09321328,N,12047.27736751,E,4,26,0.8,4.3603,M,9.8160,M,08,0*71
$GNRMC,063228.60,A,3039.09321328,N,12047.27736751,E,0.047,121.1,170120,5.8,W,D*32
#HEADINGA,COM2,0,57.0,FINE,2088,455566.600,1628984,17,18;SOL_COMPUTED,NARROW_FLOAT,0.7564,122.7588,14.0670,0.0000,0.3058,0.9173,"999",30,25,25,13,3,01,1,f3*a5a5acc7
$GNGGA,063228.70,3039.09321406,N,12047.27736450,E,4,26,0.8,4.3459,M,9.8160,M,08,0*74
$GNRMC,063228.70,A,3039.09321406,N,12047.27736450,E,0.097,286.7,170120,5.8,W,D*3F
#HEADINGA,COM2,0,57.0,FINE,2088,455566.700,1629083,16,18;SOL_COMPUTED,NARROW_FLOAT,0.7596,122.7127,14.4356,0.0000,0.3052,0.9124,"999",30,25,25,13,3,01,1,f3*d02bf9fc
