
$GNGGA,065733.30,3039.10579926,N,12047.28099015,E,4,34,0.6,4.5205,M,9.8161,M,12,0*73
$GNRMC,065733.30,A,3039.10579926,N,12047.28099015,E,0.048,54.4,170120,5.8,W,D*0A
#HEADINGA,COM2,0,58.0,FINE,2088,457071.300,3133685,18,18;SOL_COMPUTED,NARROW_INT,0.4352,161.7302,-15.2762,0.0000,0.5661,1.3018,"999",35,33,33,18,3,01,3,f3*9e69d485
$GNGGA,065733.40,3039.10579929,N,12047.28098848,E,4,34,0.6,4.5158,M,9.8161,M,12,0*71
$GNRMC,065733.40,A,3039.10579929,N,12047.28098848,E,0.052,270.9,170120,5.8,W,D*31
#HEADINGA,COM2,0,58.0,FINE,2088,457071.400,3133785,18,18;SOL_COMPUTED,NARROW_INT,0.4354,161.5909,-15.6110,0.0000,0.5670,1.3020,"999",35,33,33,18,3,01,3,f3*a4951e8b
$GNGGA,065733.50,3039.10579942,N,12047.28098898,E,4,34,0.6,4.5157,M,9.8161,M,12,0*7F
$GNRMC,065733.50,A,3039.10579942,N,12047.28098898,E,0.016,72.0,170120,5.8,W,D*09
#HEADINGA,COM2,0,58.0,FINE,2088,457071.500,3133885,17,18;SOL_COMPUTED,NARROW_INT,0.4357,161.5540,-16.1364,0.0000,0.5680,1.2994,"999",35,33,33,18,3,01,3,f3*5ad35b1f
$GNGGA,065733.60,3039.10579817,N,12047.28098816,E,4,34,0.6,4.5211,M,9.8161,M,12,0*7A
$GNRMC,065733.60,A,3039.10579817,N,12047.28098816,E,0.052,209.3,170120,5.8,W,D*30
#HEADINGA,COM2,0,58.0,FINE,2088,457071.600,3133985,18,18;SOL_COMPUTED,NARROW_INT,0.4347,162.0282,-15.2955,0.0000,0.5668,1.3031,"999",35,33,33,18,3,01,3,f3*6a3299c5
$GNGGA,065733.70,3039.10579860,N,12047.28098896,E,4,34,0.6,4.5213,M,9.8161,M,12,0*71
$GNRMC,065733.70,A,3039.10579860,N,12047.28098896,E,0.029,57.7,170120,5.8,W,D*08
#HEADINGA,COM2,0,58.0,FINE,2088,457071.700,3134085,17,18;SOL_COMPUTED,NARROW_INT,0.4342,161.3111,-15.4960,0.0000,0.5681,1.3039,"999",35,33,33,18,3,01,3,f3*f946d7ce
$GNGGA,065733.80,3039.10579880,N,12047.28098945,E,4,34,0.6,4.5188,M,9.8161,M,12,0*7E
$GNRMC,065733.80,A,3039.10579880,N,12047.28098945,E,0.017,65.1,170120,5.8,W,D*0C
#HEADINGA,COM2,0,58.0,FINE,2088,457071.800,3134185,17,18;SOL_COMPUTED,NARROW_INT,0.4374,161.3696,-16.1688,0.0000,0.5661,1.2954,"999",35,33,33,18,3,01,3,f3*4f7de74a
$GNGGA,065733.90,3039.10579774,N,12047.28098751,E,4,34,0.6,4.5242,M,9.8161,M,12,0*75
$GNRMC,065733.90,A,3039.10579774,N,12047.28098751,E,0.071,237.7,170120,5.8,W,D*31
#HEADINGA,COM2,0,58.0,FINE,2088,457071.900,3134285,20,18;SOL_COMPUTED,NARROW_INT,0.4337,161.0444,-16.7133,0.0000,0.5721,1.3058,"999",35,33,33,18,3,01,3,f3*fdcf7221
#REFSTATIONA,COM2,0,58.0,FINE,2088,457055.000,3133586,803,18;00000000,-2811044.342,4717820.352,3232735.546,0,RTCMV3,"0000"*ae5c4889
$GNGGA,065734.00,3039.10579795,N,12047.28098527,E,4,34,0.6,4.5278,M,9.8161,M,13,0*7F
$GNRMC,065734.00,A,3039.10579795,N,12047.28098527,E,0.070,276.4,170120,5.8,W,D*34
#HEADINGA,COM2,0,58.0,FINE,2088,457072.000,3134385,23,18;SOL_COMPUTED,NARROW_INT,0.4365,161.1653,-15.9412,0.0000,0.5662,1.2979,"999",35,33,33,18,3,01,3,f3*2b26e298
$GNGGA,065734.10,3039.10579721,N,12047.28098568,E,4,34,0.6,4.5230,M,9.8161,M,13,0*76
$GNRMC,065734.10,A,3039.10579721,N,12047.28098568,E,0.030,154.7,170120,5.8,W,D*35
#HEADINGA,COM2,0,58.0,FINE,2088,457072.100,3134485,17,18;SOL_COMPUTED,NARROW_INT,0.4333,161.5441,-15.2299,0.0000,0.5687,1.3082,"999",35,33,33,18,3,01,3,f3*c7ed5a18
$GNGGA,065734.20,3039.10579806,N,12047.28098737,E,4,34,0.6,4.5277,M,9.8161,M,13,0*74
$GNRMC,065734.20,A,3039.10579806,N,12047.28098737,E,0.061,60.0,170120,5.8,W,D*01
#HEADINGA,COM2,0,58.0,FINE,2088,457072.200,3134586,18,18;SOL_COMPUTED,NARROW_INT,0.4360,161.7907,-14.9606,0.0000,0.5634,1.2991,"999",35,33,33,18,3,01,3,f3*796f79c7
$GNGGA,065734.30,3039.10579757,N,12047.28098600,E,4,34,0.6,4.5278,M,9.8161,M,13,0*74
$GNRMC,065734.30,A,3039.10579757,N,12047.28098600,E,0.046,247.9,170120,5.8,W,D*35
#HEADINGA,COM2,0,58.0,FINE,2088,457072.300,3134685,18,18;SOL_COMPUTED,NARROW_INT,0.4337,161.4659,-16.2539,0.0000,0.5704,1.3119,"999",35,33,33,18,3,01,3,f3*c47968fe
$GNGGA,065734.40,3039.10579801,N,12047.28098605,E,4,34,0.6,4.5284,M,9.8161,M,13,0*79
$GNRMC,065734.40,A,3039.10579801,N,12047.28098605,E,0.016,5.5,170120,5.8,W,D*36
#HEADINGA,COM2,0,58.0,FINE,2088,457072.400,3134785,18,18;SOL_COMPUTED,NARROW_INT,0.4367,162.1736,-15.3062,0.0000,0.5633,1.3051,"999",35,33,33,18,3,01,3,f3*57f5c133
$GNGGA,065734.50,3039.10579775,N,12047.28098646,E,4,34,0.6,4.5256,M,9.8161,M,13,0*7C
$GNRMC,065734.50,A,3039.10579775,N,12047.28098646,E,0.016,125.8,170120,5.8,W,D*32
#HEADINGA,COM2,0,58.0,FINE,2088,457072.500,3134885,18,18;SOL_COMPUTED,NARROW_INT,0.4347,161.5645,-15.1426,0.0000,0.5665,1.3119,"999",35,33,33,18,3,01,3,f3*05f88fb1
$GNGGA,065734.60,3039.10579736,N,12047.28098641,E,4,34,0.6,4.5233,M,9.8161,M,13,0*7C
$GNRMC,065734.60,A,3039.10579736,N,12047.28098641,E,0.014,186.6,170120,5.8,W,D*34
#HEADINGA,COM2,0,58.0,FINE,2088,457072.600,3134985,18,18;SOL_COMPUTED,NARROW_INT,0.4331,161.6921,-14.8767,0.0000,0.5677,1.3159,"999",35,33,33,18,3,01,3,f3*273362e6
$GNGGA,065734.70,3039.10579724,N,12047.28098679,E,4,34,0.6,4.5301,M,9.8161,M,13,0*75
$GNRMC,065734.70,A,3039.10579724,N,12047.28098679,E,0.013,109.7,170120,5.8,W,D*3C
#HEADINGA,COM2,0,58.0,FINE,2088,457072.700,3135085,18,18;SOL_COMPUTED,NARROW_INT,0.4365,161.7180,-15.7250,0.0000,0.5653,1.2979,"999",35,33,33,18,3,01,3,f3*8f0b8c77
$GNGGA,065734.80,3039.10579786,N,12047.28098661,E,4,34,0.6,4.5289,M,9.8161,M,13,0*7A
$GNRMC,065734.80,A,3039.10579786,N,12047.28098661,E,0.023,345.9,170120,5.8,W,D*35
#HEADINGA,COM2,0,58.0,FINE,2088,457072.800,3135185,17,18;SOL_COMPUTED,NARROW_INT,0.4345,161.7177,-16.2474,0.0000,0.5689,1.3028,"999",35,33,33,18,3,01,3,f3*d2b20bed
$GNGGA,065734.90,3039.10579852,N,12047.28098656,E,4,34,0.6,4.5255,M,9.8161,M,13,0*78
$GNRMC,065734.90,A,3039.10579852,N,12047.28098656,E,0.023,356.4,170120,5.8,W,D*39
#HEADINGA,COM2,0,58.0,FINE,2088,457072.900,3135285,20,18;SOL_COMPUTED,NARROW_INT,0.4359,161.8096,-15.6145,0.0000,0.5660,1.3058,"999",35,33,33,18,3,01,3,f3*b8e1524b
#REFSTATIONA,COM2,0,58.0,FINE,2088,457055.000,3134586,803,18;00000000,-2811044.342,4717820.352,3232735.546,0,RTCMV3,"0000"*04aad660
$GNGGA,065735.00,3039.10579782,N,12047.28098649,E,4,34,0.6,4.5277,M,9.8161,M,14,0*7B
$GNRMC,065735.00,A,3039.10579782,N,12047.28098649,E,0.025,184.7,170120,5.8,W,D*35
#HEADINGA,COM2,0,58.0,FINE,2088,457073.000,3135385,23,18;SOL_COMPUTED,NARROW_INT,0.4371,161.3960,-15.9354,0.0000,0.5650,1.2953,"999",35,33,33,18,3,01,3,f3*ee9b5ea4
$GNGGA,065735.10,3039.10579840,N,12047.28098725,E,4,34,0.6,4.5210,M,9.8161,M,14,0*71
$GNRMC,065735.10,A,3039.10579840,N,12047.28098725,E,0.031,48.6,170120,5.8,W,D*0B
#HEADINGA,COM2,0,58.0,FINE,2088,457073.100,3135485,18,18;SOL_COMPUTED,NARROW_INT,0.4348,161.9426,-15.6861,0.0000,0.5670,1.3023,"999",35,33,33,18,3,01,3,f3*5119f993
$GNGGA,065735.20,3039.10579908,N,12047.28098617,E,4,34,0.6,4.5237,M,9.8161,M,14,0*7A
$GNRMC,065735.20,A,3039.10579908,N,12047.28098617,E,0.041,306.2,170120,5.8,W,D*3F
#HEADINGA,COM2,0,58.0,FINE,2088,457073.200,3135587,19,18;SOL_COMPUTED,NARROW_INT,0.4345,161.4780,-15.8766,0.0000,0.5676,1.3027,"999",35,33,33,18,3,01,3,f3*97a977d8
$GNGGA,065735.30,3039.10579826,N,12047.28098620,E,4,34,0.6,4.5279,M,9.8161,M,11,0*7D
$GNRMC,065735.30,A,3039.10579826,N,12047.28098620,E,0.030,178.6,170120,5.8,W,D*3E
#HEADINGA,COM2,0,58.0,FINE,2088,457073.300,3135685,18,18;SOL_COMPUTED,NARROW_INT,0.4343,161.8013,-15.4249,0.0000,0.5665,1.3050,"999",35,33,33,18,3,01,3,f3*3cee11aa
$GNGGA,065735.40,3039.10579802,N,12047.28098746,E,4,34,0.6,4.5325,M,9.8161,M,11,0*75
$GNRMC,065735.40,A,3039.10579802,N,12047.28098746,E,0.040,102.2,170120,5.8,W,D*30
#HEADINGA,COM2,0,58.0,FINE,2088,457073.400,3135786,18,18;SOL_COMPUTED,NARROW_INT,0.4370,161.7996,-16.5906,0.0000,0.5664,1.2964,"999",35,33,33,18,3,01,3,f3*174adcd4
$GNGGA,065735.50,3039.10579838,N,12047.28098633,E,4,34,0.6,4.5283,M,9.8161,M,11,0*73
$GNRMC,065735.50,A,3039.10579838,N,12047.28098633,E,0.037,290.1,170120,5.8,W,D*30
#HEADINGA,COM2,0,58.0,FINE,2088,457073.500,3135885,18,18;SOL_COMPUTED,NARROW_INT,0.4360,161.6730,-15.6872,0.0000,0.5655,1.3064,"999",35,33,33,18,3,01,3,f3*fb30005a
$GNGGA,065735.60,3039.10579793,N,12047.28098780,E,4,34,0.6,4.5270,M,9.8161,M,11,0*7B
$GNRMC,065735.60,A,3039.10579793,N,12047.28098780,E,0.049,109.4,170120,5.8,W,D*3B
#HEADINGA,COM2,0,58.0,FINE,2088,457073.600,3135985,18,18;SOL_COMPUTED,NARROW_INT,0.4330,161.9931,-15.7408,0.0000,0.5693,1.3151,"999",35,33,33,18,3,01,3,f3*60432338
$GNGGA,065735.70,3039.10579968,N,12047.28098686,E,4,34,0.6,4.5221,M,9.8161,M,11,0*73
$GNRMC,065735.70,A,3039.10579968,N,12047.28098686,E,0.069,335.1,170120,5.8,W,D*3D
#HEADINGA,COM2,0,58.0,FINE,2088,457073.700,3136085,18,18;SOL_COMPUTED,NARROW_INT,0.4353,161.7373,-14.7436,0.0000,0.5640,1.3091,"999",35,33,33,18,3,01,3,f3*a94a2157
$GNGGA,065735.80,3039.10579917,N,12047.28098767,E,4,34,0.6,4.5263,M,9.8161,M,11,0*7C
$GNRMC,065735.80,A,3039.10579917,N,12047.28098767,E,0.031,126.3,170120,5.8,W,D*3B
#HEADINGA,COM2,0,58.0,FINE,2088,457073.800,3136185,18,18;SOL_COMPUTED,NARROW_INT,0.4337,161.7296,-14.9285,0.0000,0.5665,1.3136,"999",35,33,33,18,3,01,3,f3*c17aa3ec
$GNGGA,065735.90,3039.10580076,N,12047.28098690,E,4,34,0.6,4.5163,M,9.8161,M,11,0*7F
$GNRMC,065735.90,A,3039.10580076,N,12047.28098690,E,0.062,337.4,170120,5.8,W,D*38
#HEADINGA,COM2,0,27.0,FINE,2088,457073.900,3136285,20,18;SOL_COMPUTED,NARROW_INT,0.4358,161.9539,-15.0073,0.0000,0.5639,1.3077,"999",35,33,33,18,3,01,3,f3*1b1a0c0d
#REFSTATIONA,COM2,0,58.0,FINE,2088,457055.000,3135587,802,18;00000000,-2811044.342,4717820.352,3232735.546,0,RTCMV3,"0000"*e3e91f1a
$GNGGA,065736.00,3039.10579996,N,12047.28098607,E,4,34,0.6,4.5252,M,9.8161,M,12,0*78
$GNRMC,065736.00,A,3039.10579996,N,12047.28098607,E,0.038,222.0,170120,5.8,W,D*33
#HEADINGA,COM2,0,27.0,FINE,2088,457074.000,3136385,23,18;SOL_COMPUTED,NARROW_INT,0.4365,161.6836,-16.5268,0.0000,0.5678,1.3050,"999",35,33,33,18,3,01,3,f3*4d355646
$GNGGA,065736.10,3039.10580001,N,12047.28098759,E,4,34,0.6,4.5201,M,9.8161,M,12,0*74
$GNRMC,065736.10,A,3039.10580001,N,12047.28098759,E,0.047,88.0,170120,5.8,W,D*03
#HEADINGA,COM2,0,27.0,FINE,2088,457074.100,3136485,17,18;SOL_COMPUTED,NARROW_INT,0.4360,161.7074,-16.0263,0.0000,0.5669,1.3065,"999",35,33,33,18,3,01,3,f3*b552ffc8
$GNGGA,065736.20,3039.10579984,N,12047.28098602,E,4,34,0.6,4.5233,M,9.8161,M,12,0*7B
$GNRMC,065736.20,A,3039.10579984,N,12047.28098602,E,0.049,262.8,170120,5.8,W,D*3D
#HEADINGA,COM2,0,27.0,FINE,2088,457074.200,3136586,18,18;SOL_COMPUTED,NARROW_INT,0.4368,161.7616,-15.2895,0.0000,0.5638,1.3048,"999",35,33,33,18,3,01,3,f3*bda2fb90
$GNGGA,065736.30,3039.10580019,N,12047.28098635,E,4,34,0.6,4.5228,M,9.8161,M,09,0*75
$GNRMC,065736.30,A,3039.10580019,N,12047.28098635,E,0.016,38.7,170120,5.8,W,D*0B
#HEADINGA,COM2,0,27.0,FINE,2088,457074.300,3136685,17,18;SOL_COMPUTED,NARROW_INT,0.4358,161.3138,-15.5720,0.0000,0.5667,1.3084,"999",35,33,33,18,3,01,3,f3*dc483773
$GNGGA,065736.40,3039.10579957,N,12047.28098761,E,4,34,0.6,4.5216,M,9.8161,M,09,0*7A
$GNRMC,065736.40,A,3039.10579957,N,12047.28098761,E,0.045,119.7,170120,5.8,W,D*3D
#HEADINGA,COM2,0,27.0,FINE,2088,457074.400,3136785,17,18;SOL_COMPUTED,NARROW_INT,0.4393,161.4128,-15.7500,0.0000,0.5625,1.2977,"999",35,33,33,18,3,01,3,f3*64ad003c
$GNGGA,065736.50,3039.10580059,N,12047.28098707,E,4,34,0.6,4.5218,M,9.8161,M,09,0*74
$GNRMC,065736.50,A,3039.10580059,N,12047.28098707,E,0.040,335.5,170120,5.8,W,D*36
#HEADINGA,COM2,0,27.0,FINE,2088,457074.500,3136885,16,18;SOL_COMPUTED,NARROW_INT,0.4349,161.9269,-15.6144,0.0000,0.5674,1.3108,"999",35,33,33,18,3,01,3,f3*8d8c264e
$GNGGA,065736.60,3039.10579932,N,12047.28098555,E,4,34,0.6,4.5207,M,9.8161,M,09,0*7E
$GNRMC,065736.60,A,3039.10579932,N,12047.28098555,E,0.066,226.3,170120,5.8,W,D*33
#HEADINGA,COM2,0,27.0,FINE,2088,457074.600,3136985,17,18;SOL_COMPUTED,NARROW_INT,0.4369,161.4855,-15.2674,0.0000,0.5641,1.3048,"999",35,33,33,18,3,01,3,f3*b496d56c
$GNGGA,065736.70,3039.10579975,N,12047.28098693,E,4,34,0.6,4.5144,M,9.8161,M,09,0*71
$GNRMC,065736.70,A,3039.10579975,N,12047.28098693,E,0.046,70.4,170120,5.8,W,D*0C
#HEADINGA,COM2,0,27.0,FINE,2088,457074.700,3137085,16,18;SOL_COMPUTED,NARROW_INT,0.4363,161.6660,-14.5700,0.0000,0.5634,1.3077,"999",35,33,33,18,3,01,3,f3*6dccd2e7
$GNGGA,065736.80,3039.10580049,N,12047.28098565,E,4,34,0.6,4.5158,M,9.8161,M,09,0*79
$GNRMC,065736.80,A,3039.10580049,N,12047.28098565,E,0.048,303.8,170120,5.8,W,D*3C
#HEADINGA,COM2,0,27.0,FINE,2088,457074.800,3137185,16,18;SOL_COMPUTED,NARROW_INT,0.4360,162.1133,-14.3708,0.0000,0.5621,1.3071,"999",35,33,33,18,3,01,3,f3*c0233d49
$GNGGA,065736.90,3039.10579961,N,12047.28098751,E,4,34,0.6,4.5221,M,9.8161,M,09,0*75
$GNRMC,065736.90,A,3039.10579961,N,12047.28098751,E,0.066,118.6,170120,5.8,W,D*37
#HEADINGA,COM2,0,27.0,FINE,2088,457074.900,3137285,16,18;SOL_COMPUTED,NARROW_INT,0.4338,161.9118,-15.3061,0.0000,0.5678,1.3126,"999",35,33,33,18,3,01,3,f3*634adc5e
#REFSTATIONA,COM2,0,27.0,FINE,2088,457064.000,3136586,803,18;00000000,-2811044.342,4717820.352,3232735.546,0,RTCMV3,"0000"*f635835a
$GNGGA,065737.00,3039.10579991,N,12047.28098695,E,4,34,0.6,4.5213,M,9.8161,M,10,0*72
$GNRMC,065737.00,A,3039.10579991,N,12047.28098695,E,0.020,301.4,170120,5.8,W,D*33
#HEADINGA,COM2,0,27.0,FINE,2088,457075.000,3137385,23,18;SOL_COMPUTED,NARROW_INT,0.4370,161.3547,-14.8611,0.0000,0.5628,1.3045,"999",35,33,33,18,3,01,3,f3*05a45212
$GNGGA,065737.10,3039.10579799,N,12047.28098706,E,4,34,0.6,4.5273,M,9.8161,M,10,0*78
$GNRMC,065737.10,A,3039.10579799,N,12047.28098706,E,0.069,177.3,170120,5.8,W,D*36
#HEADINGA,COM2,0,27.0,FINE,2088,457075.100,3137485,18,18;SOL_COMPUTED,NARROW_INT,0.4344,161.3272,-16.4951,0.0000,0.5705,1.3108,"999",35,33,33,18,3,01,3,f3*58ab7e3a
$GNGGA,065737.20,3039.10579913,N,12047.28098609,E,4,34,0.6,4.5247,M,9.8161,M,10,0*7E
$GNRMC,065737.20,A,3039.10579913,N,12047.28098609,E,0.051,323.9,170120,5.8,W,D*35
#HEADINGA,COM2,0,27.0,FINE,2088,457075.200,3137586,18,18;SOL_COMPUTED,NARROW_INT,0.4364,161.4883,-15.6783,0.0000,0.5657,1.3062,"999",35,33,33,18,3,01,3,f3*44765776
$GNGGA,065737.30,3039.10579969,N,12047.28098650,E,4,34,0.6,4.5170,M,9.8161,M,10,0*79
$GNRMC,065737.30,A,3039.10579969,N,12047.28098650,E,0.024,32.5,170120,5.8,W,D*08
#HEADINGA,COM2,0,27.0,FINE,2088,457075.300,3137685,17,18;SOL_COMPUTED,NARROW_INT,0.4341,161.6507,-15.9327,0.0000,0.5688,1.3115,"999",35,33,33,18,3,01,3,f3*12d4af43
$GNGGA,065737.40,3039.10579990,N,12047.28098534,E,4,34,0.6,4.5192,M,9.8161,M,10,0*75
$GNRMC,065737.40,A,3039.10579990,N,12047.28098534,E,0.037,281.8,170120,5.8,W,D*3D
#HEADINGA,COM2,0,27.0,FINE,2088,457075.400,3137785,17,18;SOL_COMPUTED,NARROW_INT,0.4354,161.7655,-15.1842,0.0000,0.5652,1.3083,"999",35,33,33,18,3,01,3,f3*0eee2878
$GNGGA,065737.50,3039.10579965,N,12047.28098653,E,4,34,0.6,4.5197,M,9.8161,M,10,0*79
$GNRMC,065737.50,A,3039.10579965,N,12047.28098653,E,0.038,103.6,170120,5.8,W,D*3C
#HEADINGA,COM2,0,27.0,FINE,2088,457075.500,3137885,16,18;SOL_COMPUTED,NARROW_INT,0.4353,161.6880,-15.6048,0.0000,0.5664,1.3080,"999",35,33,33,18,3,01,3,f3*9248d8af
$GNGGA,065737.60,3039.10579812,N,12047.28098761,E,4,34,0.6,4.5235,M,9.8161,M,10,0*70
$GNRMC,065737.60,A,3039.10579812,N,12047.28098761,E,0.064,148.4,170120,5.8,W,D*3A
#HEADINGA,COM2,0,27.0,FINE,2088,457075.600,3137985,17,18;SOL_COMPUTED,NARROW_INT,0.4348,161.6582,-15.4019,0.0000,0.5662,1.3031,"999",35,33,33,18,3,01,3,f3*62e25366
$GNGGA,065737.70,3039.10579898,N,12047.28098697,E,4,34,0.6,4.5217,M,9.8161,M,10,0*7B
$GNRMC,065737.70,A,3039.10579898,N,12047.28098697,E,0.037,327.1,170120,5.8,W,D*39
#HEADINGA,COM2,0,27.0,FINE,2088,457075.700,3138084,17,18;SOL_COMPUTED,NARROW_INT,0.4345,162.1648,-16.0472,0.0000,0.5681,1.3036,"999",35,33,33,18,3,01,3,f3*78594312
$GNGGA,065737.80,3039.10579975,N,12047.28098572,E,4,34,0.6,4.5167,M,9.8161,M,10,0*7A
$GNRMC,065737.80,A,3039.10579975,N,12047.28098572,E,0.048,305.5,170120,5.8,W,D*30
#HEADINGA,COM2,0,27.0,FINE,2088,457075.800,3138185,16,18;SOL_COMPUTED,NARROW_INT,0.4344,161.8070,-15.3239,0.0000,0.5668,1.3043,"999",35,33,33,18,3,01,3,f3*c220e719
$GNGGA,065737.90,3039.10579957,N,12047.28098657,E,4,34,0.6,4.5198,M,9.8161,M,10,0*7F
$GNRMC,065737.90,A,3039.10579957,N,12047.28098657,E,0.027,104.0,170120,5.8,W,D*3A
#HEADINGA,COM2,0,27.0,FINE,2088,457075.900,3138285,16,18;SOL_COMPUTED,NARROW_INT,0.4359,161.4508,-15.6714,0.0000,0.5661,1.2999,"999",35,33,33,18,3,01,3,f3*6d6ec6d9
#REFSTATIONA,COM2,0,27.0,FINE,2088,457064.000,3137586,803,18;00000000,-2811044.342,4717820.352,3232735.546,0,RTCMV3,"0000"*01f9df54
$GNGGA,065738.00,3039.10579844,N,12047.28098638,E,4,34,0.6,4.5221,M,9.8161,M,11,0*73
$GNRMC,065738.00,A,3039.10579844,N,12047.28098638,E,0.041,188.4,170120,5.8,W,D*36
#HEADINGA,COM2,0,27.0,FINE,2088,457076.000,3138385,23,18;SOL_COMPUTED,NARROW_INT,0.4350,161.5176,-15.9363,0.0000,0.5681,1.3025,"999",35,33,33,18,3,01,3,f3*ce2446f4
$GNGGA,065738.10,3039.10580004,N,12047.28098680,E,4,34,0.6,4.5174,M,9.8161,M,11,0*78
$GNRMC,065738.10,A,3039.10580004,N,12047.28098680,E,0.059,12.7,170120,5.8,W,D*06
#HEADINGA,COM2,0,27.0,FINE,2088,457076.100,3138485,18,18;SOL_COMPUTED,NARROW_INT,0.4359,161.7274,-15.3561,0.0000,0.5651,1.3001,"999",35,33,33,18,3,01,3,f3*ef77395f
$GNGGA,065738.20,3039.10579848,N,12047.28098585,E,4,34,0.6,4.5180,M,9.8161,M,11,0*70
$GNRMC,065738.20,A,3039.10579848,N,12047.28098585,E,0.063,207.5,170120,5.8,W,D*38
#HEADINGA,COM2,0,27.0,FINE,2088,457076.200,3138587,18,18;SOL_COMPUTED,NARROW_INT,0.4358,161.3808,-15.5717,0.0000,0.5658,1.3001,"999",35,33,33,18,3,01,3,f3*bc7488d1
$GNGGA,065738.30,3039.10579811,N,12047.28098634,E,4,34,0.6,4.5183,M,9.8161,M,10,0*76
$GNRMC,065738.30,A,3039.10579811,N,12047.28098634,E,0.020,130.8,170120,5.8,W,D*31
#HEADINGA,COM2,0,27.0,FINE,2088,457076.300,3138685,17,18;SOL_COMPUTED,NARROW_INT,0.4344,161.0891,-16.1746,0.0000,0.5697,1.3048,"999",35,33,33,18,3,01,3,f3*dd66511d
$GNGGA,065738.40,3039.10579911,N,12047.28098723,E,4,34,0.6,4.5209,M,9.8161,M,10,0*76
$GNRMC,065738.40,A,3039.10579911,N,12047.28098723,E,0.045,37.7,170120,5.8,W,D*0A
#HEADINGA,COM2,0,27.0,FINE,2088,457076.400,3138785,18,18;SOL_COMPUTED,NARROW_INT,0.4357,161.8522,-16.4040,0.0000,0.5685,1.3024,"999",35,33,33,18,3,01,3,f3*a33beec1
$GNGGA,065738.50,3039.10579952,N,12047.28098660,E,4,34,0.6,4.5179,M,9.8161,M,10,0*72
$GNRMC,065738.50,A,3039.10579952,N,12047.28098660,E,0.025,306.7,170120,5.8,W,D*3D
#HEADINGA,COM2,0,27.0,FINE,2088,457076.500,3138885,17,18;SOL_COMPUTED,NARROW_INT,0.4350,161.8636,-15.0085,0.0000,0.5651,1.3032,"999",35,33,33,18,3,01,3,f3*065bd316
$GNGGA,065738.60,3039.10579879,N,12047.28098692,E,4,34,0.6,4.5165,M,9.8161,M,10,0*79
$GNRMC,065738.60,A,3039.10579879,N,12047.28098692,E,0.028,159.1,170120,5.8,W,D*38
#HEADINGA,COM2,0,27.0,FINE,2088,457076.600,3138985,17,18;SOL_COMPUTED,NARROW_INT,0.4344,161.6536,-16.5054,0.0000,0.5702,1.3056,"999",35,33,33,18,3,01,3,f3*fde19de6
$GNGGA,065738.70,3039.10579741,N,12047.28098691,E,4,34,0.6,4.5345,M,9.8161,M,10,0*7F
$GNRMC,065738.70,A,3039.10579741,N,12047.28098691,E,0.050,180.2,170120,5.8,W,D*36
#HEADINGA,COM2,0,27.0,FINE,2088,457076.700,3139085,20,18;SOL_COMPUTED,NARROW_INT,0.4354,162.1114,-15.8226,0.0000,0.5657,1.3026,"999",35,33,33,18,3,01,3,f3*4f0a081f
$GNGGA,065738.80,3039.10579779,N,12047.28098694,E,4,34,0.6,4.5304,M,9.8161,M,10,0*7B
$GNRMC,065738.80,A,3039.10579779,N,12047.28098694,E,0.014,3.0,170120,5.8,W,D*3F
#HEADINGA,COM2,0,27.0,FINE,2088,457076.800,3139185,17,18;SOL_COMPUTED,NARROW_INT,0.4377,162.0340,-15.8419,0.0000,0.5637,1.3023,"999",35,33,33,18,3,01,3,f3*0126f1c4
$GNGGA,065738.90,3039.10579803,N,12047.28098643,E,4,34,0.6,4.5276,M,9.8161,M,10,0*76
$GNRMC,065738.90,A,3039.10579803,N,12047.28098643,E,0.018,299.0,170120,5.8,W,D*3B
#HEADINGA,COM2,0,47.0,FINE,2088,457076.900,3139285,16,18;SOL_COMPUTED,NARROW_INT,0.4342,161.8128,-15.5370,0.0000,0.5675,1.3124,"999",35,33,33,18,3,01,3,f3*9e434638
#REFSTATIONA,COM2,0,27.0,FINE,2088,457064.000,3138587,802,18;00000000,-2811044.342,4717820.352,3232735.546,0,RTCMV3,"0000"*68262dbd
$GNGGA,065739.00,3039.10579757,N,12047.28098664,E,4,34,0.6,4.5299,M,9.8161,M,11,0*75
$GNRMC,065739.00,A,3039.10579757,N,12047.28098664,E,0.018,157.8,170120,5.8,W,D*31
#HEADINGA,COM2,0,47.0,FINE,2088,457077.000,3139385,23,18;SOL_COMPUTED,NARROW_INT,0.4347,161.8995,-15.5484,0.0000,0.5671,1.3114,"999",35,33,33,18,3,01,3,f3*9f4cc04c
$GNGGA,065739.10,3039.10579791,N,12047.28098677,E,4,34,0.6,4.5316,M,9.8161,M,11,0*7A
$GNRMC,065739.10,A,3039.10579791,N,12047.28098677,E,0.013,17.9,170120,5.8,W,D*07
#HEADINGA,COM2,0,47.0,FINE,2088,457077.100,3139485,18,18;SOL_COMPUTED,NARROW_INT,0.4352,161.5629,-15.6319,0.0000,0.5666,1.3094,"999",35,33,33,18,3,01,3,f3*a2eee678
$GNGGA,065739.20,3039.10579692,N,12047.28098540,E,4,34,0.6,4.5350,M,9.8161,M,11,0*7E
$GNRMC,065739.20,A,3039.10579692,N,12047.28098540,E,0.056,229.9,170120,5.8,W,D*3F
#HEADINGA,COM2,0,47.0,FINE,2088,457077.200,3139587,17,18;SOL_COMPUTED,NARROW_INT,0.4376,161.0821,-16.4578,0.0000,0.5669,1.3026,"999",35,33,33,18,3,01,3,f3*fff58127
$GNGGA,065739.30,3039.10579658,N,12047.28098724,E,4,34,0.6,4.5290,M,9.8161,M,11,0*74
$GNRMC,065739.30,A,3039.10579658,N,12047.28098724,E,0.058,102.2,170120,5.8,W,D*37
#HEADINGA,COM2,0,47.0,FINE,2088,457077.300,3139686,17,18;SOL_COMPUTED,NARROW_INT,0.4357,162.1568,-15.6590,0.0000,0.5668,1.3090,"999",35,33,33,18,3,01,3,f3*6ee45d58
$GNGGA,065739.40,3039.10579716,N,12047.28098684,E,4,34,0.6,4.5337,M,9.8161,M,11,0*7F
$GNRMC,065739.40,A,3039.10579716,N,12047.28098684,E,0.024,329.4,170120,5.8,W,D*36
#HEADINGA,COM2,0,47.0,FINE,2088,457077.400,3139786,17,18;SOL_COMPUTED,NARROW_INT,0.4344,161.9068,-16.9979,0.0000,0.5727,1.3125,"999",35,33,33,18,3,01,3,f3*2b4375ca
$GNGGA,065739.50,3039.10579659,N,12047.28098584,E,4,34,0.6,4.5353,M,9.8161,M,11,0*75
$GNRMC,065739.50,A,3039.10579659,N,12047.28098584,E,0.037,236.8,170120,5.8,W,D*3F
#HEADINGA,COM2,0,47.0,FINE,2088,457077.500,3139885,18,18;SOL_COMPUTED,NARROW_INT,0.4363,161.3321,-16.2449,0.0000,0.5677,1.3062,"999",35,33,33,18,3,01,3,f3*58ee522a
$GNGGA,065739.60,3039.10579702,N,12047.28098635,E,4,34,0.6,4.5296,M,9.8161,M,11,0*78
$GNRMC,065739.60,A,3039.10579702,N,12047.28098635,E,0.022,45.9,170120,5.8,W,D*09
#HEADINGA,COM2,0,47.0,FINE,2088,457077.600,3139985,18,18;SOL_COMPUTED,NARROW_INT,0.4357,161.7744,-15.9955,0.0000,0.5675,1.3081,"999",35,33,33,18,3,01,3,f3*8dd3b7b3
$GNGGA,065739.70,3039.10579762,N,12047.28098654,E,4,34,0.6,4.5333,M,9.8161,M,11,0*76
$GNRMC,065739.70,A,3039.10579762,N,12047.28098654,E,0.022,15.7,170120,5.8,W,D*02
#HEADINGA,COM2,0,47.0,FINE,2088,457077.700,3140085,17,18;SOL_COMPUTED,NARROW_INT,0.4325,161.6493,-15.7033,0.0000,0.5709,1.3177,"999",35,33,33,18,3,01,3,f3*ffd9149b
$GNGGA,065739.80,3039.10579826,N,12047.28098465,E,4,34,0.6,4.5265,M,9.8161,M,11,0*74
$GNRMC,065739.80,A,3039.10579826,N,12047.28098465,E,0.063,291.6,170120,5.8,W,D*38
#HEADINGA,COM2,0,47.0,FINE,2088,457077.800,3140185,20,18;SOL_COMPUTED,NARROW_INT,0.4362,161.3398,-15.8135,0.0000,0.5669,1.3071,"999",35,33,33,18,3,01,3,f3*1f633c54
$GNGGA,065739.90,3039.10579915,N,12047.28098488,E,4,34,0.6,4.5225,M,9.8161,M,11,0*73
$GNRMC,065739.90,A,3039.10579915,N,12047.28098488,E,0.033,12.3,170120,5.8,W,D*02
#HEADINGA,COM2,0,47.0,FINE,2088,457077.900,3140285,17,18;SOL_COMPUTED,NARROW_INT,0.4351,161.6048,-16.3196,0.0000,0.5697,1.3102,"999",35,33,33,18,3,01,3,f3*158a259d
#REFSTATIONA,COM2,0,27.0,FINE,2088,457064.000,3138587,1802,18;00000000,-2811044.342,4717820.352,3232735.546,0,RTCMV3,"0000"*feb3c12d
$GNGGA,065740.00,3039.10579846,N,12047.28098556,E,4,34,0.6,4.5284,M,9.8161,M,12,0*79
$GNRMC,065740.00,A,3039.10579846,N,12047.28098556,E,0.033,139.5,170120,5.8,W,D*3E
#HEADINGA,COM2,0,47.0,FINE,2088,457078.000,3140385,23,18;SOL_COMPUTED,NARROW_INT,0.4333,161.1167,-16.5763,0.0000,0.5731,1.3142,"999",35,33,33,18,3,01,3,f3*61247d41
$GNGGA,065740.10,3039.10579860,N,12047.28098576,E,4,34,0.6,4.5288,M,9.8161,M,12,0*72
$GNRMC,065740.10,A,3039.10579860,N,12047.28098576,E,0.008,52.3,170120,5.8,W,D*0B
#HEADINGA,COM2,0,47.0,FINE,2088,457078.100,3140485,17,18;SOL_COMPUTED,NARROW_INT,0.4376,161.6026,-17.4852,0.0000,0.5698,1.3000,"999",35,33,33,18,3,01,3,f3*45de434b
$GNGGA,065740.20,3039.10579868,N,12047.28098501,E,4,34,0.6,4.5287,M,9.8161,M,12,0*76
$GNRMC,065740.20,A,3039.10579868,N,12047.28098501,E,0.023,276.9,170120,5.8,W,D*37
#HEADINGA,COM2,0,47.0,FINE,2088,457078.200,3140587,18,18;SOL_COMPUTED,NARROW_INT,0.4367,161.7740,-16.8301,0.0000,0.5686,1.3033,"999",35,33,33,18,3,01,3,f3*a9c065f7
$GNGGA,065740.30,3039.10579886,N,12047.28098680,E,4,34,0.6,4.5286,M,9.8161,M,10,0*7E
$GNRMC,065740.30,A,3039.10579886,N,12047.28098680,E,0.056,83.3,170120,5.8,W,D*0C
#HEADINGA,COM2,0,47.0,FINE,2088,457078.300,3140685,18,18;SOL_COMPUTED,NARROW_INT,0.4338,162.1444,-16.1719,0.0000,0.5706,1.3125,"999",35,33,33,18,3,01,3,f3*3eb9c0e7
$GNGGA,065740.40,3039.10579902,N,12047.28098581,E,4,34,0.6,4.5249,M,9.8161,M,10,0*75
$GNRMC,065740.40,A,3039.10579902,N,12047.28098581,E,0.031,280.4,170120,5.8,W,D*33
#HEADINGA,COM2,0,47.0,FINE,2088,457078.400,3140785,18,18;SOL_COMPUTED,NARROW_INT,0.4345,161.8151,-15.6929,0.0000,0.5686,1.3120,"999",35,33,33,18,3,01,3,f3*2b34b78b
$GNGGA,065740.50,3039.10579914,N,12047.28098662,E,4,34,0.6,4.5275,M,9.8161,M,10,0*72
$GNRMC,065740.50,A,3039.10579914,N,12047.28098662,E,0.026,80.0,170120,5.8,W,D*0B
#HEADINGA,COM2,0,47.0,FINE,2088,457078.500,3140886,18,18;SOL_COMPUTED,NARROW_INT,0.4358,161.3528,-16.6066,0.0000,0.5697,1.3075,"999",35,33,33,18,3,01,3,f3*aecbf90f
$GNGGA,065740.60,3039.10579945,N,12047.28098607,E,4,34,0.6,4.5234,M,9.8161,M,10,0*73
$GNRMC,065740.60,A,3039.10579945,N,12047.28098607,E,0.020,302.7,170120,5.8,W,D*37
#HEADINGA,COM2,0,47.0,FINE,2088,457078.600,3140986,17,18;SOL_COMPUTED,NARROW_INT,0.4336,162.0368,-15.5568,0.0000,0.5688,1.3144,"999",35,33,33,18,3,01,3,f3*8555132a
$GNGGA,065740.70,3039.10579848,N,12047.28098523,E,4,34,0.6,4.5242,M,9.8161,M,10,0*7A
$GNRMC,065740.70,A,3039.10579848,N,12047.28098523,E,0.043,216.9,170120,5.8,W,D*30
#HEADINGA,COM2,0,47.0,FINE,2088,457078.700,3141085,17,18;SOL_COMPUTED,NARROW_INT,0.4381,161.6322,-16.3455,0.0000,0.5650,1.2939,"999",35,33,33,18,3,01,3,f3*bda6623a
$GNGGA,065740.80,3039.10579952,N,12047.28098498,E,4,34,0.6,4.5217,M,9.8161,M,10,0*7E
$GNRMC,065740.80,A,3039.10579952,N,12047.28098498,E,0.038,348.1,170120,5.8,W,D*3A
#HEADINGA,COM2,0,47.0,FINE,2088,457078.800,3141185,18,18;SOL_COMPUTED,NARROW_INT,0.4368,161.5210,-16.1410,0.0000,0.5652,1.2976,"999",35,33,33,18,3,01,3,f3*06a6656f
$GNGGA,065740.90,3039.10579920,N,12047.28098660,E,4,34,0.6,4.5239,M,9.8161,M,10,0*73
$GNRMC,065740.90,A,3039.10579920,N,12047.28098660,E,0.052,102.8,170120,5.8,W,D*32
#HEADINGA,COM2,0,47.0,FINE,2088,457078.900,3141285,20,18;SOL_COMPUTED,NARROW_INT,0.4361,161.7245,-17.1717,0.0000,0.5691,1.2989,"999",35,33,33,18,3,01,3,f3*9939f88d
#REFSTATIONA,COM2,0,47.0,FINE,2088,457064.000,3140587,802,18;00000000,-2811044.342,4717820.352,3232735.546,0,RTCMV3,"0000"*626c21a7
$GNGGA,065741.00,3039.10579867,N,12047.28098779,E,4,34,0.6,4.5320,M,9.8161,M,11,0*78
$GNRMC,065741.00,A,3039.10579867,N,12047.28098779,E,0.041,117.3,170120,5.8,W,D*3C
#HEADINGA,COM2,0,47.0,FINE,2088,457079.000,3141385,23,18;SOL_COMPUTED,NARROW_INT,0.4382,161.8553,-18.1838,0.0000,0.5697,1.2975,"999",35,33,33,18,3,01,3,f3*94e225bd
$GNGGA,065741.10,3039.10579955,N,12047.28098679,E,4,34,0.6,4.5267,M,9.8161,M,11,0*7A
$GNRMC,065741.10,A,3039.10579955,N,12047.28098679,E,0.044,315.7,170120,5.8,W,D*3D
#HEADINGA,COM2,0,47.0,FINE,2088,457079.100,3141485,17,18;SOL_COMPUTED,NARROW_INT,0.4357,161.5721,-16.7343,0.0000,0.5686,1.3067,"999",35,33,33,18,3,01,3,f3*b8d8b8f3
$GNGGA,065741.20,3039.10579876,N,12047.28098871,E,4,34,0.6,4.5241,M,9.8161,M,11,0*7B
$GNRMC,065741.20,A,3039.10579876,N,12047.28098871,E,0.066,115.4,170120,5.8,W,D*39
#HEADINGA,COM2,0,47.0,FINE,2088,457079.200,3141587,18,18;SOL_COMPUTED,NARROW_INT,0.4366,161.8075,-16.4166,0.0000,0.5663,1.3040,"999",36,33,33,18,3,01,3,f3*ab5f1587
$GNGGA,065741.30,3039.10579974,N,12047.28098652,E,4,34,0.6,4.5166,M,9.8161,M,11,0*70
$GNRMC,065741.30,A,3039.10579974,N,12047.28098652,E,0.077,297.3,170120,5.8,W,D*3A
#HEADINGA,COM2,0,47.0,FINE,2088,457079.300,3141685,18,18;SOL_COMPUTED,NARROW_INT,0.4342,161.5158,-16.1491,0.0000,0.5689,1.3119,"999",36,33,33,18,3,01,3,f3*6ba918d3
$GNGGA,065741.40,3039.10579935,N,12047.28098615,E,4,34,0.6,4.5184,M,9.8161,M,11,0*7D
$GNRMC,065741.40,A,3039.10579935,N,12047.28098615,E,0.018,219.5,170120,5.8,W,D*32
#HEADINGA,COM2,0,47.0,FINE,2088,457079.400,3141785,18,18;SOL_COMPUTED,NARROW_INT,0.4369,161.4224,-15.9123,0.0000,0.5648,1.3040,"999",36,33,33,18,3,01,3,f3*7e27e391
$GNGGA,065741.50,3039.10579838,N,12047.28098742,E,4,34,0.6,4.5263,M,9.8161,M,11,0*79
$GNRMC,065741.50,A,3039.10579838,N,12047.28098742,E,0.053,131.5,170120,5.8,W,D*3A
#HEADINGA,COM2,0,47.0,FINE,2088,457079.500,3141886,17,18;SOL_COMPUTED,NARROW_INT,0.4336,161.5741,-16.5979,0.0000,0.5715,1.3133,"999",36,33,33,18,3,01,3,f3*9804bffe
$GNGGA,065741.60,3039.10579884,N,12047.28098682,E,4,34,0.6,4.5248,M,9.8161,M,11,0*79
$GNRMC,065741.60,A,3039.10579884,N,12047.28098682,E,0.025,311.1,170120,5.8,W,D*36
#HEADINGA,COM2,0,47.0,FINE,2088,457079.600,3141986,17,18;SOL_COMPUTED,NARROW_INT,0.4333,161.5710,-16.0374,0.0000,0.5701,1.3143,"999",36,33,33,18,3,01,3,f3*7431ef90
$GNGGA,065741.70,3039.10579927,N,12047.28098812,E,4,34,0.6,4.5227,M,9.8161,M,11,0*7E
$GNRMC,065741.70,A,3039.10579927,N,12047.28098812,E,0.043,69.1,170120,5.8,W,D*04
#HEADINGA,COM2,0,47.0,FINE,2088,457079.700,3142085,18,18;SOL_COMPUTED,NARROW_INT,0.4360,161.9207,-16.8333,0.0000,0.5685,1.3054,"999",36,33,33,18,3,01,3,f3*9ad1b438
$GNGGA,065741.80,3039.10579900,N,12047.28098690,E,4,34,0.6,4.5277,M,9.8161,M,11,0*75
$GNRMC,065741.80,A,3039.10579900,N,12047.28098690,E,0.039,255.9,170120,5.8,W,D*32
#HEADINGA,COM2,0,47.0,FINE,2088,457079.800,3142185,18,18;SOL_COMPUTED,NARROW_INT,0.4360,161.3366,-16.8306,0.0000,0.5696,1.3059,"999",36,33,33,18,3,01,3,f3*79368c32
$GNGGA,065741.90,3039.10579840,N,12047.28098593,E,4,34,0.6,4.5262,M,9.8161,M,11,0*75
$GNRMC,065741.90,A,3039.10579840,N,12047.28098593,E,0.037,234.3,170120,5.8,W,D*35
#HEADINGA,COM2,0,47.0,FINE,2088,457079.900,3142285,20,18;SOL_COMPUTED,NARROW_INT,0.4328,161.5961,-16.3122,0.0000,0.5713,1.3086,"999",36,33,33,18,3,01,3,f3*301ff584
#REFSTATIONA,COM2,0,47.0,FINE,2088,457064.000,3141587,802,18;00000000,-2811044.342,4717820.352,3232735.546,0,RTCMV3,"0000"*95a07da9
$GNGGA,065742.00,3039.10579796,N,12047.28098615,E,4,34,0.6,4.5211,M,9.8161,M,12,0*71
$GNRMC,065742.00,A,3039.10579796,N,12047.28098615,E,0.017,157.1,170120,5.8,W,D*30
#HEADINGA,COM2,0,27.0,FINE,2088,457080.000,3142385,23,18;SOL_COMPUTED,NARROW_INT,0.4360,161.8790,-17.1313,0.0000,0.5687,1.2989,"999",36,33,33,18,3,01,3,f3*ba602e93
$GNGGA,065742.10,3039.10579914,N,12047.28098510,E,4,34,0.6,4.5196,M,9.8161,M,12,0*7E
$GNRMC,065742.10,A,3039.10579914,N,12047.28098510,E,0.053,322.5,170120,5.8,W,D*37
#HEADINGA,COM2,0,27.0,FINE,2088,457080.100,3142486,17,18;SOL_COMPUTED,NARROW_INT,0.4338,161.9479,-15.2511,0.0000,0.5667,1.3067,"999",36,33,33,18,3,01,3,f3*0cd9d433
$GNGGA,065742.20,3039.10579920,N,12047.28098590,E,4,34,0.6,4.5213,M,9.8161,M,12,0*7C
$GNRMC,065742.20,A,3039.10579920,N,12047.28098590,E,0.025,85.3,170120,5.8,W,D*02
#HEADINGA,COM2,0,27.0,FINE,2088,457080.200,3142586,18,18;SOL_COMPUTED,NARROW_INT,0.4347,162.4729,-16.8340,0.0000,0.5694,1.3023,"999",36,33,33,18,3,01,3,f3*11792661
$GNGGA,065742.30,3039.10579816,N,12047.28098641,E,4,34,0.6,4.5298,M,9.8161,M,12,0*75
$GNRMC,065742.30,A,3039.10579816,N,12047.28098641,E,0.040,156.9,170120,5.8,W,D*3E
#HEADINGA,COM2,0,27.0,FINE,2088,457080.300,3142686,17,18;SOL_COMPUTED,NARROW_INT,0.4377,161.4932,-17.3518,0.0000,0.5680,1.2937,"999",36,33,33,18,3,01,3,f3*ce1db973
$GNGGA,065742.40,3039.10579805,N,12047.28098735,E,4,34,0.6,4.5321,M,9.8161,M,12,0*71
$GNRMC,065742.40,A,3039.10579805,N,12047.28098735,E,0.030,98.2,170120,5.8,W,D*06
#HEADINGA,COM2,0,27.0,FINE,2088,457080.400,3142786,17,18;SOL_COMPUTED,NARROW_INT,0.4343,162.0630,-16.2468,0.0000,0.5688,1.3046,"999",36,33,33,18,3,01,3,f3*ae81effd
$GNGGA,065742.50,3039.10579835,N,12047.28098510,E,4,34,0.6,4.5369,M,9.8161,M,12,0*7A
$GNRMC,065742.50,A,3039.10579835,N,12047.28098510,E,0.071,278.9,170120,5.8,W,D*33
#HEADINGA,COM2,0,27.0,FINE,2088,457080.500,3142885,20,18;SOL_COMPUTED,NARROW_INT,0.4374,161.6924,-16.9760,0.0000,0.5665,1.2943,"999",36,33,33,18,3,01,3,f3*6e57dd44
$GNGGA,065742.60,3039.10579695,N,12047.28098450,E,4,34,0.6,4.5372,M,9.8161,M,12,0*72
$GNRMC,065742.60,A,3039.10579695,N,12047.28098450,E,0.054,200.4,170120,5.8,W,D*34
#HEADINGA,COM2,0,27.0,FINE,2088,457080.600,3142985,17,18;SOL_COMPUTED,NARROW_INT,0.4347,161.7699,-17.1753,0.0000,0.5710,1.3087,"999",36,33,33,18,3,01,3,f3*304ee747
$GNGGA,065742.70,3039.10579728,N,12047.28098582,E,4,34,0.6,4.5360,M,9.8161,M,12,0*79
$GNRMC,065742.70,A,3039.10579728,N,12047.28098582,E,0.043,73.8,170120,5.8,W,D*00
#HEADINGA,COM2,0,27.0,FINE,2088,457080.700,3143085,17,18;SOL_COMPUTED,NARROW_INT,0.4356,161.8496,-17.3526,0.0000,0.5701,1.2997,"999",36,33,33,18,3,01,3,f3*b54ad09b
$GNGGA,065742.80,3039.10579816,N,12047.28098511,E,4,34,0.6,4.5360,M,9.8161,M,12,0*7E
$GNRMC,065742.80,A,3039.10579816,N,12047.28098511,E,0.038,325.0,170120,5.8,W,D*33
#HEADINGA,COM2,0,27.0,FINE,2088,457080.800,3143185,17,18;SOL_COMPUTED,NARROW_INT,0.4369,161.8082,-16.8444,0.0000,0.5668,1.2949,"999",36,33,33,18,3,01,3,f3*4b3b8676
$GNGGA,065742.90,3039.10579781,N,12047.28098324,E,4,34,0.6,4.5333,M,9.8161,M,12,0*78
$GNRMC,065742.90,A,3039.10579781,N,12047.28098324,E,0.060,258.0,170120,5.8,W,D*35
#HEADINGA,COM2,0,27.0,FINE,2088,457080.900,3143285,16,18;SOL_COMPUTED,NARROW_INT,0.4350,161.2748,-15.8780,0.0000,0.5668,1.3016,"999",36,33,33,18,3,01,3,f3*15e6f4c7
#REFSTATIONA,COM2,0,47.0,FINE,2088,457064.000,3141587,1803,18;00000000,-2811044.342,4717820.352,3232735.546,0,RTCMV3,"0000"*ad7d3e1f
$GNGGA,065743.00,3039.10579815,N,12047.28098506,E,4,34,0.6,4.5359,M,9.8161,M,13,0*79
$GNRMC,065743.00,A,3039.10579815,N,12047.28098506,E,0.058,78.0,170120,5.8,W,D*02
#HEADINGA,COM2,0,27.0,FINE,2088,457081.000,3143386,22,18;SOL_COMPUTED,NARROW_INT,0.4341,162.1344,-16.1849,0.0000,0.5683,1.3037,"999",36,33,33,18,3,01,3,f3*8f63d239
$GNGGA,065743.10,3039.10579831,N,12047.28098403,E,4,34,0.6,4.5331,M,9.8161,M,13,0*74
$GNRMC,065743.10,A,3039.10579831,N,12047.28098403,E,0.033,280.4,170120,5.8,W,D*3D
#HEADINGA,COM2,0,27.0,FINE,2088,457081.100,3143485,17,18;SOL_COMPUTED,NARROW_INT,0.4377,161.3720,-15.7541,0.0000,0.5629,1.2936,"999",36,33,33,18,3,01,3,f3*f9c2aa00
$GNGGA,065743.20,3039.10579717,N,12047.28098580,E,4,34,0.6,4.5424,M,9.8161,M,13,0*75
$GNRMC,065743.20,A,3039.10579717,N,12047.28098580,E,0.069,126.6,170120,5.8,W,D*3D
#HEADINGA,COM2,0,27.0,FINE,2088,457081.200,3143586,18,18;SOL_COMPUTED,NARROW_INT,0.4349,161.9901,-16.0467,0.0000,0.5670,1.3019,"999",36,33,33,18,3,01,3,f3*385d74cd
$GNGGA,065743.30,3039.10579810,N,12047.28098423,E,4,34,0.6,4.5354,M,9.8161,M,13,0*74
$GNRMC,065743.30,A,3039.10579810,N,12047.28098423,E,0.059,304.3,170120,5.8,W,D*38
#HEADINGA,COM2,0,27.0,FINE,2088,457081.300,3143685,17,18;SOL_COMPUTED,NARROW_INT,0.4358,161.6780,-15.9759,0.0000,0.5652,1.2983,"999",36,33,33,18,3,01,3,f3*46335f4a
$GNGGA,065743.40,3039.10579710,N,12047.28098457,E,4,34,0.6,4.5375,M,9.8161,M,13,0*7C
$GNRMC,065743.40,A,3039.10579710,N,12047.28098457,E,0.038,163.5,170120,5.8,W,D*31
#HEADINGA,COM2,0,27.0,FINE,2088,457081.400,3143785,17,18;SOL_COMPUTED,NARROW_INT,0.4357,161.5001,-16.7263,0.0000,0.5682,1.2989,"999",36,33,33,18,3,01,3,f3*578ee642
$GNGGA,065743.50,3039.10579796,N,12047.28098621,E,4,34,0.6,4.5422,M,9.8161,M,13,0*75
$GNRMC,065743.50,A,3039.10579796,N,12047.28098621,E,0.060,58.6,170120,5.8,W,D*0A
#HEADINGA,COM2,0,27.0,FINE,2088,457081.500,3143885,17,18;SOL_COMPUTED,NARROW_INT,0.4380,162.2897,-16.9244,0.0000,0.5652,1.2913,"999",36,33,33,18,3,01,3,f3*0f497832
$GNGGA,065743.60,3039.10579631,N,12047.28098551,E,4,34,0.6,4.5397,M,9.8161,M,13,0*77
$GNRMC,065743.60,A,3039.10579631,N,12047.28098551,E,0.063,200.1,170120,5.8,W,D*3A
#HEADINGA,COM2,0,27.0,FINE,2088,457081.600,3143986,16,18;SOL_COMPUTED,NARROW_INT,0.4350,161.7597,-16.2172,0.0000,0.5673,1.3007,"999",36,33,33,18,3,01,3,f3*150c7ad8
$GNGGA,065743.70,3039.10579671,N,12047.28098327,E,4,34,0.6,4.5367,M,9.8161,M,13,0*7A
$GNRMC,065743.70,A,3039.10579671,N,12047.28098327,E,0.071,281.8,170120,5.8,W,D*3B
#HEADINGA,COM2,0,27.0,FINE,2088,457081.700,3144085,17,18;SOL_COMPUTED,NARROW_INT,0.4357,161.7809,-16.9723,0.0000,0.5688,1.2984,"999",36,33,33,18,3,01,3,f3*bb34acb5
$GNGGA,065743.80,3039.10579706,N,12047.28098591,E,4,34,0.6,4.5369,M,9.8161,M,13,0*71
$GNRMC,065743.80,A,3039.10579706,N,12047.28098591,E,0.083,81.2,170120,5.8,W,D*0B
#HEADINGA,COM2,0,27.0,FINE,2088,457081.800,3144185,17,18;SOL_COMPUTED,NARROW_INT,0.4340,161.6509,-16.1984,0.0000,0.5685,1.3038,"999",36,33,33,18,3,01,3,f3*556c5ecc
$GNGGA,065743.90,3039.10579823,N,12047.28098378,E,4,34,0.6,4.5321,M,9.8161,M,13,0*75
$GNRMC,065743.90,A,3039.10579823,N,12047.28098378,E,0.078,302.4,170120,5.8,W,D*39
#HEADINGA,COM2,0,27.0,FINE,2088,457081.900,3144285,17,18;SOL_COMPUTED,NARROW_INT,0.4348,161.7303,-15.8022,0.0000,0.5666,1.3022,"999",36,33,33,18,3,01,3,f3*9b0efeaa
#REFSTATIONA,COM2,0,47.0,FINE,2088,457064.000,3141587,2802,18;00000000,-2811044.342,4717820.352,3232735.546,0,RTCMV3,"0000"*40ea11c5
$GNGGA,065744.00,3039.10579814,N,12047.28098572,E,4,34,0.6,4.5378,M,9.8161,M,14,0*78
$GNRMC,065744.00,A,3039.10579814,N,12047.28098572,E,0.060,93.3,170120,5.8,W,D*0A
#HEADINGA,COM2,0,27.0,FINE,2088,457082.000,3144385,23,18;SOL_COMPUTED,NARROW_INT,0.4375,161.9310,-16.5886,0.0000,0.5650,1.2936,"999",36,33,33,18,3,01,3,f3*9b56de1f
$GNGGA,065744.10,3039.10579722,N,12047.28098430,E,4,34,0.6,4.5347,M,9.8161,M,14,0*78
$GNRMC,065744.10,A,3039.10579722,N,12047.28098430,E,0.055,233.1,170120,5.8,W,D*3A
#HEADINGA,COM2,0,27.0,FINE,2088,457082.100,3144486,17,18;SOL_COMPUTED,NARROW_INT,0.4351,161.7595,-16.7246,0.0000,0.5688,1.3008,"999",36,33,33,18,3,01,3,f3*74f26a03
$GNGGA,065744.20,3039.10579810,N,12047.28098358,E,4,34,0.6,4.5279,M,9.8161,M,14,0*70
$GNRMC,065744.20,A,3039.10579810,N,12047.28098358,E,0.039,324.8,170120,5.8,W,D*3A
#HEADINGA,COM2,0,27.0,FINE,2088,457082.200,3144587,17,18;SOL_COMPUTED,NARROW_INT,0.4364,161.6252,-16.6792,0.0000,0.5666,1.2961,"999",36,33,33,18,3,01,3,f3*bb4344df
$GNGGA,065744.30,3039.10579802,N,12047.28098375,E,4,34,0.6,4.5269,M,9.8161,M,14,0*7C
$GNRMC,065744.30,A,3039.10579802,N,12047.28098375,E,0.006,119.3,170120,5.8,W,D*3C
#HEADINGA,COM2,0,27.0,FINE,2088,457082.300,3144685,17,18;SOL_COMPUTED,NARROW_INT,0.4364,161.5688,-16.8901,0.0000,0.5674,1.2956,"999",36,33,33,18,3,01,3,f3*97171e16
$GNGGA,065744.40,3039.10579771,N,12047.28098502,E,4,34,0.6,4.5399,M,9.8161,M,14,0*78
$GNRMC,065744.40,A,3039.10579771,N,12047.28098502,E,0.041,105.8,170120,5.8,W,D*33
#HEADINGA,COM2,0,27.0,FINE,2088,457082.400,3144786,17,18;SOL_COMPUTED,NARROW_INT,0.4377,161.4178,-16.2947,0.0000,0.5635,1.2922,"999",36,33,33,18,3,01,3,f3*70dfdb80
$GNGGA,065744.50,3039.10579793,N,12047.28098454,E,4,34,0.6,4.5389,M,9.8161,M,14,0*76
$GNRMC,065744.50,A,3039.10579793,N,12047.28098454,E,0.017,297.8,170120,5.8,W,D*37
#HEADINGA,COM2,0,27.0,FINE,2088,457082.500,3144886,17,18;SOL_COMPUTED,NARROW_INT,0.4363,161.6653,-15.9574,0.0000,0.5640,1.2977,"999",36,33,33,18,3,01,3,f3*7affcfdb
$GNGGA,065744.60,3039.10579786,N,12047.28098418,E,4,34,0.6,4.5339,M,9.8161,M,14,0*72
$GNRMC,065744.60,A,3039.10579786,N,12047.28098418,E,0.011,258.4,170120,5.8,W,D*31
#HEADINGA,COM2,0,27.0,FINE,2088,457082.600,3144985,17,18;SOL_COMPUTED,NARROW_INT,0.4340,161.7359,-16.3513,0.0000,0.5683,1.3046,"999",36,33,33,18,3,01,3,f3*0f80fe9d
$GNGGA,065744.70,3039.10579725,N,12047.28098359,E,4,34,0.6,4.5347,M,9.8161,M,14,0*71
$GNRMC,065744.70,A,3039.10579725,N,12047.28098359,E,0.029,220.2,170120,5.8,W,D*39
#HEADINGA,COM2,0,27.0,FINE,2088,457082.700,3145085,17,18;SOL_COMPUTED,NARROW_INT,0.4366,161.7201,-16.4327,0.0000,0.5651,1.2959,"999",36,33,33,18,3,01,3,f3*6ca15e36
$GNGGA,065744.80,3039.10579768,N,12047.28098557,E,4,34,0.6,4.5345,M,9.8161,M,14,0*7D
$GNRMC,065744.80,A,3039.10579768,N,12047.28098557,E,0.063,76.2,170120,5.8,W,D*08
#HEADINGA,COM2,0,27.0,FINE,2088,457082.800,3145185,17,18;SOL_COMPUTED,NARROW_INT,0.4356,161.4470,-16.6990,0.0000,0.5678,1.2991,"999",36,33,33,18,3,01,3,f3*895ab540
$GNGGA,065744.90,3039.10579701,N,12047.28098462,E,4,34,0.6,4.5390,M,9.8161,M,14,0*7C
$GNRMC,065744.90,A,3039.10579701,N,12047.28098462,E,0.038,230.6,170120,5.8,W,D*3B
#HEADINGA,COM2,0,27.0,FINE,2088,457082.900,3145285,16,18;SOL_COMPUTED,NARROW_INT,0.4348,161.4954,-17.1359,0.0000,0.5700,1.3007,"999",36,33,33,18,3,01,3,f3*3921c5b9
#REFSTATIONA,COM2,0,47.0,FINE,2088,457064.000,3141587,3802,18;00000000,-2811044.342,4717820.352,3232735.546,0,RTCMV3,"0000"*95ef6db9
$GNGGA,065745.00,3039.10579693,N,12047.28098542,E,4,34,0.6,4.5407,M,9.8161,M,15,0*75
$GNRMC,065745.00,A,3039.10579693,N,12047.28098542,E,0.025,96.6,170120,5.8,W,D*08
#HEADINGA,COM2,0,61.0,FINE,2088,457083.000,3145385,23,18;SOL_COMPUTED,NARROW_INT,0.4368,161.9118,-17.0128,0.0000,0.5672,1.2954,"999",36,33,33,18,3,01,3,f3*cca6ce82
$GNGGA,065745.10,3039.10579787,N,12047.28098463,E,4,34,0.6,4.5404,M,9.8161,M,15,0*71
$GNRMC,065745.10,A,3039.10579787,N,12047.28098463,E,0.042,324.3,170120,5.8,W,D*31
#HEADINGA,COM2,0,61.0,FINE,2088,457083.100,3145485,18,18;SOL_COMPUTED,NARROW_INT,0.4367,161.4608,-16.8358,0.0000,0.5671,1.2960,"999",36,33,33,18,3,01,3,f3*596259b7
$GNGGA,065745.20,3039.10579792,N,12047.28098487,E,4,34,0.6,4.5365,M,9.8161,M,15,0*7C
$GNRMC,065745.20,A,3039.10579792,N,12047.28098487,E,0.008,74.9,170120,5.8,W,D*0E
#HEADINGA,COM2,0,61.0,FINE,2088,457083.200,3145587,18,18;SOL_COMPUTED,NARROW_INT,0.4373,161.7009,-16.5560,0.0000,0.5654,1.2945,"999",36,33,33,18,3,01,3,f3*6ca350d0
$GNGGA,065745.30,3039.10579706,N,12047.28098581,E,4,34,0.6,4.5407,M,9.8161,M,15,0*74
$GNRMC,065745.30,A,3039.10579706,N,12047.28098581,E,0.043,136.7,170120,5.8,W,D*33
#HEADINGA,COM2,0,61.0,FINE,2088,457083.300,3145685,18,18;SOL_COMPUTED,NARROW_INT,0.4346,161.4608,-16.6938,0.0000,0.5693,1.3025,"999",36,33,33,18,3,01,3,f3*f4a9093d
$GNGGA,065745.40,3039.10579763,N,12047.28098487,E,4,34,0.6,4.5352,M,9.8161,M,15,0*70
$GNRMC,065745.40,A,3039.10579763,N,12047.28098487,E,0.036,304.9,170120,5.8,W,D*3F
#HEADINGA,COM2,0,61.0,FINE,2088,457083.400,3145786,17,18;SOL_COMPUTED,NARROW_INT,0.4320,161.1011,-16.6900,0.0000,0.5733,1.3110,"999",36,33,33,18,3,01,3,f3*0e3e8ea6
$GNGGA,065745.50,3039.10579559,N,12047.28098540,E,4,34,0.6,4.5390,M,9.8161,M,15,0*7E
$GNRMC,065745.50,A,3039.10579559,N,12047.28098540,E,0.075,167.3,170120,5.8,W,D*35
#HEADINGA,COM2,0,61.0,FINE,2088,457083.500,3145885,17,18;SOL_COMPUTED,NARROW_INT,0.4354,161.5147,-16.6084,0.0000,0.5678,1.3002,"999",36,33,33,18,3,01,3,f3*93323668
$GNGGA,065745.60,3039.10579701,N,12047.28098452,E,4,34,0.6,4.5302,M,9.8161,M,15,0*7B
$GNRMC,065745.60,A,3039.10579701,N,12047.28098452,E,0.058,332.1,170120,5.8,W,D*34
#HEADINGA,COM2,0,61.0,FINE,2088,457083.600,3145985,18,18;SOL_COMPUTED,NARROW_INT,0.4354,161.5955,-16.1347,0.0000,0.5660,1.2992,"999",36,33,33,18,3,01,3,f3*1aaafe53
$GNGGA,065745.70,3039.10579783,N,12047.28098463,E,4,34,0.6,4.5319,M,9.8161,M,15,0*78
$GNRMC,065745.70,A,3039.10579783,N,12047.28098463,E,0.030,6.1,170120,5.8,W,D*37
#HEADINGA,COM2,0,61.0,FINE,2088,457083.700,3146085,17,18;SOL_COMPUTED,NARROW_INT,0.4344,161.7281,-15.9460,0.0000,0.5665,1.3028,"999",36,33,33,18,3,01,3,f3*13d930fb
$GNGGA,065745.80,3039.10579789,N,12047.28098469,E,4,34,0.6,4.5190,M,9.8161,M,15,0*74
$GNRMC,065745.80,A,3039.10579789,N,12047.28098469,E,0.003,43.7,170120,5.8,W,D*0F
#HEADINGA,COM2,0,61.0,FINE,2088,457083.800,3146185,20,18;SOL_COMPUTED,NARROW_INT,0.4367,161.7147,-16.2232,0.0000,0.5643,1.2955,"999",36,33,33,18,3,01,3,f3*2db9ea3d
$GNGGA,065745.90,3039.10579860,N,12047.28098373,E,4,34,0.6,4.5216,M,9.8161,M,15,0*7C
$GNRMC,065745.90,A,3039.10579860,N,12047.28098373,E,0.039,310.7,170120,5.8,W,D*36
#HEADINGA,COM2,0,61.0,FINE,2088,457083.900,3146285,16,18;SOL_COMPUTED,NARROW_INT,0.4372,161.5062,-16.5198,0.0000,0.5650,1.2944,"999",36,33,33,18,3,01,3,f3*f23df32a
#REFSTATIONA,COM2,0,47.0,FINE,2088,457064.000,3141587,4802,18;00000000,-2811044.342,4717820.352,3232735.546,0,RTCMV3,"0000"*d366120e
$GNGGA,065746.00,3039.10579921,N,12047.28098410,E,4,34,0.6,4.5203,M,9.8161,M,16,0*77
$GNRMC,065746.00,A,3039.10579921,N,12047.28098410,E,0.025,28.0,170120,5.8,W,D*08
#HEADINGA,COM2,0,61.0,FINE,2088,457084.000,3146385,23,18;SOL_COMPUTED,NARROW_INT,0.4358,161.4199,-15.6813,0.0000,0.5645,1.2997,"999",36,33,33,18,3,01,3,f3*77d21c9c
$GNGGA,065746.10,3039.10579843,N,12047.28098348,E,4,34,0.6,4.5224,M,9.8161,M,16,0*7C
$GNRMC,065746.10,A,3039.10579843,N,12047.28098348,E,0.034,214.6,170120,5.8,W,D*3D
#HEADINGA,COM2,0,61.0,FINE,2088,457084.100,3146485,18,18;SOL_COMPUTED,NARROW_INT,0.4373,161.2811,-16.5371,0.0000,0.5651,1.2941,"999",36,33,33,18,3,01,3,f3*904712ff
$GNGGA,065746.20,3039.10579842,N,12047.28098363,E,4,34,0.6,4.5214,M,9.8161,M,16,0*74
$GNRMC,065746.20,A,3039.10579842,N,12047.28098363,E,0.005,94.2,170120,5.8,W,D*0A
#HEADINGA,COM2,0,61.0,FINE,2088,457084.200,3146586,18,18;SOL_COMPUTED,NARROW_INT,0.4368,161.6775,-15.6356,0.0000,0.5632,1.2958,"999",36,33,33,18,3,01,3,f3*05523d50
$GNGGA,065746.30,3039.10579871,N,12047.28098448,E,4,34,0.6,4.5131,M,9.8161,M,15,0*7C
$GNRMC,065746.30,A,3039.10579871,N,12047.28098448,E,0.028,68.4,170120,5.8,W,D*0F
#HEADINGA,COM2,0,61.0,FINE,2088,457084.300,3146686,17,18;SOL_COMPUTED,NARROW_INT,0.4366,161.4057,-16.1360,0.0000,0.5648,1.2977,"999",36,33,33,18,3,01,3,f3*699e0e1d
$GNGGA,065746.40,3039.10579850,N,12047.28098563,E,4,34,0.6,4.5192,M,9.8161,M,15,0*79
$GNRMC,065746.40,A,3039.10579850,N,12047.28098563,E,0.037,102.3,170120,5.8,W,D*37
#HEADINGA,COM2,0,61.0,FINE,2088,457084.400,3146785,18,18;SOL_COMPUTED,NARROW_INT,0.4356,161.7900,-17.0873,0.0000,0.5690,1.3005,"999",36,33,33,18,3,01,3,f3*ac4083c9
$GNGGA,065746.50,3039.10579830,N,12047.28098501,E,4,34,0.6,4.5154,M,9.8161,M,15,0*70
$GNRMC,065746.50,A,3039.10579830,N,12047.28098501,E,0.021,249.7,170120,5.8,W,D*3B
#HEADINGA,COM2,0,61.0,FINE,2088,457084.500,3146885,18,18;SOL_COMPUTED,NARROW_INT,0.4326,161.4356,-16.1474,0.0000,0.5702,1.3106,"999",36,33,33,18,3,01,3,f3*dd9a3186
$GNGGA,065746.60,3039.10579788,N,12047.28098547,E,4,34,0.6,4.5194,M,9.8161,M,15,0*71
$GNRMC,065746.60,A,3039.10579788,N,12047.28098547,E,0.021,136.7,170120,5.8,W,D*3D
#HEADINGA,COM2,0,61.0,FINE,2088,457084.600,3146986,17,18;SOL_COMPUTED,NARROW_INT,0.4344,161.6369,-16.8097,0.0000,0.5701,1.3048,"999",36,33,33,18,3,01,3,f3*3329e331
$GNGGA,065746.70,3039.10579773,N,12047.28098627,E,4,34,0.6,4.5254,M,9.8161,M,15,0*7E
$GNRMC,065746.70,A,3039.10579773,N,12047.28098627,E,0.025,101.7,170120,5.8,W,D*3D
#HEADINGA,COM2,0,61.0,FINE,2088,457084.700,3147085,17,18;SOL_COMPUTED,NARROW_INT,0.4372,161.8830,-16.9425,0.0000,0.5661,1.2955,"999",36,33,33,18,3,01,3,f3*3e2408c3
$GNGGA,065746.80,3039.10579815,N,12047.28098705,E,4,34,0.6,4.5210,M,9.8161,M,15,0*7F
$GNRMC,065746.80,A,3039.10579815,N,12047.28098705,E,0.029,58.1,170120,5.8,W,D*0B
#HEADINGA,COM2,0,61.0,FINE,2088,457084.800,3147185,18,18;SOL_COMPUTED,NARROW_INT,0.4355,161.6904,-16.8072,0.0000,0.5681,1.3008,"999",36,33,33,18,3,01,3,f3*719692ed
$GNGGA,065746.90,3039.10579774,N,12047.28098520,E,4,34,0.6,4.5185,M,9.8161,M,15,0*7C
$GNRMC,065746.90,A,3039.10579774,N,12047.28098520,E,0.059,255.4,170120,5.8,W,D*3A
#HEADINGA,COM2,0,61.0,FINE,2088,457084.900,3147285,20,18;SOL_COMPUTED,NARROW_INT,0.4355,161.7149,-16.6781,0.0000,0.5677,1.3008,"999",36,33,33,18,3,01,3,f3*1feb2e1d
#REFSTATIONA,COM2,0,61.0,FINE,2088,457064.000,3146586,803,18;00000000,-2811044.342,4717820.352,3232735.546,0,RTCMV3,"0000"*092090ef
$GNGGA,065747.00,3039.10579646,N,12047.28098563,E,4,34,0.6,4.5188,M,9.8161,M,16,0*7D
$GNRMC,065747.00,A,3039.10579646,N,12047.28098563,E,0.048,163.9,170120,5.8,W,D*3E
#HEADINGA,COM2,0,61.0,FINE,2088,457085.000,3147385,23,18;SOL_COMPUTED,NARROW_INT,0.4335,161.8908,-17.3162,0.0000,0.5721,1.3056,"999",36,33,33,18,3,01,3,f3*104ff38c
$GNGGA,065747.10,3039.10579559,N,12047.28098547,E,4,34,0.6,4.5240,M,9.8161,M,16,0*70
$GNRMC,065747.10,A,3039.10579559,N,12047.28098547,E,0.031,188.8,170120,5.8,W,D*3E
#HEADINGA,COM2,0,61.0,FINE,2088,457085.100,3147485,18,18;SOL_COMPUTED,NARROW_INT,0.4344,161.7376,-16.9828,0.0000,0.5700,1.3031,"999",36,33,33,18,3,01,3,f3*b492beb2
$GNGGA,065747.20,3039.10579622,N,12047.28098596,E,4,34,0.6,4.5288,M,9.8161,M,16,0*74
$GNRMC,065747.20,A,3039.10579622,N,12047.28098596,E,0.027,34.1,170120,5.8,W,D*06
#HEADINGA,COM2,0,61.0,FINE,2088,457085.200,3147587,19,18;SOL_COMPUTED,NARROW_INT,0.4369,161.6722,-17.1761,0.0000,0.5670,1.2949,"999",36,33,33,18,3,01,3,f3*069ce183
$GNGGA,065747.30,3039.10579659,N,12047.28098704,E,4,35,0.5,4.5232,M,9.8161,M,14,0*71
$GNRMC,065747.30,A,3039.10579659,N,12047.28098704,E,0.036,68.5,170120,5.8,W,D*0F
#HEADINGA,COM2,0,61.0,FINE,2088,457085.300,3147685,18,18;SOL_COMPUTED,NARROW_INT,0.4347,161.4620,-16.4342,0.0000,0.5679,1.3030,"999",36,33,33,18,3,01,3,f3*2142d0f2
$GNGGA,065747.40,3039.10579825,N,12047.28098647,E,4,35,0.5,4.5186,M,9.8161,M,14,0*79
$GNRMC,065747.40,A,3039.10579825,N,12047.28098647,E,0.062,343.4,170120,5.8,W,D*31
#HEADINGA,COM2,0,61.0,FINE,2088,457085.400,3147785,18,18;SOL_COMPUTED,NARROW_INT,0.4371,161.6548,-16.0307,0.0000,0.5635,1.2956,"999",36,33,33,18,3,01,3,f3*bbc8632c
$GNGGA,065747.50,3039.10579639,N,12047.28098617,E,4,35,0.5,4.5241,M,9.8161,M,14,0*76
$GNRMC,065747.50,A,3039.10579639,N,12047.28098617,E,0.068,187.8,170120,5.8,W,D*3A
#HEADINGA,COM2,0,61.0,FINE,2088,457085.500,3147885,18,18;SOL_COMPUTED,NARROW_INT,0.4356,161.3291,-16.4151,0.0000,0.5669,1.2998,"999",36,33,33,18,3,01,3,f3*ef9ed452
$GNGGA,065747.60,3039.10579709,N,12047.28098627,E,4,35,0.5,4.5189,M,9.8161,M,14,0*73
$GNRMC,065747.60,A,3039.10579709,N,12047.28098627,E,0.025,7.3,170120,5.8,W,D*33
#HEADINGA,COM2,0,61.0,FINE,2088,457085.600,3147985,17,18;SOL_COMPUTED,NARROW_INT,0.4363,161.7147,-17.2862,0.0000,0.5687,1.2971,"999",36,33,33,18,3,01,3,f3*da247c2f
$GNGGA,065747.70,3039.10579669,N,12047.28098481,E,4,35,0.5,4.5186,M,9.8161,M,14,0*74
$GNRMC,065747.70,A,3039.10579669,N,12047.28098481,E,0.047,252.7,170120,5.8,W,D*39
#HEADINGA,COM2,0,61.0,FINE,2088,457085.700,3148085,17,18;SOL_COMPUTED,NARROW_INT,0.4342,161.7298,-16.3076,0.0000,0.5684,1.3046,"999",36,33,33,18,3,01,3,f3*6db743e4
$GNGGA,065747.80,3039.10579522,N,12047.28098585,E,4,35,0.5,4.5241,M,9.8161,M,14,0*7A
$GNRMC,065747.80,A,3039.10579522,N,12047.28098585,E,0.062,148.7,170120,5.8,W,D*30
#HEADINGA,COM2,0,61.0,FINE,2088,457085.800,3148185,18,18;SOL_COMPUTED,NARROW_INT,0.4327,161.6273,-17.2256,0.0000,0.5730,1.3078,"999",36,33,33,18,3,01,3,f3*be9949ac
$GNGGA,065747.90,3039.10579615,N,12047.28098528,E,4,34,0.6,4.5268,M,9.8161,M,14,0*72
$GNRMC,065747.90,A,3039.10579615,N,12047.28098528,E,0.038,332.1,170120,5.8,W,D*37
#HEADINGA,COM2,0,61.0,FINE,2088,457085.900,3148284,20,18;SOL_COMPUTED,NARROW_INT,0.4388,162.1730,-16.9780,0.0000,0.5634,1.2895,"999",36,33,33,18,3,01,3,f3*2f649c42
#REFSTATIONA,COM2,0,61.0,FINE,2088,457064.000,3147587,802,18;00000000,-2811044.342,4717820.352,3232735.546,0,RTCMV3,"0000"*ee635995
$GNGGA,065748.00,3039.10579502,N,12047.28098417,E,4,35,0.5,4.5257,M,9.8161,M,15,0*73
$GNRMC,065748.00,A,3039.10579502,N,12047.28098417,E,0.053,220.3,170120,5.8,W,D*34
#HEADINGA,COM2,0,31.0,FINE,2088,457086.000,3148385,23,18;SOL_COMPUTED,NARROW_INT,0.4349,161.9005,-16.7455,0.0000,0.5680,1.3015,"999",36,33,33,18,3,01,3,f3*80444a27
$GNGGA,065748.10,3039.10579540,N,12047.28098492,E,4,35,0.5,4.5318,M,9.8161,M,15,0*73
$GNRMC,065748.10,A,3039.10579540,N,12047.28098492,E,0.027,60.3,170120,5.8,W,D*0B
#HEADINGA,COM2,0,31.0,FINE,2088,457086.100,3148485,18,18;SOL_COMPUTED,NARROW_INT,0.4386,161.5835,-17.1947,0.0000,0.5652,1.2902,"999",36,33,33,18,3,01,3,f3*b010b867
$GNGGA,065748.20,3039.10579501,N,12047.28098248,E,4,35,0.5,4.5258,M,9.8161,M,15,0*71
$GNRMC,065748.20,A,3039.10579501,N,12047.28098248,E,0.077,259.7,170120,5.8,W,D*35
#HEADINGA,COM2,0,31.0,FINE,2088,457086.200,3148586,18,18;SOL_COMPUTED,NARROW_INT,0.4371,161.4684,-18.0125,0.0000,0.5699,1.2944,"999",36,33,33,18,3,01,3,f3*6008dd00
$GNGGA,065748.30,3039.10579515,N,12047.28098403,E,4,35,0.5,4.5289,M,9.8161,M,13,0*76
$GNRMC,065748.30,A,3039.10579515,N,12047.28098403,E,0.049,84.3,170120,5.8,W,D*03
#HEADINGA,COM2,0,31.0,FINE,2088,457086.300,3148685,18,18;SOL_COMPUTED,NARROW_INT,0.4365,161.4008,-16.3945,0.0000,0.5648,1.2299,"999",36,34,34,18,3,01,3,f3*3aab15e1
$GNGGA,065748.40,3039.10579627,N,12047.28098309,E,4,35,0.5,4.5167,M,9.8161,M,13,0*7D
$GNRMC,065748.40,A,3039.10579627,N,12047.28098309,E,0.050,323.9,170120,5.8,W,D*37
#HEADINGA,COM2,0,31.0,FINE,2088,457086.400,3148786,17,18;SOL_COMPUTED,NARROW_INT,0.4356,161.5303,-15.9916,0.0000,0.5646,1.2326,"999",36,34,34,18,3,01,3,f3*e43b2564
$GNGGA,065748.50,3039.10579591,N,12047.28098286,E,4,35,0.5,4.5188,M,9.8161,M,13,0*75
$GNRMC,065748.50,A,3039.10579591,N,12047.28098286,E,0.015,209.1,170120,5.8,W,D*3E
#HEADINGA,COM2,0,31.0,FINE,2088,457086.500,3148885,18,18;SOL_COMPUTED,NARROW_INT,0.4368,161.7739,-16.3390,0.0000,0.5638,1.2288,"999",36,34,34,18,3,01,3,f3*802ff6e8
$GNGGA,065748.60,3039.10579516,N,12047.28098217,E,4,35,0.5,4.5223,M,9.8161,M,13,0*73
$GNRMC,065748.60,A,3039.10579516,N,12047.28098217,E,0.034,218.5,170120,5.8,W,D*3D
#HEADINGA,COM2,0,31.0,FINE,2088,457086.600,3148985,20,18;SOL_COMPUTED,NARROW_INT,0.4341,161.7352,-16.2818,0.0000,0.5671,1.2353,"999",36,34,34,18,3,01,3,f3*c4930df2
$GNGGA,065748.70,3039.10579443,N,12047.28098255,E,4,35,0.5,4.5282,M,9.8161,M,13,0*7E
$GNRMC,065748.70,A,3039.10579443,N,12047.28098255,E,0.029,155.1,170120,5.8,W,D*39
#HEADINGA,COM2,0,31.0,FINE,2088,457086.700,3149085,17,18;SOL_COMPUTED,NARROW_INT,0.4354,161.7995,-16.5850,0.0000,0.5671,1.2327,"999",36,34,34,18,3,01,3,f3*34a44837
$GNGGA,065748.80,3039.10579376,N,12047.28098341,E,4,35,0.5,4.5307,M,9.8161,M,13,0*78
$GNRMC,065748.80,A,3039.10579376,N,12047.28098341,E,0.036,132.6,170120,5.8,W,D*3B
#HEADINGA,COM2,0,31.0,FINE,2088,457086.800,3149185,17,18;SOL_COMPUTED,NARROW_INT,0.4342,161.4420,-16.7326,0.0000,0.5693,1.2313,"999",36,34,34,18,3,01,3,f3*be3670fc
$GNGGA,065748.90,3039.10579434,N,12047.28098373,E,4,35,0.5,4.5351,M,9.8161,M,13,0*7A
$GNRMC,065748.90,A,3039.10579434,N,12047.28098373,E,0.023,25.7,170120,5.8,W,D*08
#HEADINGA,COM2,0,31.0,FINE,2088,457086.900,3149285,16,18;SOL_COMPUTED,NARROW_INT,0.4372,161.8544,-16.4004,0.0000,0.5633,1.2227,"999",36,34,34,18,3,01,3,f3*4e22246d
#REFSTATIONA,COM2,0,31.0,FINE,2088,457064.000,3148586,803,18;00000000,-2811044.342,4717820.352,3232735.546,0,RTCMV3,"0000"*8764dec6
$GNGGA,065749.00,3039.10579419,N,12047.28098345,E,4,35,0.5,4.5310,M,9.8161,M,14,0*7A
$GNRMC,065749.00,A,3039.10579419,N,12047.28098345,E,0.010,238.0,170120,5.8,W,D*33
#HEADINGA,COM2,0,31.0,FINE,2088,457087.000,3149385,23,18;SOL_COMPUTED,NARROW_INT,0.4373,161.6839,-17.1860,0.0000,0.5657,1.2220,"999",36,34,34,18,3,01,3,f3*f3b74383
$GNGGA,065749.10,3039.10579347,N,12047.28098253,E,4,35,0.5,4.5344,M,9.8161,M,14,0*70
$GNRMC,065749.10,A,3039.10579347,N,12047.28098253,E,0.038,227.9,170120,5.8,W,D*35
#HEADINGA,COM2,0,31.0,FINE,2088,457087.100,3149485,17,18;SOL_COMPUTED,NARROW_INT,0.4380,161.5000,-17.1808,0.0000,0.5649,1.2184,"999",36,34,34,18,3,01,3,f3*bf5780a2
$GNGGA,065749.20,3039.10579391,N,12047.28098288,E,4,35,0.5,4.5376,M,9.8161,M,14,0*7F
$GNRMC,065749.20,A,3039.10579391,N,12047.28098288,E,0.019,34.4,170120,5.8,W,D*05
#HEADINGA,COM2,0,31.0,FINE,2088,457087.200,3149586,18,18;SOL_COMPUTED,NARROW_INT,0.4370,161.3355,-16.8704,0.0000,0.5654,1.2214,"999",36,34,34,18,3,01,3,f3*f6e73f7c
$GNGGA,065749.30,3039.10579498,N,12047.28098154,E,4,35,0.5,4.5267,M,9.8161,M,13,0*74
$GNRMC,065749.30,A,3039.10579498,N,12047.28098154,E,0.057,312.9,170120,5.8,W,D*38
#HEADINGA,COM2,0,31.0,FINE,2088,457087.300,3149685,18,18;SOL_COMPUTED,NARROW_INT,0.4368,161.4770,-15.8423,0.0000,0.5632,1.2232,"999",36,34,34,18,3,01,3,f3*61cc6637
$GNGGA,065749.40,3039.10579367,N,12047.28098222,E,4,35,0.5,4.5300,M,9.8161,M,13,0*76
$GNRMC,065749.40,A,3039.10579367,N,12047.28098222,E,0.052,155.9,170120,5.8,W,D*3E
#HEADINGA,COM2,0,31.0,FINE,2088,457087.400,3149785,18,18;SOL_COMPUTED,NARROW_INT,0.4392,161.6061,-15.9648,0.0000,0.5604,1.2169,"999",36,34,34,18,3,01,3,f3*110d9acb
$GNGGA,065749.50,3039.10579362,N,12047.28098226,E,4,35,0.5,4.5374,M,9.8161,M,13,0*75
$GNRMC,065749.50,A,3039.10579362,N,12047.28098226,E,0.002,139.3,170120,5.8,W,D*3B
#HEADINGA,COM2,0,31.0,FINE,2088,457087.500,3149885,17,18;SOL_COMPUTED,NARROW_INT,0.4390,161.4974,-15.9722,0.0000,0.5604,1.2157,"999",36,34,34,18,3,01,3,f3*68c9c5c1
$GNGGA,065749.60,3039.10579343,N,12047.28098245,E,4,35,0.5,4.5370,M,9.8161,M,13,0*74
$GNRMC,065749.60,A,3039.10579343,N,12047.28098245,E,0.009,139.7,170120,5.8,W,D*31
#HEADINGA,COM2,0,31.0,FINE,2088,457087.600,3149985,18,18;SOL_COMPUTED,NARROW_INT,0.4374,161.7324,-16.3331,0.0000,0.5637,1.2199,"999",36,34,34,18,3,01,3,f3*2f204abd
$GNGGA,065749.70,3039.10579423,N,12047.28098191,E,4,35,0.5,4.5253,M,9.8161,M,13,0*7E
$GNRMC,065749.70,A,3039.10579423,N,12047.28098191,E,0.033,329.7,170120,5.8,W,D*31
#HEADINGA,COM2,0,31.0,FINE,2088,457087.700,3150084,18,18;SOL_COMPUTED,NARROW_INT,0.4405,161.5443,-16.3969,0.0000,0.5603,1.2115,"999",36,34,34,18,3,01,3,f3*753a065a
$GNGGA,065749.80,3039.10579529,N,12047.28098291,E,4,35,0.5,4.5194,M,9.8161,M,13,0*71
$GNRMC,065749.80,A,3039.10579529,N,12047.28098291,E,0.049,39.3,170120,5.8,W,D*0D
#HEADINGA,COM2,0,31.0,FINE,2088,457087.800,3150185,20,18;SOL_COMPUTED,NARROW_INT,0.4380,161.2830,-16.1923,0.0000,0.5620,1.2186,"999",36,34,34,18,3,01,3,f3*72dff4a9
$GNGGA,065749.90,3039.10579445,N,12047.28098292,E,4,35,0.5,4.5287,M,9.8161,M,13,0*79
$GNRMC,065749.90,A,3039.10579445,N,12047.28098292,E,0.030,179.5,170120,5.8,W,D*39
#HEADINGA,COM2,0,31.0,FINE,2088,457087.900,3150285,17,18;SOL_COMPUTED,NARROW_INT,0.4358,161.3589,-16.2683,0.0000,0.5658,1.2249,"999",36,34,34,18,3,01,3,f3*7b2d4470
#REFSTATIONA,COM2,0,31.0,FINE,2088,457064.000,3149586,803,18;00000000,-2811044.342,4717820.352,3232735.546,0,RTCMV3,"0000"*70a882c8
$GNGGA,065750.00,3039.10579456,N,12047.28098343,E,4,35,0.5,4.5335,M,9.8161,M,14,0*78
$GNRMC,065750.00,A,3039.10579456,N,12047.28098343,E,0.016,75.2,170120,5.8,W,D*09
#HEADINGA,COM2,0,31.0,FINE,2088,457088.000,3150385,23,18;SOL_COMPUTED,NARROW_INT,0.4396,161.4969,-16.0704,0.0000,0.5598,1.2148,"999",36,34,34,18,3,01,3,f3*ef8e067c
$GNGGA,065750.10,3039.10578910,N,12047.28098413,E,4,35,0.5,4.5304,M,9.8161,M,14,0*77
$GNRMC,065750.10,A,3039.10578910,N,12047.28098413,E,0.197,173.7,170120,5.8,W,D*3E
#HEADINGA,COM2,0,31.0,FINE,2088,457088.100,3150485,18,18;SOL_COMPUTED,NARROW_INT,0.4370,161.5468,-15.3288,0.0000,0.5609,1.2218,"999",36,34,34,18,3,01,3,f3*1f76feb3
$GNGGA,065750.20,3039.10577670,N,12047.28099047,E,4,35,0.5,4.5284,M,9.8161,M,14,0*7F
$GNRMC,065750.20,A,3039.10577670,N,12047.28099047,E,0.487,156.1,170120,5.8,W,D*3A
#HEADINGA,COM2,0,31.0,FINE,2088,457088.200,3150587,18,18;SOL_COMPUTED,NARROW_INT,0.4351,161.7487,-17.0657,0.0000,0.5682,1.2261,"999",36,34,34,18,3,01,3,f3*3b81e126
$GNGGA,065750.30,3039.10576460,N,12047.28099616,E,4,35,0.5,4.5323,M,9.8161,M,14,0*72
$GNRMC,065750.30,A,3039.10576460,N,12047.28099616,E,0.469,157.9,170120,5.8,W,D*32
#HEADINGA,COM2,0,31.0,FINE,2088,457088.300,3150685,17,18;SOL_COMPUTED,NARROW_INT,0.4326,161.8914,-15.3461,0.0000,0.5673,1.2360,"999",36,34,34,18,3,01,3,f3*c0011110
$GNGGA,065750.40,3039.10575239,N,12047.28100110,E,4,34,0.5,4.5260,M,9.8161,M,14,0*7B
$GNRMC,065750.40,A,3039.10575239,N,12047.28100110,E,0.464,160.7,170120,5.8,W,D*3B
#HEADINGA,COM2,0,31.0,FINE,2088,457088.400,3150786,17,18;SOL_COMPUTED,NARROW_INT,0.4336,161.6578,-14.1037,0.0000,0.5628,1.2374,"999",36,34,34,18,3,01,3,f3*a69adf65
$GNGGA,065750.50,3039.10574001,N,12047.28100648,E,4,34,0.5,4.5340,M,9.8161,M,14,0*7B
$GNRMC,065750.50,A,3039.10574001,N,12047.28100648,E,0.475,159.4,170120,5.8,W,D*31
#HEADINGA,COM2,0,31.0,FINE,2088,457088.500,3150885,18,18;SOL_COMPUTED,NARROW_INT,0.4323,161.7183,-14.9330,0.0000,0.5662,1.2403,"999",36,34,34,18,3,01,3,f3*8389aec0
$GNGGA,065750.60,3039.10573254,N,12047.28100453,E,4,34,0.5,4.5120,M,9.8161,M,14,0*71
$GNRMC,065750.60,A,3039.10573254,N,12047.28100453,E,0.275,192.8,170120,5.8,W,D*32
#HEADINGA,COM2,0,31.0,FINE,2088,457088.600,3150985,21,18;SOL_COMPUTED,NARROW_INT,0.4317,161.0110,-14.8458,0.0000,0.5673,1.2422,"999",36,34,34,18,3,01,3,f3*4b78eac3
$GNGGA,065750.70,3039.10572311,N,12047.28100815,E,4,34,0.5,4.5146,M,9.8161,M,14,0*7F
$GNRMC,065750.70,A,3039.10572311,N,12047.28100815,E,0.357,161.6,170120,5.8,W,D*3F
