
#REFSTATIONA,COM2,0,46.0,FINE,2088,439464.000,722272,801,18;00000000,-2811023.329,4717645.324,3233007.504,0,RTCMV3,"0000"*10b62671
$GNGGA,020410.00,3039.26790992,N,12047.31955974,E,2,28,0.6,3.7925,M,9.8172,M,04,0*71
$GNRMC,020410.00,A,3039.26790992,N,12047.31955974,E,0.014,155.7,170120,5.8,W,D*30
#HEADINGA,COM2,0,46.0,FINE,2088,439468.000,723069,36,18;SOL_COMPUTED,NARROW_INT,0.6144,142.4737,-10.3228,0.0000,0.3168,0.9440,"999",39,37,37,20,3,01,3,f3*2b4fb12a
$GNGGA,020410.10,3039.26791026,N,12047.31955956,E,2,28,0.6,3.7935,M,9.8172,M,04,0*76
$GNRMC,020410.10,A,3039.26791026,N,12047.31955956,E,0.012,158.0,170120,5.8,W,D*3A
#HEADINGA,COM2,0,46.0,FINE,2088,439468.100,723170,30,18;SOL_COMPUTED,NARROW_INT,0.6145,142.4011,-10.7275,0.0000,0.3173,0.9433,"999",39,37,37,20,3,01,3,f3*20898e0e
$GNGGA,020410.20,3039.26791073,N,12047.31955917,E,2,28,0.6,3.7930,M,9.8172,M,04,0*75
$GNRMC,020410.20,A,3039.26791073,N,12047.31955917,E,0.008,203.4,170120,5.8,W,D*3E
#HEADINGA,COM2,0,46.0,FINE,2088,439468.200,723271,31,18;SOL_COMPUTED,NARROW_INT,0.6128,142.6123,-10.2211,0.0000,0.3172,0.9467,"999",39,37,37,20,3,01,3,f3*47aeee68
$GNGGA,020410.30,3039.26791062,N,12047.31955955,E,2,28,0.6,3.7967,M,9.8172,M,02,0*76
$GNRMC,020410.30,A,3039.26791062,N,12047.31955955,E,0.011,160.1,170120,5.8,W,D*32
#HEADINGA,COM2,0,46.0,FINE,2088,439468.300,723369,32,18;SOL_COMPUTED,NARROW_INT,0.6161,142.5421,-10.6981,0.0000,0.3162,0.9408,"999",39,37,37,20,3,01,3,f3*cc7f8bdb
$GNGGA,020410.40,3039.26791076,N,12047.31955988,E,2,28,0.6,3.7999,M,9.8172,M,02,0*75
$GNRMC,020410.40,A,3039.26791076,N,12047.31955988,E,0.003,155.4,170120,5.8,W,D*30
#HEADINGA,COM2,0,46.0,FINE,2088,439468.400,723470,30,18;SOL_COMPUTED,NARROW_INT,0.6140,142.5560,-10.3628,0.0000,0.3168,0.9448,"999",39,37,37,20,3,01,3,f3*64da993e
$GNGGA,020410.50,3039.26791046,N,12047.31956033,E,2,28,0.6,3.8043,M,9.8172,M,02,0*7C
$GNRMC,020410.50,A,3039.26791046,N,12047.31956033,E,0.012,137.7,170120,5.8,W,D*3F
#HEADINGA,COM2,0,46.0,FINE,2088,439468.500,723569,30,18;SOL_COMPUTED,NARROW_INT,0.6147,142.5388,-10.8692,0.0000,0.3170,0.9429,"999",39,37,37,20,3,01,3,f3*db93d2f9
$GNGGA,020410.60,3039.26791015,N,12047.31956055,E,2,28,0.6,3.8077,M,9.8172,M,02,0*7E
$GNRMC,020410.60,A,3039.26791015,N,12047.31956055,E,0.012,181.8,170120,5.8,W,D*38
#HEADINGA,COM2,0,46.0,FINE,2088,439468.600,723669,30,18;SOL_COMPUTED,NARROW_INT,0.6138,142.5468,-10.5575,0.0000,0.3173,0.9454,"999",39,37,37,20,3,01,3,f3*c05bde8c
$GNGGA,020410.70,3039.26790982,N,12047.31956072,E,2,28,0.6,3.8122,M,9.8172,M,02,0*7D
$GNRMC,020410.70,A,3039.26790982,N,12047.31956072,E,0.012,176.6,170120,5.8,W,D*3C
#HEADINGA,COM2,0,46.0,FINE,2088,439468.700,723770,29,18;SOL_COMPUTED,NARROW_INT,0.6161,142.4169,-10.6295,0.0000,0.3164,0.9418,"999",39,37,37,20,3,01,3,f3*f82e427d
$GNGGA,020410.80,3039.26790962,N,12047.31956100,E,2,28,0.6,3.8164,M,9.8172,M,02,0*7A
$GNRMC,020410.80,A,3039.26790962,N,12047.31956100,E,0.009,156.3,170120,5.8,W,D*34
#HEADINGA,COM2,0,46.0,FINE,2088,439468.800,723869,29,18;SOL_COMPUTED,NARROW_INT,0.6165,142.4545,-11.2915,0.0000,0.3168,0.9398,"999",39,37,37,20,3,01,3,f3*f69edb8b
$GNGGA,020410.90,3039.26790945,N,12047.31956134,E,2,28,0.6,3.8204,M,9.8172,M,02,0*7C
$GNRMC,020410.90,A,3039.26790945,N,12047.31956134,E,0.010,142.7,170120,5.8,W,D*3E
#HEADINGA,COM2,0,46.0,FINE,2088,439468.900,723969,29,18;SOL_COMPUTED,NARROW_INT,0.6137,142.5968,-10.9843,0.0000,0.3176,0.9442,"999",39,37,37,20,3,01,3,f3*aa046591
#REFSTATIONA,COM2,0,46.0,FINE,2088,439466.000,723271,802,18;00000000,-2811023.329,4717645.324,3233007.504,0,RTCMV3,"0000"*0d694305
$GNGGA,020411.00,3039.26790952,N,12047.31956175,E,2,28,0.6,3.8232,M,9.8172,M,03,0*73
$GNRMC,020411.00,A,3039.26790952,N,12047.31956175,E,0.006,87.3,170120,5.8,W,D*0E
#HEADINGA,COM2,0,46.0,FINE,2088,439469.000,724069,36,18;SOL_COMPUTED,NARROW_INT,0.6155,142.6972,-10.3088,0.0000,0.3157,0.9426,"999",39,37,37,20,3,01,3,f3*03bcfe8b
$GNGGA,020411.10,3039.26790941,N,12047.31956205,E,2,28,0.6,3.8269,M,9.8172,M,03,0*7A
$GNRMC,020411.10,A,3039.26790941,N,12047.31956205,E,0.007,131.5,170120,5.8,W,D*32
#HEADINGA,COM2,0,46.0,FINE,2088,439469.100,724170,30,18;SOL_COMPUTED,NARROW_INT,0.6162,142.4596,-10.8993,0.0000,0.3166,0.9401,"999",39,37,37,20,3,01,3,f3*6c191f5e
$GNGGA,020411.20,3039.26790928,N,12047.31956231,E,2,28,0.6,3.8300,M,9.8172,M,03,0*7F
$GNRMC,020411.20,A,3039.26790928,N,12047.31956231,E,0.007,142.7,170120,5.8,W,D*3F
#HEADINGA,COM2,0,46.0,FINE,2088,439469.200,724272,31,18;SOL_COMPUTED,NARROW_INT,0.6156,142.5856,-10.2445,0.0000,0.3160,0.9425,"999",39,37,37,20,3,01,3,f3*76792e2a
$GNGGA,020411.30,3039.26790926,N,12047.31956257,E,2,28,0.6,3.8352,M,9.8172,M,02,0*76
$GNRMC,020411.30,A,3039.26790926,N,12047.31956257,E,0.009,108.5,170120,5.8,W,D*32
#HEADINGA,COM2,0,46.0,FINE,2088,439469.300,724370,33,18;SOL_COMPUTED,NARROW_INT,0.6172,142.4494,-11.2541,0.0000,0.3164,0.9382,"999",39,37,37,20,3,01,3,f3*5940cb58
$GNGGA,020411.40,3039.26790935,N,12047.31956274,E,2,28,0.6,3.8388,M,9.8172,M,02,0*75
$GNRMC,020411.40,A,3039.26790935,N,12047.31956274,E,0.006,162.0,170120,5.8,W,D*30
#HEADINGA,COM2,0,46.0,FINE,2088,439469.400,724469,30,18;SOL_COMPUTED,NARROW_INT,0.6167,142.4173,-11.0612,0.0000,0.3164,0.9394,"999",39,37,37,20,3,01,3,f3*ad4d93e3
$GNGGA,020411.50,3039.26790943,N,12047.31956281,E,2,28,0.6,3.8419,M,9.8172,M,02,0*70
$GNRMC,020411.50,A,3039.26790943,N,12047.31956281,E,0.006,193.9,170120,5.8,W,D*3D
#HEADINGA,COM2,0,46.0,FINE,2088,439469.500,724569,29,18;SOL_COMPUTED,NARROW_INT,0.6154,142.5269,-10.3641,0.0000,0.3168,0.9435,"999",39,37,37,20,3,01,3,f3*a255170a
$GNGGA,020411.60,3039.26790958,N,12047.31956276,E,2,28,0.6,3.8455,M,9.8172,M,02,0*79
$GNRMC,020411.60,A,3039.26790958,N,12047.31956276,E,0.005,218.3,170120,5.8,W,D*35
#HEADINGA,COM2,0,46.0,FINE,2088,439469.600,724669,29,18;SOL_COMPUTED,NARROW_INT,0.6144,142.6542,-10.2532,0.0000,0.3170,0.9455,"999",39,37,37,20,3,01,3,f3*6c2a59d4
$GNGGA,020411.70,3039.26790974,N,12047.31956282,E,2,28,0.6,3.8494,M,9.8172,M,02,0*70
$GNRMC,020411.70,A,3039.26790974,N,12047.31956282,E,0.003,146.8,170120,5.8,W,D*34
#HEADINGA,COM2,0,46.0,FINE,2088,439469.700,724769,29,18;SOL_COMPUTED,NARROW_INT,0.6150,142.4111,-10.9622,0.0000,0.3176,0.9429,"999",39,37,37,20,3,01,3,f3*8f6a7077
$GNGGA,020411.80,3039.26790987,N,12047.31956318,E,2,28,0.6,3.8531,M,9.8172,M,02,0*7F
$GNRMC,020411.80,A,3039.26790987,N,12047.31956318,E,0.008,129.5,170120,5.8,W,D*3A
#HEADINGA,COM2,0,46.0,FINE,2088,439469.800,724869,30,18;SOL_COMPUTED,NARROW_INT,0.6168,142.5492,-10.7906,0.0000,0.3163,0.9405,"999",39,37,37,20,3,01,3,f3*8f637c61
$GNGGA,020411.90,3039.26791001,N,12047.31956341,E,2,28,0.6,3.8563,M,9.8172,M,02,0*73
$GNRMC,020411.90,A,3039.26791001,N,12047.31956341,E,0.006,137.5,170120,5.8,W,D*30
#HEADINGA,COM2,0,46.0,FINE,2088,439469.900,724969,29,18;SOL_COMPUTED,NARROW_INT,0.6133,142.5653,-10.4092,0.0000,0.3175,0.9459,"999",39,37,37,20,3,01,3,f3*69dd9c39
#REFSTATIONA,COM2,0,46.0,FINE,2088,439467.000,724272,801,18;00000000,-2811023.329,4717645.324,3233007.504,0,RTCMV3,"0000"*fbcea103
$GNGGA,020412.00,3039.26791017,N,12047.31956364,E,2,28,0.6,3.8588,M,9.8172,M,03,0*7D
$GNRMC,020412.00,A,3039.26791017,N,12047.31956364,E,0.005,165.3,170120,5.8,W,D*38
#HEADINGA,COM2,0,46.0,FINE,2088,439470.000,725069,36,18;SOL_COMPUTED,NARROW_INT,0.6147,142.5763,-10.7807,0.0000,0.3173,0.9437,"999",39,37,37,20,3,01,3,f3*063ec874
$GNGGA,020412.10,3039.26791025,N,12047.31956376,E,2,28,0.6,3.8621,M,9.8172,M,03,0*7E
$GNRMC,020412.10,A,3039.26791025,N,12047.31956376,E,0.006,157.8,170120,5.8,W,D*32
#HEADINGA,COM2,0,46.0,FINE,2088,439470.100,725170,30,18;SOL_COMPUTED,NARROW_INT,0.6148,142.3653,-11.1345,0.0000,0.3181,0.9430,"999",39,37,37,20,3,01,3,f3*4c1b338d
$GNGGA,020412.20,3039.26791027,N,12047.31956359,E,2,28,0.6,3.8667,M,9.8172,M,03,0*70
$GNRMC,020412.20,A,3039.26791027,N,12047.31956359,E,0.009,216.2,170120,5.8,W,D*3D
#HEADINGA,COM2,0,46.0,FINE,2088,439470.200,725271,31,18;SOL_COMPUTED,NARROW_INT,0.6155,142.5053,-10.6662,0.0000,0.3167,0.9420,"999",39,37,37,20,3,01,3,f3*b5f9f5c1
$GNGGA,020412.30,3039.26791053,N,12047.31956348,E,2,28,0.6,3.8697,M,9.8172,M,03,0*7D
$GNRMC,020412.30,A,3039.26791053,N,12047.31956348,E,0.008,263.7,170120,5.8,W,D*39
#HEADINGA,COM2,0,46.0,FINE,2088,439470.300,725369,30,18;SOL_COMPUTED,NARROW_INT,0.6146,142.4984,-10.4080,0.0000,0.3170,0.9438,"999",39,37,37,20,3,01,3,f3*6abb574f
$GNGGA,020412.40,3039.26791075,N,12047.31956359,E,2,28,0.6,3.8724,M,9.8172,M,03,0*77
$GNRMC,020412.40,A,3039.26791075,N,12047.31956359,E,0.001,66.7,170120,5.8,W,D*04
#HEADINGA,COM2,0,46.0,FINE,2088,439470.400,725469,30,18;SOL_COMPUTED,NARROW_INT,0.6155,142.5261,-10.4642,0.0000,0.3166,0.9431,"999",39,37,37,20,3,01,3,f3*7540e3b2
$GNGGA,020412.50,3039.26791074,N,12047.31956391,E,2,28,0.6,3.8743,M,9.8172,M,03,0*72
$GNRMC,020412.50,A,3039.26791074,N,12047.31956391,E,0.007,100.9,170120,5.8,W,D*39
#HEADINGA,COM2,0,46.0,FINE,2088,439470.500,725569,29,18;SOL_COMPUTED,NARROW_INT,0.6151,142.3387,-10.8290,0.0000,0.3173,0.9428,"999",39,37,37,20,3,01,3,f3*4b6cb62c
$GNGGA,020412.60,3039.26791081,N,12047.31956439,E,2,28,0.6,3.8769,M,9.8172,M,03,0*76
$GNRMC,020412.60,A,3039.26791081,N,12047.31956439,E,0.015,109.0,170120,5.8,W,D*36
#HEADINGA,COM2,0,46.0,FINE,2088,439470.600,725669,30,18;SOL_COMPUTED,NARROW_INT,0.6153,142.4502,-10.8234,0.0000,0.3172,0.9428,"999",39,37,37,20,3,01,3,f3*142456c7
$GNGGA,020412.70,3039.26791068,N,12047.31956461,E,2,28,0.6,3.8811,M,9.8172,M,03,0*7D
$GNRMC,020412.70,A,3039.26791068,N,12047.31956461,E,0.014,145.3,170120,5.8,W,D*37
#HEADINGA,COM2,0,46.0,FINE,2088,439470.700,725769,30,18;SOL_COMPUTED,NARROW_INT,0.6157,142.4993,-11.1963,0.0000,0.3170,0.9408,"999",39,37,37,20,3,01,3,f3*fde8da8d
$GNGGA,020412.80,3039.26791077,N,12047.31956485,E,2,28,0.6,3.8840,M,9.8172,M,03,0*72
$GNRMC,020412.80,A,3039.26791077,N,12047.31956485,E,0.010,123.7,170120,5.8,W,D*3C
#HEADINGA,COM2,0,46.0,FINE,2088,439470.800,725869,29,18;SOL_COMPUTED,NARROW_INT,0.6161,142.5234,-10.5002,0.0000,0.3160,0.9412,"999",39,37,37,20,3,01,3,f3*7703162b
$GNGGA,020412.90,3039.26791093,N,12047.31956470,E,2,28,0.6,3.8866,M,9.8172,M,03,0*77
$GNRMC,020412.90,A,3039.26791093,N,12047.31956470,E,0.005,233.2,170120,5.8,W,D*3E
#HEADINGA,COM2,0,46.0,FINE,2088,439470.900,725969,29,18;SOL_COMPUTED,NARROW_INT,0.6164,142.4955,-11.0265,0.0000,0.3166,0.9400,"999",39,37,37,20,3,01,3,f3*d0cb4b87
#REFSTATIONA,COM2,0,46.0,FINE,2088,439467.000,725271,803,18;00000000,-2811023.329,4717645.324,3233007.504,0,RTCMV3,"0000"*747bef8e
$GNGGA,020413.00,3039.26791149,N,12047.31956462,E,2,28,0.6,3.8878,M,9.8172,M,04,0*72
$GNRMC,020413.00,A,3039.26791149,N,12047.31956462,E,0.011,349.3,170120,5.8,W,D*3B
#HEADINGA,COM2,0,46.0,FINE,2088,439471.000,726069,36,18;SOL_COMPUTED,NARROW_INT,0.6153,142.6003,-10.1939,0.0000,0.3161,0.9432,"999",39,37,37,20,3,01,3,f3*5401d579
$GNGGA,020413.10,3039.26791180,N,12047.31956442,E,2,28,0.6,3.8899,M,9.8172,M,04,0*7B
$GNRMC,020413.10,A,3039.26791180,N,12047.31956442,E,0.009,298.1,170120,5.8,W,D*3B
#HEADINGA,COM2,0,46.0,FINE,2088,439471.100,726169,30,18;SOL_COMPUTED,NARROW_INT,0.6163,142.4743,-11.0309,0.0000,0.3167,0.9399,"999",39,37,37,20,3,01,3,f3*10e92460
$GNGGA,020413.20,3039.26791179,N,12047.31956429,E,2,28,0.6,3.8916,M,9.8172,M,04,0*75
$GNRMC,020413.20,A,3039.26791179,N,12047.31956429,E,0.006,203.8,170120,5.8,W,D*37
#HEADINGA,COM2,0,46.0,FINE,2088,439471.200,726272,30,18;SOL_COMPUTED,NARROW_INT,0.6172,142.3984,-10.7186,0.0000,0.3158,0.9390,"999",39,37,37,20,3,01,3,f3*3ed74e91
$GNGGA,020413.30,3039.26791182,N,12047.31956427,E,2,28,0.6,3.8943,M,9.8172,M,01,0*7B
$GNRMC,020413.30,A,3039.26791182,N,12047.31956427,E,0.012,158.4,170120,5.8,W,D*38
#HEADINGA,COM2,0,46.0,FINE,2088,439471.300,726370,34,18;SOL_COMPUTED,NARROW_INT,0.6163,142.5017,-10.7619,0.0000,0.3162,0.9404,"999",39,37,37,20,3,01,3,f3*4b21edda
$GNGGA,020413.40,3039.26791180,N,12047.31956459,E,2,28,0.6,3.8968,M,9.8172,M,01,0*7E
$GNRMC,020413.40,A,3039.26791180,N,12047.31956459,E,0.021,125.3,170120,5.8,W,D*39
#HEADINGA,COM2,0,46.0,FINE,2088,439471.400,726469,31,18;SOL_COMPUTED,NARROW_INT,0.6147,142.4033,-10.3905,0.0000,0.3168,0.9435,"999",39,37,37,20,3,01,3,f3*430c0fed
$GNGGA,020413.50,3039.26791206,N,12047.31956463,E,2,28,0.6,3.8990,M,9.8172,M,01,0*7C
$GNRMC,020413.50,A,3039.26791206,N,12047.31956463,E,0.005,131.5,170120,5.8,W,D*39
#HEADINGA,COM2,0,46.0,FINE,2088,439471.500,726570,30,18;SOL_COMPUTED,NARROW_INT,0.6152,142.5001,-10.5291,0.0000,0.3165,0.9423,"999",39,37,37,20,3,01,3,f3*8014142e
$GNGGA,020413.60,3039.26791220,N,12047.31956448,E,2,28,0.6,3.9017,M,9.8172,M,01,0*75
$GNRMC,020413.60,A,3039.26791220,N,12047.31956448,E,0.006,189.1,170120,5.8,W,D*33
#HEADINGA,COM2,0,46.0,FINE,2088,439471.600,726670,30,18;SOL_COMPUTED,NARROW_INT,0.6128,142.3109,-10.8704,0.0000,0.3184,0.9454,"999",39,37,37,20,3,01,3,f3*3d1786ce
$GNGGA,020413.70,3039.26791219,N,12047.31956435,E,2,28,0.6,3.9050,M,9.8172,M,01,0*77
$GNRMC,020413.70,A,3039.26791219,N,12047.31956435,E,0.012,184.6,170120,5.8,W,D*3D
#HEADINGA,COM2,0,46.0,FINE,2088,439471.700,726769,30,18;SOL_COMPUTED,NARROW_INT,0.6132,142.5188,-10.1879,0.0000,0.3171,0.9461,"999",39,37,37,20,3,01,3,f3*ce5bf150
$GNGGA,020413.80,3039.26791229,N,12047.31956426,E,2,28,0.6,3.9080,M,9.8172,M,01,0*74
$GNRMC,020413.80,A,3039.26791229,N,12047.31956426,E,0.010,183.2,170120,5.8,W,D*32
#HEADINGA,COM2,0,46.0,FINE,2088,439471.800,726869,30,18;SOL_COMPUTED,NARROW_INT,0.6149,142.4276,-10.5472,0.0000,0.3169,0.9433,"999",39,37,37,20,3,01,3,f3*603397a4
$GNGGA,020413.90,3039.26791264,N,12047.31956394,E,2,28,0.6,3.9088,M,9.8172,M,01,0*7A
$GNRMC,020413.90,A,3039.26791264,N,12047.31956394,E,0.009,266.1,170120,5.8,W,D*37
#HEADINGA,COM2,0,46.0,FINE,2088,439471.900,726969,30,18;SOL_COMPUTED,NARROW_INT,0.6167,142.5034,-10.0354,0.0000,0.3153,0.9410,"999",39,37,37,20,3,01,3,f3*4e1d24fe
#REFSTATIONA,COM2,0,46.0,FINE,2088,439470.000,726272,801,18;00000000,-2811023.329,4717645.324,3233007.504,0,RTCMV3,"0000"*dc72b003
$GNGGA,020414.00,3039.26791285,N,12047.31956365,E,2,28,0.6,3.9105,M,9.8172,M,02,0*72
$GNRMC,020414.00,A,3039.26791285,N,12047.31956365,E,0.006,235.1,170120,5.8,W,D*31
#HEADINGA,COM2,0,46.0,FINE,2088,439472.000,727069,36,18;SOL_COMPUTED,NARROW_INT,0.6161,142.4838,-11.0809,0.0000,0.3166,0.9398,"999",39,37,37,20,3,01,3,f3*3e3dec67
$GNGGA,020414.10,3039.26791285,N,12047.31956365,E,2,28,0.6,3.9133,M,9.8172,M,02,0*76
$GNRMC,020414.10,A,3039.26791285,N,12047.31956365,E,0.010,148.9,170120,5.8,W,D*36
#HEADINGA,COM2,0,46.0,FINE,2088,439472.100,727170,30,18;SOL_COMPUTED,NARROW_INT,0.6160,142.3975,-10.6838,0.0000,0.3165,0.9410,"999",39,37,37,20,3,01,3,f3*1591b469
$GNGGA,020414.20,3039.26791293,N,12047.31956357,E,2,28,0.6,3.9154,M,9.8172,M,02,0*72
$GNRMC,020414.20,A,3039.26791293,N,12047.31956357,E,0.008,180.1,170120,5.8,W,D*36
#HEADINGA,COM2,0,46.0,FINE,2088,439472.200,727272,31,18;SOL_COMPUTED,NARROW_INT,0.6163,142.4825,-11.1908,0.0000,0.3167,0.9394,"999",39,37,37,20,3,01,3,f3*67a984c0
$GNGGA,020414.30,3039.26791299,N,12047.31956336,E,2,28,0.6,3.9176,M,9.8172,M,02,0*7E
$GNRMC,020414.30,A,3039.26791299,N,12047.31956336,E,0.009,186.4,170120,5.8,W,D*38
#HEADINGA,COM2,0,46.0,FINE,2088,439472.300,727369,30,18;SOL_COMPUTED,NARROW_INT,0.6163,142.6642,-10.4452,0.0000,0.3157,0.9411,"999",39,37,37,20,3,01,3,f3*de20bce9
$GNGGA,020414.40,3039.26791317,N,12047.31956301,E,2,28,0.6,3.9180,M,9.8172,M,02,0*73
$GNRMC,020414.40,A,3039.26791317,N,12047.31956301,E,0.010,242.8,170120,5.8,W,D*33
#HEADINGA,COM2,0,38.0,FINE,2088,439472.400,727469,29,18;SOL_COMPUTED,NARROW_INT,0.6135,142.3992,-10.4463,0.0000,0.3174,0.9452,"999",39,37,37,20,3,01,3,f3*45863e89
$GNGGA,020414.50,3039.26791322,N,12047.31956308,E,2,28,0.6,3.9190,M,9.8172,M,02,0*7C
$GNRMC,020414.50,A,3039.26791322,N,12047.31956308,E,0.010,162.4,170120,5.8,W,D*30
#HEADINGA,COM2,0,38.0,FINE,2088,439472.500,727569,29,18;SOL_COMPUTED,NARROW_INT,0.6153,142.5830,-10.5187,0.0000,0.3160,0.9412,"999",39,37,37,20,3,01,3,f3*018d8562
$GNGGA,020414.60,3039.26791330,N,12047.31956300,E,2,28,0.6,3.9210,M,9.8172,M,02,0*7F
$GNRMC,020414.60,A,3039.26791330,N,12047.31956300,E,0.009,182.6,170120,5.8,W,D*3C
#HEADINGA,COM2,0,38.0,FINE,2088,439472.600,727669,29,18;SOL_COMPUTED,NARROW_INT,0.6139,142.4990,-10.4800,0.0000,0.3171,0.9446,"999",39,37,37,20,3,01,3,f3*47d469f9
$GNGGA,020414.70,3039.26791320,N,12047.31956290,E,2,28,0.6,3.9236,M,9.8172,M,02,0*73
$GNRMC,020414.70,A,3039.26791320,N,12047.31956290,E,0.016,181.9,170120,5.8,W,D*36
#HEADINGA,COM2,0,38.0,FINE,2088,439472.700,727769,30,18;SOL_COMPUTED,NARROW_INT,0.6154,142.3863,-10.7515,0.0000,0.3168,0.9417,"999",39,37,37,20,3,01,3,f3*4d173901
$GNGGA,020414.80,3039.26791323,N,12047.31956293,E,2,28,0.6,3.9248,M,9.8172,M,02,0*75
$GNRMC,020414.80,A,3039.26791323,N,12047.31956293,E,0.012,177.4,170120,5.8,W,D*39
#HEADINGA,COM2,0,38.0,FINE,2088,439472.800,727869,29,18;SOL_COMPUTED,NARROW_INT,0.6186,142.3448,-11.2303,0.0000,0.3157,0.9359,"999",39,37,37,20,3,01,3,f3*4e24226e
$GNGGA,020414.90,3039.26791307,N,12047.31956279,E,2,28,0.6,3.9273,M,9.8172,M,02,0*7E
$GNRMC,020414.90,A,3039.26791307,N,12047.31956279,E,0.018,186.2,170120,5.8,W,D*38
#HEADINGA,COM2,0,38.0,FINE,2088,439472.900,727969,29,18;SOL_COMPUTED,NARROW_INT,0.6139,142.4370,-10.8347,0.0000,0.3176,0.9439,"999",39,37,37,20,3,01,3,f3*47ef5ea9
#REFSTATIONA,COM2,0,46.0,FINE,2088,439470.000,727272,801,18;00000000,-2811023.329,4717645.324,3233007.504,0,RTCMV3,"0000"*2bbeec0d
$GNGGA,020415.00,3039.26791331,N,12047.31956276,E,2,28,0.6,3.9281,M,9.8172,M,03,0*70
$GNRMC,020415.00,A,3039.26791331,N,12047.31956276,E,0.005,195.6,170120,5.8,W,D*30
#HEADINGA,COM2,0,38.0,FINE,2088,439473.000,728069,36,18;SOL_COMPUTED,NARROW_INT,0.6155,142.7614,-10.1811,0.0000,0.3155,0.9424,"999",39,37,37,20,3,01,3,f3*f6dcb11f
$GNGGA,020415.10,3039.26791342,N,12047.31956263,E,2,28,0.6,3.9289,M,9.8172,M,03,0*79
$GNRMC,020415.10,A,3039.26791342,N,12047.31956263,E,0.009,205.5,170120,5.8,W,D*34
#HEADINGA,COM2,0,38.0,FINE,2088,439473.100,728169,30,18;SOL_COMPUTED,NARROW_INT,0.6171,142.5522,-10.8242,0.0000,0.3157,0.9388,"999",39,37,37,20,3,01,3,f3*9fa7b24c
$GNGGA,020415.20,3039.26791355,N,12047.31956273,E,2,28,0.6,3.9300,M,9.8172,M,03,0*7D
$GNRMC,020415.20,A,3039.26791355,N,12047.31956273,E,0.008,146.5,170120,5.8,W,D*35
#HEADINGA,COM2,0,38.0,FINE,2088,439473.200,728271,30,18;SOL_COMPUTED,NARROW_INT,0.6165,142.6632,-10.2602,0.0000,0.3152,0.9412,"999",39,37,37,20,3,01,3,f3*85f9aeb7
$GNGGA,020415.30,3039.26791366,N,12047.31956253,E,2,28,0.6,3.9310,M,9.8172,M,01,0*7D
$GNRMC,020415.30,A,3039.26791366,N,12047.31956253,E,0.011,186.0,170120,5.8,W,D*37
#HEADINGA,COM2,0,38.0,FINE,2088,439473.300,728369,33,18;SOL_COMPUTED,NARROW_INT,0.6163,142.3792,-11.1785,0.0000,0.3168,0.9397,"999",39,37,37,20,3,01,3,f3*2156bca2
$GNGGA,020415.40,3039.26791367,N,12047.31956228,E,2,28,0.6,3.9312,M,9.8172,M,01,0*75
$GNRMC,020415.40,A,3039.26791367,N,12047.31956228,E,0.014,184.5,170120,5.8,W,D*3F
#HEADINGA,COM2,0,38.0,FINE,2088,439473.400,728470,30,18;SOL_COMPUTED,NARROW_INT,0.6167,142.5371,-10.6445,0.0000,0.3158,0.9399,"999",39,37,37,20,3,01,3,f3*aa1e909d
$GNGGA,020415.50,3039.26791381,N,12047.31956203,E,2,28,0.6,3.9319,M,9.8172,M,01,0*7E
$GNRMC,020415.50,A,3039.26791381,N,12047.31956203,E,0.010,194.2,170120,5.8,W,D*3D
#HEADINGA,COM2,0,38.0,FINE,2088,439473.500,728569,30,18;SOL_COMPUTED,NARROW_INT,0.6139,142.5261,-10.4978,0.0000,0.3168,0.9431,"999",39,37,37,20,3,01,3,f3*efec9651
$GNGGA,020415.60,3039.26791412,N,12047.31956182,E,2,28,0.6,3.9316,M,9.8172,M,01,0*75
$GNRMC,020415.60,A,3039.26791412,N,12047.31956182,E,0.005,222.3,170120,5.8,W,D*32
#HEADINGA,COM2,0,38.0,FINE,2088,439473.600,728669,30,18;SOL_COMPUTED,NARROW_INT,0.6149,142.6146,-10.0824,0.0000,0.3157,0.9422,"999",39,37,37,20,3,01,3,f3*9816e716
$GNGGA,020415.70,3039.26791439,N,12047.31956172,E,2,28,0.6,3.9322,M,9.8172,M,01,0*75
$GNRMC,020415.70,A,3039.26791439,N,12047.31956172,E,0.005,156.5,170120,5.8,W,D*33
#HEADINGA,COM2,0,38.0,FINE,2088,439473.700,728769,30,18;SOL_COMPUTED,NARROW_INT,0.6133,142.3419,-10.6767,0.0000,0.3176,0.9435,"999",39,37,37,20,3,01,3,f3*241e95f5
$GNGGA,020415.80,3039.26791450,N,12047.31956168,E,2,28,0.6,3.9335,M,9.8172,M,01,0*78
$GNRMC,020415.80,A,3039.26791450,N,12047.31956168,E,0.011,155.2,170120,5.8,W,D*39
#HEADINGA,COM2,0,38.0,FINE,2088,439473.800,728869,29,18;SOL_COMPUTED,NARROW_INT,0.6149,142.5387,-11.1120,0.0000,0.3171,0.9417,"999",39,37,37,20,3,01,3,f3*27a3e500
$GNGGA,020415.90,3039.26791455,N,12047.31956169,E,2,28,0.6,3.9350,M,9.8172,M,01,0*7E
$GNRMC,020415.90,A,3039.26791455,N,12047.31956169,E,0.014,150.9,170120,5.8,W,D*37
#HEADINGA,COM2,0,38.0,FINE,2088,439473.900,728969,29,18;SOL_COMPUTED,NARROW_INT,0.6162,142.4031,-10.8326,0.0000,0.3161,0.9388,"999",39,37,37,20,3,01,3,f3*37fd1dff
#REFSTATIONA,COM2,0,38.0,FINE,2088,439472.000,728271,802,18;00000000,-2811023.329,4717645.324,3233007.504,0,RTCMV3,"0000"*5a4247b0
$GNGGA,020416.00,3039.26791465,N,12047.31956166,E,2,28,0.6,3.9358,M,9.8172,M,02,0*73
$GNRMC,020416.00,A,3039.26791465,N,12047.31956166,E,0.012,163.3,170120,5.8,W,D*3D
#HEADINGA,COM2,0,38.0,FINE,2088,439474.000,729069,35,18;SOL_COMPUTED,NARROW_INT,0.6165,142.2539,-11.5426,0.0000,0.3170,0.9369,"999",39,37,37,20,3,01,3,f3*ad208e29
$GNGGA,020416.10,3039.26791478,N,12047.31956171,E,2,28,0.6,3.9359,M,9.8172,M,02,0*79
$GNRMC,020416.10,A,3039.26791478,N,12047.31956171,E,0.012,166.0,170120,5.8,W,D*30
#HEADINGA,COM2,0,38.0,FINE,2088,439474.100,729169,30,18;SOL_COMPUTED,NARROW_INT,0.6152,142.3915,-10.6075,0.0000,0.3164,0.9408,"999",39,37,37,20,3,01,3,f3*7be4c6ce
$GNGGA,020416.20,3039.26791494,N,12047.31956164,E,2,28,0.6,3.9367,M,9.8172,M,02,0*71
$GNRMC,020416.20,A,3039.26791494,N,12047.31956164,E,0.011,173.3,170120,5.8,W,D*31
#HEADINGA,COM2,0,38.0,FINE,2088,439474.200,729271,30,18;SOL_COMPUTED,NARROW_INT,0.6165,142.4536,-10.9512,0.0000,0.3160,0.9384,"999",39,37,37,20,3,01,3,f3*ad3ed093
$GNGGA,020416.30,3039.26791542,N,12047.31956127,E,2,28,0.6,3.9371,M,9.8172,M,02,0*7A
$GNRMC,020416.30,A,3039.26791542,N,12047.31956127,E,0.009,266.8,170120,5.8,W,D*38
#HEADINGA,COM2,0,38.0,FINE,2088,439474.300,729369,30,18;SOL_COMPUTED,NARROW_INT,0.6125,142.4972,-10.8112,0.0000,0.3179,0.9449,"999",39,37,37,20,3,01,3,f3*cf03625c
$GNGGA,020416.40,3039.26791573,N,12047.31956098,E,2,28,0.6,3.9378,M,9.8172,M,02,0*73
$GNRMC,020416.40,A,3039.26791573,N,12047.31956098,E,0.007,238.2,170120,5.8,W,D*37
#HEADINGA,COM2,0,38.0,FINE,2088,439474.400,729469,29,18;SOL_COMPUTED,NARROW_INT,0.6157,142.3491,-11.1230,0.0000,0.3169,0.9392,"999",39,37,37,20,3,01,3,f3*bb1f291a
$GNGGA,020416.50,3039.26791609,N,12047.31956104,E,2,28,0.6,3.9385,M,9.8172,M,02,0*7A
$GNRMC,020416.50,A,3039.26791609,N,12047.31956104,E,0.005,116.8,170120,5.8,W,D*3B
#HEADINGA,COM2,0,38.0,FINE,2088,439474.500,729569,29,18;SOL_COMPUTED,NARROW_INT,0.6157,142.4479,-11.4048,0.0000,0.3171,0.9392,"999",39,37,37,20,3,01,3,f3*64f6e357
$GNGGA,020416.60,3039.26791633,N,12047.31956102,E,2,28,0.6,3.9392,M,9.8172,M,02,0*70
$GNRMC,020416.60,A,3039.26791633,N,12047.31956102,E,0.007,161.4,170120,5.8,W,D*39
#HEADINGA,COM2,0,38.0,FINE,2088,439474.600,729669,30,18;SOL_COMPUTED,NARROW_INT,0.6166,142.4228,-10.6486,0.0000,0.3157,0.9385,"999",39,37,37,20,3,01,3,f3*5e4f4e04
$GNGGA,020416.70,3039.26791648,N,12047.31956098,E,2,28,0.6,3.9395,M,9.8172,M,02,0*78
$GNRMC,020416.70,A,3039.26791648,N,12047.31956098,E,0.010,174.7,170120,5.8,W,D*37
#HEADINGA,COM2,0,38.0,FINE,2088,439474.700,729769,29,18;SOL_COMPUTED,NARROW_INT,0.6166,142.5377,-10.8970,0.0000,0.3158,0.9384,"999",39,37,37,20,3,01,3,f3*a778db62
$GNGGA,020416.80,3039.26791679,N,12047.31956088,E,2,28,0.6,3.9396,M,9.8172,M,02,0*77
$GNRMC,020416.80,A,3039.26791679,N,12047.31956088,E,0.005,194.4,170120,5.8,W,D*32
#HEADINGA,COM2,0,38.0,FINE,2088,439474.800,729869,29,18;SOL_COMPUTED,NARROW_INT,0.6153,142.4747,-11.0237,0.0000,0.3167,0.9402,"999",39,37,37,20,3,01,3,f3*e775a54a
$GNGGA,020416.90,3039.26791701,N,12047.31956103,E,2,28,0.6,3.9417,M,9.8172,M,02,0*74
$GNRMC,020416.90,A,3039.26791701,N,12047.31956103,E,0.009,133.3,170120,5.8,W,D*39
#HEADINGA,COM2,0,38.0,FINE,2088,439474.900,729969,30,18;SOL_COMPUTED,NARROW_INT,0.6167,142.4656,-11.4532,0.0000,0.3164,0.9372,"999",39,37,37,19,3,01,3,f3*09275129
#REFSTATIONA,COM2,0,38.0,FINE,2088,439472.000,729271,802,18;00000000,-2811023.329,4717645.324,3233007.504,0,RTCMV3,"0000"*ad8e1bbe
$GNGGA,020417.00,3039.26791729,N,12047.31956115,E,2,28,0.6,3.9431,M,9.8172,M,03,0*74
$GNRMC,020417.00,A,3039.26791729,N,12047.31956115,E,0.008,120.5,170120,5.8,W,D*39
#HEADINGA,COM2,0,38.0,FINE,2088,439475.000,730069,36,18;SOL_COMPUTED,NARROW_INT,0.6148,142.5273,-10.7210,0.0000,0.3164,0.9410,"999",39,37,37,19,3,01,3,f3*fdccef75
$GNGGA,020417.10,3039.26791758,N,12047.31956127,E,2,28,0.6,3.9444,M,9.8172,M,03,0*70
$GNRMC,020417.10,A,3039.26791758,N,12047.31956127,E,0.009,121.1,170120,5.8,W,D*3B
#HEADINGA,COM2,0,38.0,FINE,2088,439475.100,730169,31,18;SOL_COMPUTED,NARROW_INT,0.6176,142.4302,-11.0869,0.0000,0.3155,0.9362,"999",39,37,37,19,3,01,3,f3*2d4faa5d
$GNGGA,020417.20,3039.26791800,N,12047.31956148,E,2,28,0.6,3.9446,M,9.8172,M,03,0*7A
$GNRMC,020417.20,A,3039.26791800,N,12047.31956148,E,0.008,88.1,170120,5.8,W,D*00
#HEADINGA,COM2,0,38.0,FINE,2088,439475.200,730272,30,18;SOL_COMPUTED,NARROW_INT,0.6171,142.4327,-11.5443,0.0000,0.3164,0.9375,"999",39,37,37,19,3,01,3,f3*5c25b6ff
$GNGGA,020417.30,3039.26791831,N,12047.31956164,E,2,28,0.6,3.9454,M,9.8172,M,00,0*77
$GNRMC,020417.30,A,3039.26791831,N,12047.31956164,E,0.014,114.3,170120,5.8,W,D*36
#HEADINGA,COM2,0,38.0,FINE,2088,439475.300,730369,33,18;SOL_COMPUTED,NARROW_INT,0.6162,142.6376,-10.6035,0.0000,0.3155,0.9412,"999",39,37,37,19,3,01,3,f3*e89001bb
$GNGGA,020417.40,3039.26791831,N,12047.31956185,E,2,28,0.6,3.9472,M,9.8172,M,00,0*7B
$GNRMC,020417.40,A,3039.26791831,N,12047.31956185,E,0.022,137.1,170120,5.8,W,D*38
#HEADINGA,COM2,0,44.0,FINE,2088,439475.400,730470,30,18;SOL_COMPUTED,NARROW_INT,0.6166,142.4652,-11.3649,0.0000,0.3162,0.9370,"999",39,37,37,19,3,01,3,f3*0c96de22
$GNGGA,020417.50,3039.26791866,N,12047.31956203,E,2,28,0.6,3.9486,M,9.8172,M,00,0*7E
$GNRMC,020417.50,A,3039.26791866,N,12047.31956203,E,0.010,124.7,170120,5.8,W,D*33
#HEADINGA,COM2,0,44.0,FINE,2088,439475.500,730570,30,18;SOL_COMPUTED,NARROW_INT,0.6151,142.4346,-11.0064,0.0000,0.3168,0.9406,"999",39,37,37,19,3,01,3,f3*789e3f72
$GNGGA,020417.60,3039.26791895,N,12047.31956201,E,2,28,0.6,3.9494,M,9.8172,M,00,0*70
$GNRMC,020417.60,A,3039.26791895,N,12047.31956201,E,0.006,168.7,170120,5.8,W,D*31
#HEADINGA,COM2,0,44.0,FINE,2088,439475.600,730669,30,18;SOL_COMPUTED,NARROW_INT,0.6165,142.4998,-11.0408,0.0000,0.3159,0.9380,"999",39,37,37,19,3,01,3,f3*164a0ca5
$GNGGA,020417.70,3039.26791908,N,12047.31956187,E,2,28,0.6,3.9511,M,9.8172,M,00,0*75
$GNRMC,020417.70,A,3039.26791908,N,12047.31956187,E,0.011,186.1,170120,5.8,W,D*38
#HEADINGA,COM2,0,44.0,FINE,2088,439475.700,730769,30,18;SOL_COMPUTED,NARROW_INT,0.6160,142.4359,-10.8239,0.0000,0.3160,0.9392,"999",39,37,37,19,3,01,3,f3*3a174701
$GNGGA,020417.80,3039.26791932,N,12047.31956161,E,2,28,0.6,3.9527,M,9.8172,M,00,0*7E
$GNRMC,020417.80,A,3039.26791932,N,12047.31956161,E,0.010,214.7,170120,5.8,W,D*39
#HEADINGA,COM2,0,44.0,FINE,2088,439475.800,730870,29,18;SOL_COMPUTED,NARROW_INT,0.6173,142.5661,-11.3332,0.0000,0.3157,0.9365,"999",39,37,37,19,3,01,3,f3*d4597b37
$GNGGA,020417.90,3039.26791941,N,12047.31956157,E,2,28,0.6,3.9533,M,9.8172,M,00,0*7B
$GNRMC,020417.90,A,3039.26791941,N,12047.31956157,E,0.012,180.3,170120,5.8,W,D*31
#HEADINGA,COM2,0,44.0,FINE,2088,439475.900,730969,29,18;SOL_COMPUTED,NARROW_INT,0.6149,142.6412,-10.7806,0.0000,0.3162,0.9413,"999",39,37,37,19,3,01,3,f3*ebe9fbcc
#REFSTATIONA,COM2,0,38.0,FINE,2088,439475.000,730272,801,18;00000000,-2811023.329,4717645.324,3233007.504,0,RTCMV3,"0000"*850fae1b
$GNGGA,020418.00,3039.26791974,N,12047.31956162,E,2,28,0.6,3.9536,M,9.8172,M,01,0*79
$GNRMC,020418.00,A,3039.26791974,N,12047.31956162,E,0.005,144.6,170120,5.8,W,D*3C
#HEADINGA,COM2,0,44.0,FINE,2088,439476.000,731069,37,18;SOL_COMPUTED,NARROW_INT,0.6181,142.5078,-11.4447,0.0000,0.3155,0.9351,"999",39,37,37,19,3,01,3,f3*26bfd782
$GNGGA,020418.10,3039.26791998,N,12047.31956171,E,2,28,0.6,3.9548,M,9.8172,M,01,0*71
$GNRMC,020418.10,A,3039.26791998,N,12047.31956171,E,0.008,133.8,170120,5.8,W,D*3E
#HEADINGA,COM2,0,44.0,FINE,2088,439476.100,731170,30,18;SOL_COMPUTED,NARROW_INT,0.6159,142.4588,-10.3267,0.0000,0.3155,0.9403,"999",39,37,37,19,3,01,3,f3*af53de27
$GNGGA,020418.20,3039.26792022,N,12047.31956186,E,2,28,0.6,3.9561,M,9.8172,M,01,0*7A
$GNRMC,020418.20,A,3039.26792022,N,12047.31956186,E,0.009,125.4,170120,5.8,W,D*34
#HEADINGA,COM2,0,44.0,FINE,2088,439476.200,731272,30,18;SOL_COMPUTED,NARROW_INT,0.6150,142.5993,-10.7371,0.0000,0.3161,0.9407,"999",39,37,37,19,3,01,3,f3*2cf52f52
$GNGGA,020418.30,3039.26792041,N,12047.31956184,E,2,28,0.6,3.9572,M,9.8172,M,01,0*7E
$GNRMC,020418.30,A,3039.26792041,N,12047.31956184,E,0.008,172.3,170120,5.8,W,D*36
#HEADINGA,COM2,0,44.0,FINE,2088,439476.300,731370,30,18;SOL_COMPUTED,NARROW_INT,0.6157,142.5809,-10.6898,0.0000,0.3160,0.9401,"999",39,37,37,20,3,01,3,f3*971ad5cf
$GNGGA,020418.40,3039.26792038,N,12047.31956180,E,2,28,0.6,3.9581,M,9.8172,M,01,0*7F
$GNRMC,020418.40,A,3039.26792038,N,12047.31956180,E,0.015,177.9,170120,5.8,W,D*38
#HEADINGA,COM2,0,44.0,FINE,2088,439476.400,731470,29,18;SOL_COMPUTED,NARROW_INT,0.6151,142.4225,-10.9988,0.0000,0.3169,0.9400,"999",39,37,37,20,3,01,3,f3*acfb6b7c
$GNGGA,020418.50,3039.26792062,N,12047.31956192,E,2,28,0.6,3.9591,M,9.8172,M,01,0*73
$GNRMC,020418.50,A,3039.26792062,N,12047.31956192,E,0.009,136.2,170120,5.8,W,D*36
#HEADINGA,COM2,0,44.0,FINE,2088,439476.500,731569,30,18;SOL_COMPUTED,NARROW_INT,0.6167,142.7126,-10.6406,0.0000,0.3152,0.9384,"999",39,37,37,20,3,01,3,f3*d9e562b5
$GNGGA,020418.60,3039.26792081,N,12047.31956201,E,2,28,0.6,3.9599,M,9.8172,M,01,0*7C
$GNRMC,020418.60,A,3039.26792081,N,12047.31956201,E,0.008,117.6,170120,5.8,W,D*37
#HEADINGA,COM2,0,44.0,FINE,2088,439476.600,731669,30,18;SOL_COMPUTED,NARROW_INT,0.6155,142.3728,-11.2413,0.0000,0.3170,0.9389,"999",39,37,37,20,3,01,3,f3*4d47a31c
$GNGGA,020418.70,3039.26792095,N,12047.31956198,E,2,28,0.6,3.9609,M,9.8172,M,01,0*71
$GNRMC,020418.70,A,3039.26792095,N,12047.31956198,E,0.007,140.2,170120,5.8,W,D*39
#HEADINGA,COM2,0,44.0,FINE,2088,439476.700,731770,29,18;SOL_COMPUTED,NARROW_INT,0.6168,142.4166,-10.8540,0.0000,0.3158,0.9377,"999",39,37,37,20,3,01,3,f3*c3b3d097
$GNGGA,020418.80,3039.26792093,N,12047.31956194,E,2,28,0.6,3.9636,M,9.8172,M,01,0*78
$GNRMC,020418.80,A,3039.26792093,N,12047.31956194,E,0.012,148.6,170120,5.8,W,D*34
#HEADINGA,COM2,0,44.0,FINE,2088,439476.800,731870,29,18;SOL_COMPUTED,NARROW_INT,0.6169,142.5419,-11.1221,0.0000,0.3158,0.9371,"999",39,37,37,20,3,01,3,f3*ccd637a2
$GNGGA,020418.90,3039.26792094,N,12047.31956207,E,2,28,0.6,3.9658,M,9.8172,M,01,0*7F
$GNRMC,020418.90,A,3039.26792094,N,12047.31956207,E,0.014,135.0,170120,5.8,W,D*31
#HEADINGA,COM2,0,44.0,FINE,2088,439476.900,731969,29,18;SOL_COMPUTED,NARROW_INT,0.6178,142.5635,-10.5582,0.0000,0.3147,0.9368,"999",39,37,37,20,3,01,3,f3*f8408fce
#REFSTATIONA,COM2,0,44.0,FINE,2088,439475.000,731272,802,18;00000000,-2811023.329,4717645.324,3233007.504,0,RTCMV3,"0000"*a1797d54
$GNGGA,020419.00,3039.26792106,N,12047.31956217,E,2,28,0.6,3.9657,M,9.8172,M,02,0*70
$GNRMC,020419.00,A,3039.26792106,N,12047.31956217,E,0.011,172.0,170120,5.8,W,D*34
#HEADINGA,COM2,0,44.0,FINE,2088,439477.000,732070,36,18;SOL_COMPUTED,NARROW_INT,0.6167,142.4833,-10.9578,0.0000,0.3160,0.9390,"999",39,37,37,20,3,01,3,f3*80437009
$GNGGA,020419.10,3039.26792112,N,12047.31956218,E,2,28,0.6,3.9664,M,9.8172,M,02,0*7B
$GNRMC,020419.10,A,3039.26792112,N,12047.31956218,E,0.010,150.5,170120,5.8,W,D*3B
#HEADINGA,COM2,0,44.0,FINE,2088,439477.100,732169,30,18;SOL_COMPUTED,NARROW_INT,0.6166,142.5295,-10.9384,0.0000,0.3158,0.9380,"999",39,37,37,20,3,01,3,f3*e53a1e24
$GNGGA,020419.20,3039.26792115,N,12047.31956224,E,2,28,0.6,3.9672,M,9.8172,M,02,0*77
$GNRMC,020419.20,A,3039.26792115,N,12047.31956224,E,0.011,141.4,170120,5.8,W,D*30
#HEADINGA,COM2,0,44.0,FINE,2088,439477.200,732272,30,18;SOL_COMPUTED,NARROW_INT,0.6154,142.6280,-10.4038,0.0000,0.3158,0.9414,"999",39,37,37,20,3,01,3,f3*ae7197a3
$GNGGA,020419.30,3039.26792104,N,12047.31956228,E,2,28,0.6,3.9688,M,9.8172,M,02,0*7F
$GNRMC,020419.30,A,3039.26792104,N,12047.31956228,E,0.015,151.5,170120,5.8,W,D*39
#HEADINGA,COM2,0,44.0,FINE,2088,439477.300,732370,30,18;SOL_COMPUTED,NARROW_INT,0.6141,142.4351,-10.5008,0.0000,0.3170,0.9433,"999",39,37,37,20,3,01,3,f3*c022db07
$GNGGA,020419.40,3039.26792085,N,12047.31956204,E,2,28,0.6,3.9706,M,9.8172,M,02,0*79
$GNRMC,020419.40,A,3039.26792085,N,12047.31956204,E,0.016,159.5,170120,5.8,W,D*33
#HEADINGA,COM2,0,44.0,FINE,2088,439477.400,732470,30,18;SOL_COMPUTED,NARROW_INT,0.6165,142.2482,-11.2582,0.0000,0.3168,0.9379,"999",39,37,37,20,3,01,3,f3*e910d5da
$GNGGA,020419.50,3039.26792065,N,12047.31956171,E,2,28,0.6,3.9724,M,9.8172,M,02,0*77
$GNRMC,020419.50,A,3039.26792065,N,12047.31956171,E,0.016,171.1,170120,5.8,W,D*33
#HEADINGA,COM2,0,44.0,FINE,2088,439477.500,732570,30,18;SOL_COMPUTED,NARROW_INT,0.6153,142.6158,-10.3486,0.0000,0.3159,0.9418,"999",39,37,37,20,3,01,3,f3*c8165f28
$GNGGA,020419.60,3039.26792078,N,12047.31956135,E,2,28,0.6,3.9733,M,9.8172,M,02,0*7E
$GNRMC,020419.60,A,3039.26792078,N,12047.31956135,E,0.005,178.0,170120,5.8,W,D*36
#HEADINGA,COM2,0,44.0,FINE,2088,439477.600,732670,29,18;SOL_COMPUTED,NARROW_INT,0.6164,142.5191,-10.7208,0.0000,0.3158,0.9385,"999",39,37,37,20,3,01,3,f3*3bba3a95
$GNGGA,020419.70,3039.26792069,N,12047.31956126,E,2,28,0.6,3.9745,M,9.8172,M,02,0*7C
$GNRMC,020419.70,A,3039.26792069,N,12047.31956126,E,0.014,141.2,170120,5.8,W,D*3D
#HEADINGA,COM2,0,44.0,FINE,2088,439477.700,732769,30,18;SOL_COMPUTED,NARROW_INT,0.6167,142.5466,-10.8127,0.0000,0.3157,0.9379,"999",39,37,37,20,3,01,3,f3*bb7b1022
$GNGGA,020419.80,3039.26792082,N,12047.31956102,E,2,28,0.6,3.9757,M,9.8172,M,02,0*73
$GNRMC,020419.80,A,3039.26792082,N,12047.31956102,E,0.007,142.7,170120,5.8,W,D*35
#HEADINGA,COM2,0,44.0,FINE,2088,439477.800,732869,29,18;SOL_COMPUTED,NARROW_INT,0.6172,142.3580,-11.2619,0.0000,0.3163,0.9362,"999",39,37,37,20,3,01,3,f3*c31f23c0
$GNGGA,020419.90,3039.26792108,N,12047.31956093,E,2,28,0.6,3.9759,M,9.8172,M,02,0*76
$GNRMC,020419.90,A,3039.26792108,N,12047.31956093,E,0.007,96.1,170120,5.8,W,D*00
#HEADINGA,COM2,0,44.0,FINE,2088,439477.900,732969,29,18;SOL_COMPUTED,NARROW_INT,0.6165,142.3935,-11.2636,0.0000,0.3174,0.9631,"999",39,36,36,20,3,01,3,f3*cd8526b1
#REFSTATIONA,COM2,0,44.0,FINE,2088,439475.000,732272,801,18;00000000,-2811023.329,4717645.324,3233007.504,0,RTCMV3,"0000"*b8666826
$GNGGA,020420.00,3039.26792100,N,12047.31956079,E,2,28,0.6,3.9758,M,9.8172,M,03,0*79
$GNRMC,020420.00,A,3039.26792100,N,12047.31956079,E,0.011,157.8,170120,5.8,W,D*3D
#HEADINGA,COM2,0,44.0,FINE,2088,439478.000,733069,35,18;SOL_COMPUTED,NARROW_INT,0.6158,142.4890,-11.1377,0.0000,0.3174,0.9645,"999",39,36,36,20,3,01,3,f3*267754eb
$GNGGA,020420.10,3039.26792089,N,12047.31956035,E,2,28,0.6,3.9765,M,9.8172,M,03,0*7E
$GNRMC,020420.10,A,3039.26792089,N,12047.31956035,E,0.013,196.6,170120,5.8,W,D*35
#HEADINGA,COM2,0,44.0,FINE,2088,439478.100,733170,30,18;SOL_COMPUTED,NARROW_INT,0.6160,142.6364,-10.7804,0.0000,0.3167,0.9650,"999",39,36,36,20,3,01,3,f3*3bf7aa81
$GNGGA,020420.20,3039.26792058,N,12047.31955995,E,2,28,0.6,3.9773,M,9.8172,M,03,0*76
$GNRMC,020420.20,A,3039.26792058,N,12047.31955995,E,0.020,185.2,170120,5.8,W,D*3C
#HEADINGA,COM2,0,44.0,FINE,2088,439478.200,733272,30,18;SOL_COMPUTED,NARROW_INT,0.6162,142.4900,-11.4288,0.0000,0.3177,0.9642,"999",39,36,36,20,3,01,3,f3*f68cbf11
$GNGGA,020420.30,3039.26792071,N,12047.31955957,E,2,28,0.6,3.9784,M,9.8172,M,01,0*78
$GNRMC,020420.30,A,3039.26792071,N,12047.31955957,E,0.007,182.6,170120,5.8,W,D*3E
#HEADINGA,COM2,0,44.0,FINE,2088,439478.300,733369,32,18;SOL_COMPUTED,NARROW_INT,0.6158,142.5310,-11.2279,0.0000,0.3176,0.9656,"999",39,36,36,20,3,01,3,f3*86773861
$GNGGA,020420.40,3039.26792067,N,12047.31955928,E,2,28,0.6,3.9796,M,9.8172,M,01,0*73
$GNRMC,020420.40,A,3039.26792067,N,12047.31955928,E,0.011,170.5,170120,5.8,W,D*3F
#HEADINGA,COM2,0,43.0,FINE,2088,439478.400,733469,30,18;SOL_COMPUTED,NARROW_INT,0.6175,142.6077,-11.2106,0.0000,0.3165,0.9628,"999",39,36,36,20,3,01,3,f3*73d7f906
$GNGGA,020420.50,3039.26792058,N,12047.31955926,E,2,28,0.6,3.9795,M,9.8172,M,01,0*73
$GNRMC,020420.50,A,3039.26792058,N,12047.31955926,E,0.012,157.7,170120,5.8,W,D*38
#HEADINGA,COM2,0,43.0,FINE,2088,439478.500,733569,30,18;SOL_COMPUTED,NARROW_INT,0.6173,142.4270,-10.9263,0.0000,0.3166,0.9635,"999",39,36,36,20,3,01,3,f3*f6229520
$GNGGA,020420.60,3039.26792039,N,12047.31955923,E,2,28,0.6,3.9804,M,9.8172,M,01,0*75
$GNRMC,020420.60,A,3039.26792039,N,12047.31955923,E,0.015,155.0,170120,5.8,W,D*3B
#HEADINGA,COM2,0,43.0,FINE,2088,439478.600,733670,29,18;SOL_COMPUTED,NARROW_INT,0.6146,142.3638,-11.3832,0.0000,0.3189,0.9682,"999",39,36,36,20,3,01,3,f3*83797cd4
$GNGGA,020420.70,3039.26792019,N,12047.31955925,E,2,28,0.6,3.9813,M,9.8172,M,01,0*76
$GNRMC,020420.70,A,3039.26792019,N,12047.31955925,E,0.017,153.7,170120,5.8,W,D*3D
#HEADINGA,COM2,0,43.0,FINE,2088,439478.700,733770,29,18;SOL_COMPUTED,NARROW_INT,0.6142,142.5178,-11.2111,0.0000,0.3184,0.9683,"999",39,36,36,20,3,01,3,f3*88dd2c34
$GNGGA,020420.80,3039.26792009,N,12047.31955907,E,2,28,0.6,3.9812,M,9.8172,M,01,0*79
$GNRMC,020420.80,A,3039.26792009,N,12047.31955907,E,0.013,179.2,170120,5.8,W,D*3A
#HEADINGA,COM2,0,43.0,FINE,2088,439478.800,733870,29,18;SOL_COMPUTED,NARROW_INT,0.6167,142.4839,-10.7104,0.0000,0.3165,0.9645,"999",39,36,36,20,3,01,3,f3*ed683b91
$GNGGA,020420.90,3039.26792009,N,12047.31955907,E,2,28,0.6,3.9814,M,9.8172,M,01,0*7E
$GNRMC,020420.90,A,3039.26792009,N,12047.31955907,E,0.011,144.1,170120,5.8,W,D*34
#HEADINGA,COM2,0,43.0,FINE,2088,439478.900,733969,29,18;SOL_COMPUTED,NARROW_INT,0.6158,142.4681,-11.2358,0.0000,0.3181,0.9678,"999",39,36,36,20,3,01,3,f3*069f9d9e
#REFSTATIONA,COM2,0,44.0,FINE,2088,439477.000,733272,802,18;00000000,-2811023.329,4717645.324,3233007.504,0,RTCMV3,"0000"*4e1345ef
$GNGGA,020421.00,3039.26792006,N,12047.31955871,E,2,28,0.6,3.9818,M,9.8172,M,02,0*76
$GNRMC,020421.00,A,3039.26792006,N,12047.31955871,E,0.012,205.3,170120,5.8,W,D*34
#HEADINGA,COM2,0,43.0,FINE,2088,439479.000,734069,37,18;SOL_COMPUTED,NARROW_INT,0.6132,142.5193,-11.0933,0.0000,0.3190,0.9714,"999",39,36,36,20,3,01,3,f3*a6bc2b35
$GNGGA,020421.10,3039.26791999,N,12047.31955850,E,2,28,0.6,3.9823,M,9.8172,M,02,0*70
$GNRMC,020421.10,A,3039.26791999,N,12047.31955850,E,0.011,183.7,170120,5.8,W,D*30
#HEADINGA,COM2,0,43.0,FINE,2088,439479.100,734170,30,18;SOL_COMPUTED,NARROW_INT,0.6146,142.5372,-10.5286,0.0000,0.3176,0.9702,"999",39,36,36,20,3,01,3,f3*c4f5d709
$GNGGA,020421.20,3039.26791986,N,12047.31955839,E,2,28,0.6,3.9825,M,9.8172,M,02,0*74
$GNRMC,020421.20,A,3039.26791986,N,12047.31955839,E,0.014,169.4,170120,5.8,W,D*30
#HEADINGA,COM2,0,43.0,FINE,2088,439479.200,734272,30,18;SOL_COMPUTED,NARROW_INT,0.6156,142.4354,-11.0874,0.0000,0.3179,0.9675,"999",39,36,36,20,3,01,3,f3*76c40333
$GNGGA,020421.30,3039.26791975,N,12047.31955819,E,2,28,0.6,3.9819,M,9.8172,M,02,0*74
$GNRMC,020421.30,A,3039.26791975,N,12047.31955819,E,0.014,188.2,170120,5.8,W,D*36
#HEADINGA,COM2,0,43.0,FINE,2088,439479.300,734370,30,18;SOL_COMPUTED,NARROW_INT,0.6177,142.4169,-11.2495,0.0000,0.3161,0.9391,"999",39,37,37,20,3,01,3,f3*5a580888
$GNGGA,020421.40,3039.26791975,N,12047.31955809,E,2,28,0.6,3.9822,M,9.8172,M,02,0*7A
$GNRMC,020421.40,A,3039.26791975,N,12047.31955809,E,0.010,161.9,170120,5.8,W,D*38
#HEADINGA,COM2,0,43.0,FINE,2088,439479.400,734470,29,18;SOL_COMPUTED,NARROW_INT,0.6151,142.4459,-10.7230,0.0000,0.3168,0.9430,"999",39,37,37,20,3,01,3,f3*b6c69cf7
$GNGGA,020421.50,3039.26791993,N,12047.31955826,E,2,28,0.6,3.9821,M,9.8172,M,02,0*7D
$GNRMC,020421.50,A,3039.26791993,N,12047.31955826,E,0.011,108.5,170120,5.8,W,D*3E
#HEADINGA,COM2,0,43.0,FINE,2088,439479.500,734570,29,18;SOL_COMPUTED,NARROW_INT,0.6145,142.5374,-10.9177,0.0000,0.3175,0.9448,"999",39,37,37,20,3,01,3,f3*783966d5
$GNGGA,020421.60,3039.26792019,N,12047.31955815,E,2,28,0.6,3.9823,M,9.8172,M,02,0*74
$GNRMC,020421.60,A,3039.26792019,N,12047.31955815,E,0.002,122.1,170120,5.8,W,D*3B
#HEADINGA,COM2,0,43.0,FINE,2088,439479.600,734670,29,18;SOL_COMPUTED,NARROW_INT,0.6176,142.4068,-11.1175,0.0000,0.3163,0.9386,"999",39,37,37,20,3,01,3,f3*65875146
$GNGGA,020421.70,3039.26792037,N,12047.31955795,E,2,28,0.6,3.9820,M,9.8172,M,02,0*7D
$GNRMC,020421.70,A,3039.26792037,N,12047.31955795,E,0.004,218.5,170120,5.8,W,D*39
#HEADINGA,COM2,0,43.0,FINE,2088,439479.700,734770,29,18;SOL_COMPUTED,NARROW_INT,0.6176,142.5591,-10.6394,0.0000,0.3156,0.9396,"999",39,37,37,20,3,01,3,f3*fde2b42d
$GNGGA,020421.80,3039.26792034,N,12047.31955749,E,2,28,0.6,3.9828,M,9.8172,M,02,0*78
$GNRMC,020421.80,A,3039.26792034,N,12047.31955749,E,0.014,221.6,170120,5.8,W,D*3C
#HEADINGA,COM2,0,43.0,FINE,2088,439479.800,734870,29,18;SOL_COMPUTED,NARROW_INT,0.6168,142.4944,-10.8449,0.0000,0.3163,0.9401,"999",39,37,37,20,3,01,3,f3*21fad358
$GNGGA,020421.90,3039.26792042,N,12047.31955704,E,2,28,0.6,3.9829,M,9.8172,M,02,0*70
$GNRMC,020421.90,A,3039.26792042,N,12047.31955704,E,0.012,232.7,170120,5.8,W,D*30
#HEADINGA,COM2,0,43.0,FINE,2088,439479.900,734969,29,18;SOL_COMPUTED,NARROW_INT,0.6159,142.4494,-10.8248,0.0000,0.3170,0.9416,"999",39,37,37,20,3,01,3,f3*8a03cc14
#REFSTATIONA,COM2,0,44.0,FINE,2088,439477.000,733272,1802,18;00000000,-2811023.329,4717645.324,3233007.504,0,RTCMV3,"0000"*11a24c64
$GNGGA,020422.00,3039.26792067,N,12047.31955700,E,2,28,0.6,3.9819,M,9.8172,M,03,0*7B
$GNRMC,020422.00,A,3039.26792067,N,12047.31955700,E,0.002,165.4,170120,5.8,W,D*3A
#HEADINGA,COM2,0,43.0,FINE,2088,439480.000,735070,36,18;SOL_COMPUTED,NARROW_INT,0.6158,142.6428,-10.7770,0.0000,0.3164,0.9419,"999",39,37,37,20,3,01,3,f3*57f15d5c
$GNGGA,020422.10,3039.26792102,N,12047.31955654,E,2,28,0.6,3.9807,M,9.8172,M,03,0*77
$GNRMC,020422.10,A,3039.26792102,N,12047.31955654,E,0.014,277.8,170120,5.8,W,D*32
#HEADINGA,COM2,0,43.0,FINE,2088,439480.100,735170,30,18;SOL_COMPUTED,NARROW_INT,0.6167,142.5998,-10.4462,0.0000,0.3156,0.9409,"999",39,37,37,20,3,01,3,f3*6f3e07f9
$GNGGA,020422.20,3039.26792126,N,12047.31955641,E,2,28,0.6,3.9811,M,9.8172,M,03,0*71
$GNRMC,020422.20,A,3039.26792126,N,12047.31955641,E,0.001,97.5,170120,5.8,W,D*06
#HEADINGA,COM2,0,43.0,FINE,2088,439480.200,735272,31,18;SOL_COMPUTED,NARROW_INT,0.6169,142.3905,-11.1845,0.0000,0.3165,0.9392,"999",39,37,37,20,3,01,3,f3*aa5433af
$GNGGA,020422.30,3039.26792141,N,12047.31955616,E,2,28,0.6,3.9812,M,9.8172,M,02,0*71
$GNRMC,020422.30,A,3039.26792141,N,12047.31955616,E,0.007,230.7,170120,5.8,W,D*3F
#HEADINGA,COM2,0,43.0,FINE,2088,439480.300,735370,32,18;SOL_COMPUTED,NARROW_INT,0.6181,142.5434,-10.9965,0.0000,0.3154,0.9377,"999",39,37,37,20,3,01,3,f3*0e5ba966
$GNGGA,020422.40,3039.26792128,N,12047.31955598,E,2,28,0.6,3.9817,M,9.8172,M,02,0*79
$GNRMC,020422.40,A,3039.26792128,N,12047.31955598,E,0.014,191.8,170120,5.8,W,D*37
#HEADINGA,COM2,0,43.0,FINE,2088,439480.400,735470,30,18;SOL_COMPUTED,NARROW_INT,0.6136,142.5349,-10.6845,0.0000,0.3174,0.9452,"999",39,37,37,20,3,01,3,f3*69a60feb
$GNGGA,020422.50,3039.26792114,N,12047.31955579,E,2,28,0.6,3.9812,M,9.8172,M,02,0*7D
$GNRMC,020422.50,A,3039.26792114,N,12047.31955579,E,0.017,197.6,170120,5.8,W,D*3D
#HEADINGA,COM2,0,43.0,FINE,2088,439480.500,735570,30,18;SOL_COMPUTED,NARROW_INT,0.6142,142.4402,-10.6489,0.0000,0.3170,0.9439,"999",39,37,37,20,3,01,3,f3*5ee77900
$GNGGA,020422.60,3039.26792107,N,12047.31955572,E,2,28,0.6,3.9809,M,9.8172,M,02,0*7D
$GNRMC,020422.60,A,3039.26792107,N,12047.31955572,E,0.014,181.9,170120,5.8,W,D*3C
#HEADINGA,COM2,0,43.0,FINE,2088,439480.600,735670,30,18;SOL_COMPUTED,NARROW_INT,0.6157,142.4678,-10.7842,0.0000,0.3164,0.9414,"999",39,37,37,20,3,01,3,f3*514f63c7
$GNGGA,020422.70,3039.26792149,N,12047.31955551,E,2,28,0.6,3.9808,M,9.8172,M,02,0*76
$GNRMC,020422.70,A,3039.26792149,N,12047.31955551,E,0.004,300.3,170120,5.8,W,D*36
#HEADINGA,COM2,0,43.0,FINE,2088,439480.700,735770,29,18;SOL_COMPUTED,NARROW_INT,0.6164,142.6013,-10.5104,0.0000,0.3155,0.9410,"999",39,37,37,20,3,01,3,f3*5b2477ae
$GNGGA,020422.80,3039.26792186,N,12047.31955550,E,2,28,0.6,3.9817,M,9.8172,M,02,0*75
$GNRMC,020422.80,A,3039.26792186,N,12047.31955550,E,0.004,40.6,170120,5.8,W,D*09
#HEADINGA,COM2,0,43.0,FINE,2088,439480.800,735869,29,18;SOL_COMPUTED,NARROW_INT,0.6160,142.4315,-10.8728,0.0000,0.3165,0.9410,"999",39,37,37,20,3,01,3,f3*f41d12a7
$GNGGA,020422.90,3039.26792195,N,12047.31955539,E,2,28,0.6,3.9818,M,9.8172,M,02,0*76
$GNRMC,020422.90,A,3039.26792195,N,12047.31955539,E,0.008,207.1,170120,5.8,W,D*3F
#HEADINGA,COM2,0,43.0,FINE,2088,439480.900,735969,29,18;SOL_COMPUTED,NARROW_INT,0.6154,142.4590,-10.9173,0.0000,0.3166,0.9407,"999",39,37,37,20,3,01,3,f3*854ee817
#REFSTATIONA,COM2,0,43.0,FINE,2088,439478.000,735272,802,18;00000000,-2811023.329,4717645.324,3233007.504,0,RTCMV3,"0000"*825f8998
$GNGGA,020423.00,3039.26792215,N,12047.31955543,E,2,28,0.6,3.9805,M,9.8172,M,03,0*75
$GNRMC,020423.00,A,3039.26792215,N,12047.31955543,E,0.004,184.4,170120,5.8,W,D*30
#HEADINGA,COM2,0,43.0,FINE,2088,439481.000,736070,36,18;SOL_COMPUTED,NARROW_INT,0.6152,142.7322,-10.4762,0.0000,0.3158,0.9433,"999",39,37,37,19,3,01,3,f3*34b4312a
$GNGGA,020423.10,3039.26792227,N,12047.31955526,E,2,28,0.6,3.9796,M,9.8172,M,03,0*73
$GNRMC,020423.10,A,3039.26792227,N,12047.31955526,E,0.008,224.3,170120,5.8,W,D*31
#HEADINGA,COM2,0,43.0,FINE,2088,439481.100,736170,30,18;SOL_COMPUTED,NARROW_INT,0.6139,142.4553,-10.8266,0.0000,0.3173,0.9443,"999",39,37,37,19,3,01,3,f3*7a8662c1
$GNGGA,020423.20,3039.26792242,N,12047.31955503,E,2,28,0.6,3.9793,M,9.8172,M,03,0*71
$GNRMC,020423.20,A,3039.26792242,N,12047.31955503,E,0.008,230.6,170120,5.8,W,D*36
#HEADINGA,COM2,0,43.0,FINE,2088,439481.200,736272,31,18;SOL_COMPUTED,NARROW_INT,0.6171,142.6485,-10.7489,0.0000,0.3149,0.9385,"999",39,37,37,19,3,01,3,f3*4fd686c2
$GNGGA,020423.30,3039.26792242,N,12047.31955500,E,2,28,0.6,3.9797,M,9.8172,M,01,0*75
$GNRMC,020423.30,A,3039.26792242,N,12047.31955500,E,0.010,179.5,170120,5.8,W,D*30
#HEADINGA,COM2,0,43.0,FINE,2088,439481.300,736370,31,18;SOL_COMPUTED,NARROW_INT,0.6181,142.4715,-11.1293,0.0000,0.3151,0.9361,"999",39,37,37,19,3,01,3,f3*f7d800cc
$GNGGA,020423.40,3039.26792238,N,12047.31955516,E,2,28,0.6,3.9794,M,9.8172,M,01,0*7B
$GNRMC,020423.40,A,3039.26792238,N,12047.31955516,E,0.012,164.2,170120,5.8,W,D*34
#HEADINGA,COM2,0,43.0,FINE,2088,439481.400,736469,31,18;SOL_COMPUTED,NARROW_INT,0.6160,142.5854,-10.5771,0.0000,0.3154,0.9404,"999",39,37,37,19,3,01,3,f3*20a4a24a
$GNGGA,020423.50,3039.26792252,N,12047.31955531,E,2,28,0.6,3.9791,M,9.8172,M,01,0*76
$GNRMC,020423.50,A,3039.26792252,N,12047.31955531,E,0.007,149.4,170120,5.8,W,D*31
#HEADINGA,COM2,0,41.0,FINE,2088,439481.500,736570,29,18;SOL_COMPUTED,NARROW_INT,0.6180,142.4350,-11.1978,0.0000,0.3153,0.9359,"999",39,37,37,19,3,01,3,f3*ea450318
$GNGGA,020423.60,3039.26792260,N,12047.31955539,E,2,28,0.6,3.9793,M,9.8172,M,01,0*7E
$GNRMC,020423.60,A,3039.26792260,N,12047.31955539,E,0.008,167.3,170120,5.8,W,D*3F
#HEADINGA,COM2,0,41.0,FINE,2088,439481.600,736670,29,18;SOL_COMPUTED,NARROW_INT,0.6150,142.6021,-10.2998,0.0000,0.3155,0.9412,"999",39,37,37,19,3,01,3,f3*46e226b8
$GNGGA,020423.70,3039.26792282,N,12047.31955529,E,2,28,0.6,3.9787,M,9.8172,M,01,0*77
$GNRMC,020423.70,A,3039.26792282,N,12047.31955529,E,0.007,232.4,170120,5.8,W,D*38
#HEADINGA,COM2,0,41.0,FINE,2088,439481.700,736770,29,18;SOL_COMPUTED,NARROW_INT,0.6162,142.4578,-11.0023,0.0000,0.3162,0.9398,"999",39,37,37,19,3,01,3,f3*cb43d957
$GNGGA,020423.80,3039.26792291,N,12047.31955530,E,2,28,0.6,3.9794,M,9.8172,M,01,0*70
$GNRMC,020423.80,A,3039.26792291,N,12047.31955530,E,0.007,178.8,170120,5.8,W,D*3C
#HEADINGA,COM2,0,41.0,FINE,2088,439481.800,736870,29,18;SOL_COMPUTED,NARROW_INT,0.6158,142.4464,-11.2299,0.0000,0.3164,0.9389,"999",39,37,37,19,3,01,3,f3*4f0d96d8
$GNGGA,020423.90,3039.26792292,N,12047.31955521,E,2,28,0.6,3.9792,M,9.8172,M,01,0*74
$GNRMC,020423.90,A,3039.26792292,N,12047.31955521,E,0.012,208.6,170120,5.8,W,D*30
#HEADINGA,COM2,0,41.0,FINE,2088,439481.900,736969,30,18;SOL_COMPUTED,NARROW_INT,0.6152,142.5253,-10.6395,0.0000,0.3160,0.9408,"999",39,37,37,19,3,01,3,f3*41acdc93
#REFSTATIONA,COM2,0,43.0,FINE,2088,439480.000,736272,801,18;00000000,-2811023.329,4717645.324,3233007.504,0,RTCMV3,"0000"*ada03285
$GNGGA,020424.00,3039.26792301,N,12047.31955533,E,2,28,0.6,3.9794,M,9.8172,M,02,0*77
$GNRMC,020424.00,A,3039.26792301,N,12047.31955533,E,0.008,174.8,170120,5.8,W,D*3B
#HEADINGA,COM2,0,41.0,FINE,2088,439482.000,737069,37,18;SOL_COMPUTED,NARROW_INT,0.6165,142.5506,-10.7528,0.0000,0.3154,0.9387,"999",39,37,37,19,3,01,3,f3*20878e03
$GNGGA,020424.10,3039.26792305,N,12047.31955548,E,2,28,0.6,3.9792,M,9.8172,M,02,0*78
$GNRMC,020424.10,A,3039.26792305,N,12047.31955548,E,0.010,173.0,170120,5.8,W,D*34
#HEADINGA,COM2,0,41.0,FINE,2088,439482.100,737170,30,18;SOL_COMPUTED,NARROW_INT,0.6176,142.4616,-11.0812,0.0000,0.3153,0.9363,"999",39,37,37,19,3,01,3,f3*b925ab87
$GNGGA,020424.20,3039.26792310,N,12047.31955576,E,2,28,0.6,3.9793,M,9.8172,M,02,0*73
$GNRMC,020424.20,A,3039.26792310,N,12047.31955576,E,0.011,152.6,170120,5.8,W,D*3A
#HEADINGA,COM2,0,41.0,FINE,2088,439482.200,737272,30,18;SOL_COMPUTED,NARROW_INT,0.6180,142.3893,-11.6373,0.0000,0.3161,0.9359,"999",39,37,37,19,3,01,3,f3*cbf5f31c
$GNGGA,020424.30,3039.26792318,N,12047.31955612,E,2,28,0.6,3.9792,M,9.8172,M,02,0*7A
$GNRMC,020424.30,A,3039.26792318,N,12047.31955612,E,0.012,134.5,170120,5.8,W,D*32
#HEADINGA,COM2,0,41.0,FINE,2088,439482.300,737370,30,18;SOL_COMPUTED,NARROW_INT,0.6140,142.4706,-10.9168,0.0000,0.3172,0.9433,"999",39,37,37,19,3,01,3,f3*4a135585
$GNGGA,020424.40,3039.26792316,N,12047.31955660,E,2,28,0.6,3.9801,M,9.8172,M,02,0*73
$GNRMC,020424.40,A,3039.26792316,N,12047.31955660,E,0.017,130.2,170120,5.8,W,D*38
#HEADINGA,COM2,0,41.0,FINE,2088,439482.400,737470,29,18;SOL_COMPUTED,NARROW_INT,0.6157,142.4561,-10.8494,0.0000,0.3163,0.9409,"999",39,37,37,19,3,01,3,f3*1aef7467
$GNGGA,020424.50,3039.26792332,N,12047.31955676,E,2,28,0.6,3.9796,M,9.8172,M,02,0*72
$GNRMC,020424.50,A,3039.26792332,N,12047.31955676,E,0.006,165.6,170120,5.8,W,D*3C
#HEADINGA,COM2,0,41.0,FINE,2088,439482.500,737569,30,18;SOL_COMPUTED,NARROW_INT,0.6141,142.3762,-10.9639,0.0000,0.3175,0.9431,"999",39,37,37,19,3,01,3,f3*c741acd5
$GNGGA,020424.60,3039.26792364,N,12047.31955631,E,2,28,0.6,3.9801,M,9.8172,M,02,0*70
$GNRMC,020424.60,A,3039.26792364,N,12047.31955631,E,0.015,266.9,170120,5.8,W,D*32
#HEADINGA,COM2,0,41.0,FINE,2088,439482.600,737669,30,18;SOL_COMPUTED,NARROW_INT,0.6177,142.5135,-10.6805,0.0000,0.3155,0.9383,"999",39,37,37,19,3,01,3,f3*1759bcc0
$GNGGA,020424.70,3039.26792376,N,12047.31955634,E,2,28,0.6,3.9797,M,9.8172,M,02,0*77
$GNRMC,020424.70,A,3039.26792376,N,12047.31955634,E,0.006,191.9,170120,5.8,W,D*3C
#HEADINGA,COM2,0,41.0,FINE,2088,439482.700,737769,30,18;SOL_COMPUTED,NARROW_INT,0.6164,142.4797,-10.8379,0.0000,0.3162,0.9399,"999",39,37,37,19,3,01,3,f3*594354d3
$GNGGA,020424.80,3039.26792380,N,12047.31955664,E,2,28,0.6,3.9800,M,9.8172,M,02,0*75
$GNRMC,020424.80,A,3039.26792380,N,12047.31955664,E,0.012,134.9,170120,5.8,W,D*35
#HEADINGA,COM2,0,41.0,FINE,2088,439482.800,737870,29,18;SOL_COMPUTED,NARROW_INT,0.6146,142.4384,-10.9719,0.0000,0.3170,0.9406,"999",39,37,37,19,3,01,3,f3*3a02da46
$GNGGA,020424.90,3039.26792389,N,12047.31955691,E,2,28,0.6,3.9785,M,9.8172,M,02,0*75
$GNRMC,020424.90,A,3039.26792389,N,12047.31955691,E,0.010,154.2,170120,5.8,W,D*38
#HEADINGA,COM2,0,41.0,FINE,2088,439482.900,737969,29,18;SOL_COMPUTED,NARROW_INT,0.6156,142.6204,-10.2643,0.0000,0.3161,0.9424,"999",39,37,37,19,3,01,3,f3*6ce2d06a
#REFSTATIONA,COM2,0,41.0,FINE,2088,439480.000,737272,802,18;00000000,-2811023.329,4717645.324,3233007.504,0,RTCMV3,"0000"*6b691490
$GNGGA,020425.00,3039.26792381,N,12047.31955715,E,2,28,0.6,3.9773,M,9.8172,M,03,0*70
$GNRMC,020425.00,A,3039.26792381,N,12047.31955715,E,0.014,158.9,170120,5.8,W,D*36
#HEADINGA,COM2,0,41.0,FINE,2088,439483.000,738070,36,18;SOL_COMPUTED,NARROW_INT,0.6179,142.4419,-11.3162,0.0000,0.3163,0.9369,"999",39,37,37,19,3,01,3,f3*bc4c1b34
$GNGGA,020425.10,3039.26792383,N,12047.31955745,E,2,28,0.6,3.9763,M,9.8172,M,03,0*77
$GNRMC,020425.10,A,3039.26792383,N,12047.31955745,E,0.013,142.7,170120,5.8,W,D*32
#HEADINGA,COM2,0,41.0,FINE,2088,439483.100,738170,30,18;SOL_COMPUTED,NARROW_INT,0.6160,142.5132,-10.9013,0.0000,0.3167,0.9407,"999",39,37,37,19,3,01,3,f3*8abd1647
$GNGGA,020425.20,3039.26792377,N,12047.31955765,E,2,28,0.6,3.9751,M,9.8172,M,03,0*7C
$GNRMC,020425.20,A,3039.26792377,N,12047.31955765,E,0.014,160.2,170120,5.8,W,D*3A
#HEADINGA,COM2,0,41.0,FINE,2088,439483.200,738272,30,18;SOL_COMPUTED,NARROW_INT,0.6158,142.5847,-10.3265,0.0000,0.3161,0.9420,"999",39,37,37,19,3,01,3,f3*2c16452f
$GNGGA,020425.30,3039.26792384,N,12047.31955759,E,2,28,0.6,3.9752,M,9.8172,M,01,0*7F
$GNRMC,020425.30,A,3039.26792384,N,12047.31955759,E,0.013,194.4,170120,5.8,W,D*32
#HEADINGA,COM2,0,41.0,FINE,2088,439483.300,738370,32,18;SOL_COMPUTED,NARROW_INT,0.6161,142.4225,-11.0545,0.0000,0.3170,0.9402,"999",39,37,37,20,3,01,3,f3*01fd2d9e
$GNGGA,020425.40,3039.26792399,N,12047.31955786,E,2,28,0.6,3.9741,M,9.8172,M,01,0*74
$GNRMC,020425.40,A,3039.26792399,N,12047.31955786,E,0.011,151.7,170120,5.8,W,D*33
#HEADINGA,COM2,0,41.0,FINE,2088,439483.400,738469,30,18;SOL_COMPUTED,NARROW_INT,0.6146,142.4327,-10.5642,0.0000,0.3173,0.9433,"999",39,37,37,20,3,01,3,f3*63490d63
$GNGGA,020425.50,3039.26792424,N,12047.31955786,E,2,28,0.6,3.9741,M,9.8172,M,01,0*74
$GNRMC,020425.50,A,3039.26792424,N,12047.31955786,E,0.006,178.6,170120,5.8,W,D*3F
#HEADINGA,COM2,0,41.0,FINE,2088,439483.500,738570,30,18;SOL_COMPUTED,NARROW_INT,0.6194,142.5020,-11.2941,0.0000,0.3161,0.9353,"999",39,37,37,20,3,01,3,f3*98cacb81
$GNGGA,020425.60,3039.26792433,N,12047.31955783,E,2,28,0.6,3.9739,M,9.8172,M,01,0*7B
$GNRMC,020425.60,A,3039.26792433,N,12047.31955783,E,0.011,192.7,170120,5.8,W,D*3C
#HEADINGA,COM2,0,41.0,FINE,2088,439483.600,738669,30,18;SOL_COMPUTED,NARROW_INT,0.6174,142.5641,-10.7887,0.0000,0.3160,0.9389,"999",39,37,37,20,3,01,3,f3*173058f5
$GNGGA,020425.70,3039.26792444,N,12047.31955781,E,2,28,0.6,3.9739,M,9.8172,M,01,0*78
$GNRMC,020425.70,A,3039.26792444,N,12047.31955781,E,0.011,186.9,170120,5.8,W,D*34
#HEADINGA,COM2,0,41.0,FINE,2088,439483.700,738769,30,18;SOL_COMPUTED,NARROW_INT,0.6197,142.3036,-11.4018,0.0000,0.3160,0.9341,"999",39,37,37,20,3,01,3,f3*c7434499
$GNGGA,020425.80,3039.26792462,N,12047.31955792,E,2,28,0.6,3.9728,M,9.8172,M,01,0*71
$GNRMC,020425.80,A,3039.26792462,N,12047.31955792,E,0.009,174.8,170120,5.8,W,D*38
#HEADINGA,COM2,0,41.0,FINE,2088,439483.800,738869,29,18;SOL_COMPUTED,NARROW_INT,0.6151,142.4719,-10.8806,0.0000,0.3178,0.9421,"999",39,37,37,20,3,01,3,f3*189f9552
$GNGGA,020425.90,3039.26792479,N,12047.31955846,E,2,28,0.6,3.9719,M,9.8172,M,01,0*7E
$GNRMC,020425.90,A,3039.26792479,N,12047.31955846,E,0.017,120.4,170120,5.8,W,D*37
#HEADINGA,COM2,0,41.0,FINE,2088,439483.900,738969,29,18;SOL_COMPUTED,NARROW_INT,0.6178,142.4241,-10.9750,0.0000,0.3166,0.9379,"999",39,37,37,20,3,01,3,f3*998c5df0
#REFSTATIONA,COM2,0,41.0,FINE,2088,439482.000,738272,801,18;00000000,-2811023.329,4717645.324,3233007.504,0,RTCMV3,"0000"*138002ca
$GNGGA,020426.00,3039.26792511,N,12047.31955864,E,2,28,0.6,3.9716,M,9.8172,M,02,0*77
$GNRMC,020426.00,A,3039.26792511,N,12047.31955864,E,0.005,136.2,170120,5.8,W,D*30
#HEADINGA,COM2,0,41.0,FINE,2088,439484.000,739069,36,18;SOL_COMPUTED,NARROW_INT,0.6168,142.3470,-11.1408,0.0000,0.3175,0.9391,"999",39,37,37,20,3,01,3,f3*a7110db6
$GNGGA,020426.10,3039.26792535,N,12047.31955887,E,2,28,0.6,3.9700,M,9.8172,M,02,0*7A
$GNRMC,020426.10,A,3039.26792535,N,12047.31955887,E,0.007,156.7,170120,5.8,W,D*3B
#HEADINGA,COM2,0,41.0,FINE,2088,439484.100,739170,30,18;SOL_COMPUTED,NARROW_INT,0.6163,142.4090,-10.9143,0.0000,0.3174,0.9401,"999",39,37,37,20,3,01,3,f3*14800593
$GNGGA,020426.20,3039.26792541,N,12047.31955875,E,2,28,0.6,3.9705,M,9.8172,M,02,0*72
$GNRMC,020426.20,A,3039.26792541,N,12047.31955875,E,0.009,195.9,170120,5.8,W,D*39
#HEADINGA,COM2,0,41.0,FINE,2088,439484.200,739272,30,18;SOL_COMPUTED,NARROW_INT,0.6160,142.5669,-11.3282,0.0000,0.3177,0.9401,"999",39,37,37,20,3,01,3,f3*243a5440
$GNGGA,020426.30,3039.26792546,N,12047.31955865,E,2,28,0.6,3.9711,M,9.8172,M,02,0*70
$GNRMC,020426.30,A,3039.26792546,N,12047.31955865,E,0.009,186.5,170120,5.8,W,D*30
#HEADINGA,COM2,0,41.0,FINE,2088,439484.300,739369,30,18;SOL_COMPUTED,NARROW_INT,0.6157,142.4526,-10.8713,0.0000,0.3176,0.9415,"999",39,37,37,20,3,01,3,f3*e48ce535
$GNGGA,020426.40,3039.26792548,N,12047.31955850,E,2,28,0.6,3.9694,M,9.8172,M,02,0*73
$GNRMC,020426.40,A,3039.26792548,N,12047.31955850,E,0.013,217.6,170120,5.8,W,D*3C
#HEADINGA,COM2,0,41.0,FINE,2088,439484.400,739469,30,18;SOL_COMPUTED,NARROW_INT,0.6149,142.4792,-10.6791,0.0000,0.3177,0.9428,"999",39,37,37,20,3,01,3,f3*80668117
$GNGGA,020426.50,3039.26792565,N,12047.31955857,E,2,28,0.6,3.9682,M,9.8172,M,02,0*7D
$GNRMC,020426.50,A,3039.26792565,N,12047.31955857,E,0.006,156.7,170120,5.8,W,D*36
#HEADINGA,COM2,0,39.0,FINE,2088,439484.500,739569,30,18;SOL_COMPUTED,NARROW_INT,0.6155,142.5594,-10.6480,0.0000,0.3168,0.9416,"999",39,37,37,20,3,01,3,f3*0f7cb157
$GNGGA,020426.60,3039.26792574,N,12047.31955869,E,2,28,0.6,3.9682,M,9.8172,M,02,0*73
$GNRMC,020426.60,A,3039.26792574,N,12047.31955869,E,0.008,143.4,170120,5.8,W,D*31
#HEADINGA,COM2,0,39.0,FINE,2088,439484.600,739669,30,18;SOL_COMPUTED,NARROW_INT,0.6163,142.3938,-11.0567,0.0000,0.3170,0.9395,"999",39,37,37,20,3,01,3,f3*f3401ef1
$GNGGA,020426.70,3039.26792572,N,12047.31955890,E,2,28,0.6,3.9673,M,9.8172,M,02,0*7C
$GNRMC,020426.70,A,3039.26792572,N,12047.31955890,E,0.012,155.9,170120,5.8,W,D*31
#HEADINGA,COM2,0,39.0,FINE,2088,439484.700,739769,30,18;SOL_COMPUTED,NARROW_INT,0.6138,142.5705,-10.4955,0.0000,0.3175,0.9447,"999",39,37,37,20,3,01,3,f3*48796525
$GNGGA,020426.80,3039.26792567,N,12047.31955906,E,2,28,0.6,3.9677,M,9.8172,M,02,0*7D
$GNRMC,020426.80,A,3039.26792567,N,12047.31955906,E,0.014,152.2,170120,5.8,W,D*3E
#HEADINGA,COM2,0,39.0,FINE,2088,439484.800,739869,30,18;SOL_COMPUTED,NARROW_INT,0.6150,142.5046,-10.4897,0.0000,0.3171,0.9429,"999",39,37,37,20,3,01,3,f3*36611363
$GNGGA,020426.90,3039.26792563,N,12047.31955949,E,2,28,0.6,3.9674,M,9.8172,M,02,0*70
$GNRMC,020426.90,A,3039.26792563,N,12047.31955949,E,0.019,145.6,170120,5.8,W,D*3F
#HEADINGA,COM2,0,39.0,FINE,2088,439484.900,739969,29,18;SOL_COMPUTED,NARROW_INT,0.6150,142.5213,-10.7551,0.0000,0.3177,0.9423,"999",39,37,37,20,3,01,3,f3*a4dab9d3
#REFSTATIONA,COM2,0,41.0,FINE,2088,439482.000,738272,1801,18;00000000,-2811023.329,4717645.324,3233007.504,0,RTCMV3,"0000"*cc72d6ec
$GNGGA,020427.00,3039.26792554,N,12047.31955964,E,2,28,0.6,3.9673,M,9.8172,M,03,0*75
$GNRMC,020427.00,A,3039.26792554,N,12047.31955964,E,0.015,165.1,170120,5.8,W,D*35
#HEADINGA,COM2,0,39.0,FINE,2088,439485.000,740069,37,18;SOL_COMPUTED,NARROW_INT,0.6155,142.3546,-10.6191,0.0000,0.3174,0.9416,"999",39,37,37,20,3,01,3,f3*e140c1b0
$GNGGA,020427.10,3039.26792552,N,12047.31955972,E,2,28,0.6,3.9673,M,9.8172,M,03,0*75
$GNRMC,020427.10,A,3039.26792552,N,12047.31955972,E,0.012,165.3,170120,5.8,W,D*30
#HEADINGA,COM2,0,39.0,FINE,2088,439485.100,740169,30,18;SOL_COMPUTED,NARROW_INT,0.6164,142.2830,-10.9997,0.0000,0.3174,0.9398,"999",39,37,37,20,3,01,3,f3*3eefbaaa
$GNGGA,020427.20,3039.26792586,N,12047.31955972,E,2,28,0.6,3.9663,M,9.8172,M,03,0*7E
$GNRMC,020427.20,A,3039.26792586,N,12047.31955972,E,0.005,226.4,170120,5.8,W,D*3F
#HEADINGA,COM2,0,39.0,FINE,2088,439485.200,740271,30,18;SOL_COMPUTED,NARROW_INT,0.6146,142.4491,-11.1201,0.0000,0.3182,0.9426,"999",39,37,37,20,3,01,3,f3*a6f55e50
$GNGGA,020427.30,3039.26792617,N,12047.31955967,E,2,28,0.6,3.9643,M,9.8172,M,01,0*70
$GNRMC,020427.30,A,3039.26792617,N,12047.31955967,E,0.009,217.5,170120,5.8,W,D*3E
#HEADINGA,COM2,0,39.0,FINE,2088,439485.300,740370,32,18;SOL_COMPUTED,NARROW_INT,0.6141,142.5091,-10.9330,0.0000,0.3178,0.9437,"999",39,37,37,20,3,01,3,f3*b04aa3e4
$GNGGA,020427.40,3039.26792635,N,12047.31955982,E,2,28,0.6,3.9629,M,9.8172,M,01,0*70
$GNRMC,020427.40,A,3039.26792635,N,12047.31955982,E,0.009,144.6,170120,5.8,W,D*34
