
$GNGGA,014929.50,3039.26755569,N,12047.31893183,E,2,27,0.6,3.9541,M,9.8171,M,09,0*7F
$GNRMC,014929.50,A,3039.26755569,N,12047.31893183,E,0.016,146.8,170120,5.8,W,D*30
#HEADINGA,COM2,0,40.0,FINE,2088,438587.500,142529,29,18;SOL_COMPUTED,NARROW_INT,0.4440,255.4117,-14.1759,0.0000,0.4490,1.2593,"999",40,37,37,30,3,01,3,f3*371dacfb
$GNGGA,014929.60,3039.26755557,N,12047.31893186,E,2,27,0.6,3.9554,M,9.8171,M,09,0*70
$GNRMC,014929.60,A,3039.26755557,N,12047.31893186,E,0.007,224.1,170120,5.8,W,D*35
#HEADINGA,COM2,0,49.0,FINE,2088,438587.600,142629,29,18;SOL_COMPUTED,NARROW_INT,0.4444,255.9447,-13.8907,0.0000,0.4492,1.2623,"999",40,37,37,30,3,01,3,f3*a4b74d19
$GNGGA,014929.70,3039.26755544,N,12047.31893175,E,2,27,0.6,3.9570,M,9.8171,M,09,0*79
$GNRMC,014929.70,A,3039.26755544,N,12047.31893175,E,0.015,189.5,170120,5.8,W,D*39
#HEADINGA,COM2,0,49.0,FINE,2088,438587.700,142729,29,18;SOL_COMPUTED,NARROW_INT,0.4448,255.9156,-13.6260,0.0000,0.4483,1.2616,"999",40,37,37,30,3,01,3,f3*ff4bcdc7
$GNGGA,014929.80,3039.26755554,N,12047.31893139,E,2,27,0.6,3.9585,M,9.8171,M,09,0*75
$GNRMC,014929.80,A,3039.26755554,N,12047.31893139,E,0.013,231.8,170120,5.8,W,D*34
#HEADINGA,COM2,0,49.0,FINE,2088,438587.800,142829,29,18;SOL_COMPUTED,NARROW_INT,0.4438,255.4891,-13.6583,0.0000,0.4492,1.2647,"999",40,37,37,30,3,01,3,f3*382442b9
$GNGGA,014929.90,3039.26755522,N,12047.31893133,E,2,27,0.6,3.9615,M,9.8171,M,09,0*75
$GNRMC,014929.90,A,3039.26755522,N,12047.31893133,E,0.022,197.7,170120,5.8,W,D*3C
#HEADINGA,COM2,0,49.0,FINE,2088,438587.900,142929,29,18;SOL_COMPUTED,NARROW_INT,0.4451,255.8104,-13.8246,0.0000,0.4481,1.2601,"999",40,37,37,30,3,01,3,f3*2b1ea9c5
#REFSTATIONA,COM2,0,40.0,FINE,2088,438578.000,142231,802,18;00000000,-2811023.329,4717645.324,3233007.504,0,RTCMV3,"0000"*62f320b7
$GNGGA,014930.00,3039.26755523,N,12047.31893126,E,2,27,0.6,3.9641,M,9.8171,M,10,0*78
$GNRMC,014930.00,A,3039.26755523,N,12047.31893126,E,0.012,210.2,170120,5.8,W,D*32
#HEADINGA,COM2,0,49.0,FINE,2088,438588.000,143029,36,18;SOL_COMPUTED,NARROW_INT,0.4450,255.5721,-14.0217,0.0000,0.4484,1.2606,"999",40,37,37,30,3,01,3,f3*b6597634
$GNGGA,014930.10,3039.26755536,N,12047.31893084,E,2,27,0.6,3.9660,M,9.8171,M,10,0*77
$GNRMC,014930.10,A,3039.26755536,N,12047.31893084,E,0.019,249.8,170120,5.8,W,D*33
#HEADINGA,COM2,0,49.0,FINE,2088,438588.100,143130,30,18;SOL_COMPUTED,NARROW_INT,0.4447,255.5366,-14.1693,0.0000,0.4493,1.2614,"999",40,37,37,30,3,01,3,f3*9cc11613
$GNGGA,014930.20,3039.26755576,N,12047.31893056,E,2,27,0.6,3.9682,M,9.8171,M,10,0*73
$GNRMC,014930.20,A,3039.26755576,N,12047.31893056,E,0.015,283.6,170120,5.8,W,D*3F
#HEADINGA,COM2,0,49.0,FINE,2088,438588.200,143232,30,18;SOL_COMPUTED,NARROW_INT,0.4455,255.4472,-13.6413,0.0000,0.4470,1.2597,"999",40,37,37,30,3,01,3,f3*fe61747f
$GNGGA,014930.30,3039.26755558,N,12047.31893029,E,2,27,0.6,3.9712,M,9.8171,M,10,0*7E
$GNRMC,014930.30,A,3039.26755558,N,12047.31893029,E,0.021,221.2,170120,5.8,W,D*31
#HEADINGA,COM2,0,49.0,FINE,2088,438588.300,143330,29,18;SOL_COMPUTED,NARROW_INT,0.4449,255.7177,-13.8988,0.0000,0.4484,1.2611,"999",40,37,37,30,3,01,3,f3*7193b95f
$GNGGA,014930.40,3039.26755564,N,12047.31893015,E,2,27,0.6,3.9732,M,9.8171,M,10,0*7B
$GNRMC,014930.40,A,3039.26755564,N,12047.31893015,E,0.013,231.3,170120,5.8,W,D*37
#HEADINGA,COM2,0,49.0,FINE,2088,438588.400,143429,30,18;SOL_COMPUTED,NARROW_INT,0.4451,255.7282,-13.9218,0.0000,0.4484,1.2603,"999",40,37,37,30,3,01,3,f3*f42ff235
$GNGGA,014930.50,3039.26755595,N,12047.31893010,E,2,27,0.6,3.9766,M,9.8171,M,10,0*70
$GNRMC,014930.50,A,3039.26755595,N,12047.31893010,E,0.006,274.6,170120,5.8,W,D*3D
#HEADINGA,COM2,0,49.0,FINE,2088,438588.500,143529,29,18;SOL_COMPUTED,NARROW_INT,0.4444,255.9078,-13.6036,0.0000,0.4486,1.2624,"999",40,37,37,30,3,01,3,f3*f48a06e4
$GNGGA,014930.60,3039.26755597,N,12047.31893003,E,2,27,0.6,3.9803,M,9.8171,M,10,0*7F
$GNRMC,014930.60,A,3039.26755597,N,12047.31893003,E,0.011,222.6,170120,5.8,W,D*3B
#HEADINGA,COM2,0,49.0,FINE,2088,438588.600,143629,29,18;SOL_COMPUTED,NARROW_INT,0.4457,255.7100,-14.4213,0.0000,0.4484,1.2554,"999",40,37,37,30,3,01,3,f3*cded0aef
$GNGGA,014930.70,3039.26755631,N,12047.31893005,E,2,27,0.6,3.9839,M,9.8171,M,10,0*7E
$GNRMC,014930.70,A,3039.26755631,N,12047.31893005,E,0.004,296.0,170120,5.8,W,D*3E
#HEADINGA,COM2,0,49.0,FINE,2088,438588.700,143729,29,18;SOL_COMPUTED,NARROW_INT,0.4463,256.2961,-13.8180,0.0000,0.4470,1.2541,"999",40,37,37,30,3,01,3,f3*23855529
$GNGGA,014930.80,3039.26755672,N,12047.31893015,E,2,27,0.6,3.9852,M,9.8171,M,10,0*7A
$GNRMC,014930.80,A,3039.26755672,N,12047.31893015,E,0.006,329.8,170120,5.8,W,D*38
#HEADINGA,COM2,0,49.0,FINE,2088,438588.800,143829,29,18;SOL_COMPUTED,NARROW_INT,0.4440,255.9677,-13.7396,0.0000,0.4490,1.2612,"999",40,37,37,30,3,01,3,f3*66119f37
$GNGGA,014930.90,3039.26755670,N,12047.31892972,E,2,27,0.6,3.9879,M,9.8171,M,10,0*79
$GNRMC,014930.90,A,3039.26755670,N,12047.31892972,E,0.020,245.8,170120,5.8,W,D*3D
#HEADINGA,COM2,0,49.0,FINE,2088,438588.900,143929,29,18;SOL_COMPUTED,NARROW_INT,0.4444,255.6192,-14.4725,0.0000,0.4500,1.2596,"999",40,37,37,30,3,01,3,f3*127152f0
#REFSTATIONA,COM2,0,40.0,FINE,2088,438578.000,142231,1803,18;00000000,-2811023.329,4717645.324,3233007.504,0,RTCMV3,"0000"*3dd7d8d8
$GNGGA,014931.00,3039.26755683,N,12047.31892960,E,2,27,0.6,3.9901,M,9.8171,M,11,0*71
$GNRMC,014931.00,A,3039.26755683,N,12047.31892960,E,0.010,250.5,170120,5.8,W,D*30
#HEADINGA,COM2,0,49.0,FINE,2088,438589.000,144030,35,18;SOL_COMPUTED,NARROW_INT,0.4434,256.2622,-13.6319,0.0000,0.4497,1.2637,"999",40,37,37,30,3,01,3,f3*4d44a2a9
$GNGGA,014931.10,3039.26755656,N,12047.31892965,E,2,27,0.6,3.9910,M,9.8171,M,11,0*7D
$GNRMC,014931.10,A,3039.26755656,N,12047.31892965,E,0.018,194.2,170120,5.8,W,D*38
#HEADINGA,COM2,0,49.0,FINE,2088,438589.100,144129,30,18;SOL_COMPUTED,NARROW_INT,0.4426,255.5398,-14.1546,0.0000,0.4514,1.2648,"999",40,37,37,30,3,01,3,f3*d8c256cf
$GNGGA,014931.20,3039.26755670,N,12047.31892949,E,2,27,0.6,3.9925,M,9.8171,M,11,0*72
$GNRMC,014931.20,A,3039.26755670,N,12047.31892949,E,0.011,244.3,170120,5.8,W,D*37
#HEADINGA,COM2,0,49.0,FINE,2088,438589.200,144231,31,18;SOL_COMPUTED,NARROW_INT,0.4439,255.8216,-14.0853,0.0000,0.4502,1.2617,"999",40,37,37,30,3,01,3,f3*b94806ce
$GNGGA,014931.30,3039.26755693,N,12047.31892928,E,2,27,0.6,3.9941,M,9.8171,M,10,0*7A
$GNRMC,014931.30,A,3039.26755693,N,12047.31892928,E,0.011,279.7,170120,5.8,W,D*36
#HEADINGA,COM2,0,49.0,FINE,2088,438589.300,144329,32,18;SOL_COMPUTED,NARROW_INT,0.4455,255.6067,-14.0590,0.0000,0.4483,1.2573,"999",40,37,37,30,3,01,3,f3*02c68014
$GNGGA,014931.40,3039.26755729,N,12047.31892880,E,2,27,0.6,3.9957,M,9.8171,M,10,0*79
$GNRMC,014931.40,A,3039.26755729,N,12047.31892880,E,0.015,295.2,170120,5.8,W,D*31
#HEADINGA,COM2,0,49.0,FINE,2088,438589.400,144429,30,18;SOL_COMPUTED,NARROW_INT,0.4436,255.7306,-13.5739,0.0000,0.4494,1.2633,"999",40,37,37,30,3,01,3,f3*21eeaef3
$GNGGA,014931.50,3039.26755766,N,12047.31892823,E,2,27,0.6,3.9958,M,9.8171,M,10,0*75
$GNRMC,014931.50,A,3039.26755766,N,12047.31892823,E,0.019,291.9,170120,5.8,W,D*31
#HEADINGA,COM2,0,49.0,FINE,2088,438589.500,144529,29,18;SOL_COMPUTED,NARROW_INT,0.4434,255.9488,-13.7138,0.0000,0.4499,1.2454,"999",40,38,38,30,3,01,3,f3*8fdd18b9
$GNGGA,014931.60,3039.26755754,N,12047.31892799,E,2,27,0.6,3.9991,M,9.8171,M,10,0*7C
$GNRMC,014931.60,A,3039.26755754,N,12047.31892799,E,0.012,223.4,170120,5.8,W,D*32
#HEADINGA,COM2,0,49.0,FINE,2088,438589.600,144629,30,18;SOL_COMPUTED,NARROW_INT,0.4448,255.7792,-14.5132,0.0000,0.4498,1.2396,"999",40,38,38,30,3,01,3,f3*004b69dd
$GNGGA,014931.70,3039.26755777,N,12047.31892752,E,2,27,0.6,4.0012,M,9.8171,M,10,0*77
$GNRMC,014931.70,A,3039.26755777,N,12047.31892752,E,0.016,270.1,170120,5.8,W,D*32
#HEADINGA,COM2,0,49.0,FINE,2088,438589.700,144729,29,18;SOL_COMPUTED,NARROW_INT,0.4473,255.6855,-14.0837,0.0000,0.4461,1.2332,"999",40,38,38,30,3,01,3,f3*75a997bb
$GNGGA,014931.80,3039.26755801,N,12047.31892708,E,2,27,0.6,4.0018,M,9.8171,M,10,0*73
$GNRMC,014931.80,A,3039.26755801,N,12047.31892708,E,0.016,274.1,170120,5.8,W,D*38
#HEADINGA,COM2,0,49.0,FINE,2088,438589.800,144829,29,18;SOL_COMPUTED,NARROW_INT,0.4457,256.3326,-14.6579,0.0000,0.4496,1.2373,"999",40,38,38,30,3,01,3,f3*111e5292
$GNGGA,014931.90,3039.26755802,N,12047.31892674,E,2,27,0.6,4.0022,M,9.8171,M,10,0*72
$GNRMC,014931.90,A,3039.26755802,N,12047.31892674,E,0.014,249.3,170120,5.8,W,D*3E
#HEADINGA,COM2,0,49.0,FINE,2088,438589.900,144929,29,18;SOL_COMPUTED,NARROW_INT,0.4462,256.0508,-13.6613,0.0000,0.4468,1.2371,"999",40,38,38,30,3,01,3,f3*54c64296
#REFSTATIONA,COM2,0,49.0,FINE,2088,438579.000,144231,803,18;00000000,-2811023.329,4717645.324,3233007.504,0,RTCMV3,"0000"*746272cb
$GNGGA,014932.00,3039.26755812,N,12047.31892646,E,2,27,0.6,4.0032,M,9.8171,M,11,0*78
$GNRMC,014932.00,A,3039.26755812,N,12047.31892646,E,0.012,259.3,170120,5.8,W,D*33
#HEADINGA,COM2,0,49.0,FINE,2088,438590.000,145029,36,18;SOL_COMPUTED,NARROW_INT,0.4450,255.6793,-14.2399,0.0000,0.4491,1.2394,"999",40,38,38,30,3,01,3,f3*36fc6cc7
$GNGGA,014932.10,3039.26755819,N,12047.31892612,E,2,27,0.6,4.0054,M,9.8171,M,11,0*73
$GNRMC,014932.10,A,3039.26755819,N,12047.31892612,E,0.013,254.9,170120,5.8,W,D*3E
#HEADINGA,COM2,0,49.0,FINE,2088,438590.100,145130,30,18;SOL_COMPUTED,NARROW_INT,0.4464,255.7506,-14.0065,0.0000,0.4472,1.2362,"999",40,38,38,30,3,01,3,f3*54374821
$GNGGA,014932.20,3039.26755802,N,12047.31892615,E,2,27,0.6,4.0077,M,9.8171,M,11,0*7C
$GNRMC,014932.20,A,3039.26755802,N,12047.31892615,E,0.003,175.3,170120,5.8,W,D*3B
#HEADINGA,COM2,0,49.0,FINE,2088,438590.200,145231,31,18;SOL_COMPUTED,NARROW_INT,0.4466,255.8884,-14.4920,0.0000,0.4481,1.2350,"999",40,38,38,30,3,01,3,f3*595753fc
$GNGGA,014932.30,3039.26755768,N,12047.31892607,E,2,27,0.6,4.0098,M,9.8171,M,09,0*75
$GNRMC,014932.30,A,3039.26755768,N,12047.31892607,E,0.014,197.2,170120,5.8,W,D*31
#HEADINGA,COM2,0,49.0,FINE,2088,438590.300,145329,33,18;SOL_COMPUTED,NARROW_INT,0.4442,256.1196,-14.4972,0.0000,0.4509,1.2426,"999",40,38,38,30,3,01,3,f3*015057fc
$GNGGA,014932.40,3039.26755775,N,12047.31892577,E,2,27,0.6,4.0113,M,9.8171,M,09,0*78
$GNRMC,014932.40,A,3039.26755775,N,12047.31892577,E,0.010,267.3,170120,5.8,W,D*37
#HEADINGA,COM2,0,49.0,FINE,2088,438590.400,145429,30,18;SOL_COMPUTED,NARROW_INT,0.4457,255.8705,-14.4458,0.0000,0.4491,1.2384,"999",40,38,38,30,3,01,3,f3*d87b3273
$GNGGA,014932.50,3039.26755812,N,12047.31892544,E,2,27,0.6,4.0142,M,9.8171,M,09,0*73
$GNRMC,014932.50,A,3039.26755812,N,12047.31892544,E,0.015,317.1,170120,5.8,W,D*39
#HEADINGA,COM2,0,49.0,FINE,2088,438590.500,145529,30,18;SOL_COMPUTED,NARROW_INT,0.4457,256.0206,-14.4781,0.0000,0.4491,1.2383,"999",40,38,38,30,3,01,3,f3*75577edc
$GNGGA,014932.60,3039.26755786,N,12047.31892525,E,2,27,0.6,4.0166,M,9.8171,M,09,0*73
$GNRMC,014932.60,A,3039.26755786,N,12047.31892525,E,0.007,254.6,170120,5.8,W,D*3D
#HEADINGA,COM2,0,49.0,FINE,2088,438590.600,145630,30,18;SOL_COMPUTED,NARROW_INT,0.4460,255.7651,-13.5617,0.0000,0.4469,1.2386,"999",39,38,38,30,3,01,3,f3*93c4bdb1
$GNGGA,014932.70,3039.26755767,N,12047.31892519,E,2,27,0.6,4.0175,M,9.8171,M,09,0*70
$GNRMC,014932.70,A,3039.26755767,N,12047.31892519,E,0.003,244.5,170120,5.8,W,D*3A
#HEADINGA,COM2,0,39.0,FINE,2088,438590.700,145729,30,18;SOL_COMPUTED,NARROW_INT,0.4442,255.6687,-13.5353,0.0000,0.4486,1.2437,"999",39,38,38,30,3,01,3,f3*695542e6
$GNGGA,014932.80,3039.26755739,N,12047.31892503,E,2,27,0.6,4.0197,M,9.8171,M,09,0*73
$GNRMC,014932.80,A,3039.26755739,N,12047.31892503,E,0.008,237.1,170120,5.8,W,D*3E
#HEADINGA,COM2,0,39.0,FINE,2088,438590.800,145829,29,18;SOL_COMPUTED,NARROW_INT,0.4456,256.2427,-14.1319,0.0000,0.4487,1.2385,"999",39,38,38,30,3,01,3,f3*9d3b8551
$GNGGA,014932.90,3039.26755700,N,12047.31892460,E,2,27,0.6,4.0217,M,9.8171,M,09,0*77
$GNRMC,014932.90,A,3039.26755700,N,12047.31892460,E,0.018,239.4,170120,5.8,W,D*3B
#HEADINGA,COM2,0,39.0,FINE,2088,438590.900,145929,29,18;SOL_COMPUTED,NARROW_INT,0.4444,255.9165,-14.0897,0.0000,0.4495,1.2421,"999",39,38,38,30,3,01,3,f3*9eb32dc5
#REFSTATIONA,COM2,0,49.0,FINE,2088,438581.000,145231,803,18;00000000,-2811023.329,4717645.324,3233007.504,0,RTCMV3,"0000"*b54e80aa
$GNGGA,014933.00,3039.26755652,N,12047.31892389,E,2,27,0.6,4.0223,M,9.8171,M,10,0*76
$GNRMC,014933.00,A,3039.26755652,N,12047.31892389,E,0.028,239.5,170120,5.8,W,D*37
#HEADINGA,COM2,0,39.0,FINE,2088,438591.000,146029,36,18;SOL_COMPUTED,NARROW_INT,0.4462,256.1293,-13.9256,0.0000,0.4477,1.2400,"999",39,38,38,30,3,01,3,f3*7d36af92
$GNGGA,014933.10,3039.26755596,N,12047.31892367,E,2,27,0.6,4.0234,M,9.8171,M,10,0*7A
$GNRMC,014933.10,A,3039.26755596,N,12047.31892367,E,0.019,209.6,170120,5.8,W,D*3F
#HEADINGA,COM2,0,39.0,FINE,2088,438591.100,146129,30,18;SOL_COMPUTED,NARROW_INT,0.4452,256.2250,-13.4294,0.0000,0.4477,1.2403,"999",39,38,38,30,3,01,3,f3*3766c63a
$GNGGA,014933.20,3039.26755558,N,12047.31892368,E,2,27,0.6,4.0248,M,9.8171,M,10,0*7F
$GNRMC,014933.20,A,3039.26755558,N,12047.31892368,E,0.012,198.5,170120,5.8,W,D*32
#HEADINGA,COM2,0,39.0,FINE,2088,438591.200,146230,31,18;SOL_COMPUTED,NARROW_INT,0.4465,255.4495,-14.1297,0.0000,0.4474,1.2366,"999",39,38,38,30,3,01,3,f3*8341fd6e
$GNGGA,014933.30,3039.26755538,N,12047.31892367,E,2,27,0.6,4.0259,M,9.8171,M,10,0*77
$GNRMC,014933.30,A,3039.26755538,N,12047.31892367,E,0.006,215.6,170120,5.8,W,D*3A
#HEADINGA,COM2,0,39.0,FINE,2088,438591.300,146329,30,18;SOL_COMPUTED,NARROW_INT,0.4449,256.3981,-13.5414,0.0000,0.4484,1.2407,"999",39,38,38,30,3,01,3,f3*f992f9dd
$GNGGA,014933.40,3039.26755515,N,12047.31892338,E,2,27,0.6,4.0289,M,9.8171,M,10,0*78
$GNRMC,014933.40,A,3039.26755515,N,12047.31892338,E,0.012,240.0,170120,5.8,W,D*3B
#HEADINGA,COM2,0,39.0,FINE,2088,438591.400,146429,29,18;SOL_COMPUTED,NARROW_INT,0.4464,255.7313,-14.5774,0.0000,0.4486,1.2360,"999",39,38,38,30,3,01,3,f3*1fcf623c
$GNGGA,014933.50,3039.26755503,N,12047.31892303,E,2,27,0.6,4.0295,M,9.8171,M,10,0*7B
$GNRMC,014933.50,A,3039.26755503,N,12047.31892303,E,0.015,257.3,170120,5.8,W,D*37
#HEADINGA,COM2,0,39.0,FINE,2088,438591.500,146529,29,18;SOL_COMPUTED,NARROW_INT,0.4458,256.0259,-14.5563,0.0000,0.4493,1.2376,"999",39,38,38,30,3,01,3,f3*d0d106e5
$GNGGA,014933.60,3039.26755486,N,12047.31892279,E,2,27,0.6,4.0321,M,9.8171,M,10,0*76
$GNRMC,014933.60,A,3039.26755486,N,12047.31892279,E,0.010,246.6,170120,5.8,W,D*34
#HEADINGA,COM2,0,39.0,FINE,2088,438591.600,146629,29,18;SOL_COMPUTED,NARROW_INT,0.4458,255.5107,-14.1376,0.0000,0.4482,1.2384,"999",39,38,38,30,3,01,3,f3*b202a037
$GNGGA,014933.70,3039.26755465,N,12047.31892271,E,2,27,0.6,4.0337,M,9.8171,M,10,0*75
$GNRMC,014933.70,A,3039.26755465,N,12047.31892271,E,0.009,224.2,170120,5.8,W,D*38
#HEADINGA,COM2,0,39.0,FINE,2088,438591.700,146729,29,18;SOL_COMPUTED,NARROW_INT,0.4452,255.6989,-14.2691,0.0000,0.4491,1.2397,"999",39,38,38,30,3,01,3,f3*c173b257
$GNGGA,014933.80,3039.26755436,N,12047.31892266,E,2,27,0.6,4.0359,M,9.8171,M,10,0*72
$GNRMC,014933.80,A,3039.26755436,N,12047.31892266,E,0.010,205.1,170120,5.8,W,D*3F
#HEADINGA,COM2,0,39.0,FINE,2088,438591.800,146829,29,18;SOL_COMPUTED,NARROW_INT,0.4448,255.7968,-14.1208,0.0000,0.4493,1.2410,"999",39,38,38,30,3,01,3,f3*a122cd28
$GNGGA,014933.90,3039.26755386,N,12047.31892316,E,2,27,0.6,4.0387,M,9.8171,M,10,0*7A
$GNRMC,014933.90,A,3039.26755386,N,12047.31892316,E,0.017,151.7,170120,5.8,W,D*37
#HEADINGA,COM2,0,39.0,FINE,2088,438591.900,146929,29,18;SOL_COMPUTED,NARROW_INT,0.4455,255.8588,-14.1369,0.0000,0.4485,1.2382,"999",39,38,38,30,3,01,3,f3*254dfc31
#REFSTATIONA,COM2,0,39.0,FINE,2088,438581.000,146230,803,18;00000000,-2811023.329,4717645.324,3233007.504,0,RTCMV3,"0000"*319f06ad
$GNGGA,014934.00,3039.26755399,N,12047.31892308,E,2,27,0.6,4.0396,M,9.8171,M,11,0*74
$GNRMC,014934.00,A,3039.26755399,N,12047.31892308,E,0.016,300.9,170120,5.8,W,D*31
#HEADINGA,COM2,0,39.0,FINE,2088,438592.000,147029,36,18;SOL_COMPUTED,NARROW_INT,0.4450,255.5937,-13.6645,0.0000,0.4479,1.2401,"999",39,38,38,30,3,01,3,f3*fe0671fc
$GNGGA,014934.10,3039.26755368,N,12047.31892284,E,2,27,0.6,4.0426,M,9.8171,M,11,0*72
$GNRMC,014934.10,A,3039.26755368,N,12047.31892284,E,0.013,233.3,170120,5.8,W,D*35
#HEADINGA,COM2,0,39.0,FINE,2088,438592.100,147129,30,18;SOL_COMPUTED,NARROW_INT,0.4458,255.5824,-13.8210,0.0000,0.4471,1.2377,"999",39,38,38,30,3,01,3,f3*659ec198
$GNGGA,014934.20,3039.26755348,N,12047.31892304,E,2,27,0.6,4.0446,M,9.8171,M,11,0*7C
$GNRMC,014934.20,A,3039.26755348,N,12047.31892304,E,0.007,153.6,170120,5.8,W,D*38
#HEADINGA,COM2,0,39.0,FINE,2088,438592.200,147231,31,18;SOL_COMPUTED,NARROW_INT,0.4460,255.8683,-14.0863,0.0000,0.4479,1.2369,"999",39,38,38,30,3,01,3,f3*7e8ab6b0
$GNGGA,014934.30,3039.26755342,N,12047.31892364,E,2,27,0.6,4.0485,M,9.8171,M,10,0*7F
$GNRMC,014934.30,A,3039.26755342,N,12047.31892364,E,0.014,83.6,170120,5.8,W,D*0B
#HEADINGA,COM2,0,39.0,FINE,2088,438592.300,147329,32,18;SOL_COMPUTED,NARROW_INT,0.4457,255.8737,-14.0496,0.0000,0.4582,1.2594,"999",39,38,38,30,3,01,3,f3*975e7c1e
$GNGGA,014934.40,3039.26755347,N,12047.31892430,E,2,27,0.6,4.0518,M,9.8171,M,10,0*7E
$GNRMC,014934.40,A,3039.26755347,N,12047.31892430,E,0.017,73.3,170120,5.8,W,D*06
#HEADINGA,COM2,0,39.0,FINE,2088,438592.400,147429,29,18;SOL_COMPUTED,NARROW_INT,0.4464,255.5364,-13.6832,0.0000,0.4563,1.2578,"999",39,38,38,30,3,01,3,f3*2fdbc8a6
$GNGGA,014934.50,3039.26755350,N,12047.31892445,E,2,27,0.6,4.0546,M,9.8171,M,10,0*70
$GNRMC,014934.50,A,3039.26755350,N,12047.31892445,E,0.005,14.8,170120,5.8,W,D*0A
#HEADINGA,COM2,0,39.0,FINE,2088,438592.500,147529,29,18;SOL_COMPUTED,NARROW_INT,0.4471,255.9719,-14.0122,0.0000,0.4566,1.2552,"999",39,38,38,30,3,01,3,f3*e68136b1
$GNGGA,014934.60,3039.26755335,N,12047.31892428,E,2,27,0.6,4.0572,M,9.8171,M,10,0*7C
$GNRMC,014934.60,A,3039.26755335,N,12047.31892428,E,0.010,269.1,170120,5.8,W,D*34
#HEADINGA,COM2,0,39.0,FINE,2088,438592.600,147629,29,18;SOL_COMPUTED,NARROW_INT,0.4466,255.6173,-13.9833,0.0000,0.4566,1.2570,"999",39,38,38,30,3,01,3,f3*048d5ead
$GNGGA,014934.70,3039.26755312,N,12047.31892385,E,2,27,0.6,4.0598,M,9.8171,M,10,0*7C
$GNRMC,014934.70,A,3039.26755312,N,12047.31892385,E,0.018,262.1,170120,5.8,W,D*33
#HEADINGA,COM2,0,39.0,FINE,2088,438592.700,147729,29,18;SOL_COMPUTED,NARROW_INT,0.4453,255.2735,-13.6766,0.0000,0.4572,1.2612,"999",39,38,38,30,3,01,3,f3*754b4064
$GNGGA,014934.80,3039.26755264,N,12047.31892401,E,2,27,0.6,4.0640,M,9.8171,M,10,0*7E
$GNRMC,014934.80,A,3039.26755264,N,12047.31892401,E,0.011,174.7,170120,5.8,W,D*3C
#HEADINGA,COM2,0,39.0,FINE,2088,438592.800,147829,29,18;SOL_COMPUTED,NARROW_INT,0.4465,255.7467,-13.8069,0.0000,0.4567,1.2595,"999",39,38,38,30,3,01,3,f3*98e58404
$GNGGA,014934.90,3039.26755220,N,12047.31892400,E,2,27,0.6,4.0651,M,9.8171,M,10,0*7E
$GNRMC,014934.90,A,3039.26755220,N,12047.31892400,E,0.013,203.3,170120,5.8,W,D*39
#HEADINGA,COM2,0,39.0,FINE,2088,438592.900,147929,29,18;SOL_COMPUTED,NARROW_INT,0.4460,255.2266,-14.0680,0.0000,0.4572,1.2611,"999",39,38,38,30,3,01,3,f3*2feab95c
#REFSTATIONA,COM2,0,39.0,FINE,2088,438582.000,147231,802,18;00000000,-2811023.329,4717645.324,3233007.504,0,RTCMV3,"0000"*609e8a42
$GNGGA,014935.00,3039.26755187,N,12047.31892393,E,2,27,0.6,4.0675,M,9.8171,M,11,0*72
$GNRMC,014935.00,A,3039.26755187,N,12047.31892393,E,0.009,217.6,170120,5.8,W,D*39
#HEADINGA,COM2,0,39.0,FINE,2088,438593.000,148029,36,18;SOL_COMPUTED,NARROW_INT,0.4462,256.0754,-13.8594,0.0000,0.4572,1.2601,"999",39,38,38,30,3,01,3,f3*11ad6386
$GNGGA,014935.10,3039.26755153,N,12047.31892365,E,2,27,0.6,4.0696,M,9.8171,M,11,0*7E
$GNRMC,014935.10,A,3039.26755153,N,12047.31892365,E,0.018,234.0,170120,5.8,W,D*3F
#HEADINGA,COM2,0,39.0,FINE,2088,438593.100,148129,30,18;SOL_COMPUTED,NARROW_INT,0.4466,255.9455,-13.5429,0.0000,0.4559,1.2572,"999",39,38,38,30,3,01,3,f3*1e490c92
$GNGGA,014935.20,3039.26755132,N,12047.31892347,E,2,27,0.6,4.0731,M,9.8171,M,11,0*76
$GNRMC,014935.20,A,3039.26755132,N,12047.31892347,E,0.011,244.5,170120,5.8,W,D*30
#HEADINGA,COM2,0,39.0,FINE,2088,438593.200,148231,31,18;SOL_COMPUTED,NARROW_INT,0.4458,255.6296,-13.5074,0.0000,0.4567,1.2620,"999",39,38,38,30,3,01,3,f3*a8797e86
$GNGGA,014935.30,3039.26755100,N,12047.31892324,E,2,27,0.6,4.0745,M,9.8171,M,11,0*70
$GNRMC,014935.30,A,3039.26755100,N,12047.31892324,E,0.014,236.9,170120,5.8,W,D*39
#HEADINGA,COM2,0,39.0,FINE,2088,438593.300,148329,29,18;SOL_COMPUTED,NARROW_INT,0.4435,255.5200,-13.0962,0.0000,0.4482,1.2465,"999",39,38,38,30,3,01,3,f3*86439639
$GNGGA,014935.40,3039.26755081,N,12047.31892358,E,2,27,0.6,4.0770,M,9.8171,M,11,0*72
$GNRMC,014935.40,A,3039.26755081,N,12047.31892358,E,0.008,113.3,170120,5.8,W,D*3E
#HEADINGA,COM2,0,39.0,FINE,2088,438593.400,148429,29,18;SOL_COMPUTED,NARROW_INT,0.4451,256.1132,-14.1592,0.0000,0.4488,1.2406,"999",39,38,38,30,3,01,3,f3*980c785b
$GNGGA,014935.50,3039.26755068,N,12047.31892344,E,2,27,0.6,4.0793,M,9.8171,M,11,0*74
$GNRMC,014935.50,A,3039.26755068,N,12047.31892344,E,0.007,257.7,170120,5.8,W,D*3D
#HEADINGA,COM2,0,39.0,FINE,2088,438593.500,148529,29,18;SOL_COMPUTED,NARROW_INT,0.4441,255.4662,-14.0464,0.0000,0.4492,1.2439,"999",39,38,38,30,3,01,3,f3*9d50c467
$GNGGA,014935.60,3039.26755018,N,12047.31892338,E,2,27,0.6,4.0826,M,9.8171,M,11,0*7A
$GNRMC,014935.60,A,3039.26755018,N,12047.31892338,E,0.015,175.8,170120,5.8,W,D*3D
#HEADINGA,COM2,0,39.0,FINE,2088,438593.600,148629,29,18;SOL_COMPUTED,NARROW_INT,0.4440,256.1510,-14.8024,0.0000,0.4513,1.2430,"999",39,38,38,30,3,01,3,f3*1f19794d
$GNGGA,014935.70,3039.26754971,N,12047.31892311,E,2,27,0.6,4.0864,M,9.8171,M,11,0*71
$GNRMC,014935.70,A,3039.26754971,N,12047.31892311,E,0.016,200.7,170120,5.8,W,D*3D
#HEADINGA,COM2,0,47.0,FINE,2088,438593.700,148729,29,18;SOL_COMPUTED,NARROW_INT,0.4442,255.8415,-13.9683,0.0000,0.4492,1.2435,"999",39,38,38,30,3,01,3,f3*a3062cd1
$GNGGA,014935.80,3039.26754948,N,12047.31892240,E,2,27,0.6,4.0883,M,9.8171,M,11,0*78
$GNRMC,014935.80,A,3039.26754948,N,12047.31892240,E,0.022,246.8,170120,5.8,W,D*37
#HEADINGA,COM2,0,47.0,FINE,2088,438593.800,148829,29,18;SOL_COMPUTED,NARROW_INT,0.4446,255.6404,-13.7068,0.0000,0.4481,1.2427,"999",39,38,38,30,3,01,3,f3*f90c3a47
$GNGGA,014935.90,3039.26754950,N,12047.31892212,E,2,27,0.6,4.0883,M,9.8171,M,11,0*77
$GNRMC,014935.90,A,3039.26754950,N,12047.31892212,E,0.008,278.7,170120,5.8,W,D*32
#HEADINGA,COM2,0,47.0,FINE,2088,438593.900,148929,29,18;SOL_COMPUTED,NARROW_INT,0.4427,256.2759,-14.0565,0.0000,0.4512,1.2476,"999",39,38,38,30,3,01,3,f3*b23a0308
#REFSTATIONA,COM2,0,39.0,FINE,2088,438582.000,148231,802,18;00000000,-2811023.329,4717645.324,3233007.504,0,RTCMV3,"0000"*19ceeddf
$GNGGA,014936.00,3039.26754971,N,12047.31892200,E,2,27,0.6,4.0898,M,9.8171,M,12,0*74
$GNRMC,014936.00,A,3039.26754971,N,12047.31892200,E,0.003,298.0,170120,5.8,W,D*3A
#HEADINGA,COM2,0,47.0,FINE,2088,438594.000,149029,36,18;SOL_COMPUTED,NARROW_INT,0.4437,255.8545,-13.4655,0.0000,0.4489,1.2459,"999",39,38,38,30,3,01,3,f3*6160263e
$GNGGA,014936.10,3039.26754938,N,12047.31892196,E,2,27,0.6,4.0921,M,9.8171,M,12,0*77
$GNRMC,014936.10,A,3039.26754938,N,12047.31892196,E,0.016,182.9,170120,5.8,W,D*3F
#HEADINGA,COM2,0,47.0,FINE,2088,438594.100,149129,30,18;SOL_COMPUTED,NARROW_INT,0.4463,255.8013,-13.6664,0.0000,0.4466,1.2380,"999",39,38,38,30,3,01,3,f3*238bb9b5
$GNGGA,014936.20,3039.26754879,N,12047.31892127,E,2,27,0.6,4.0962,M,9.8171,M,12,0*7D
$GNRMC,014936.20,A,3039.26754879,N,12047.31892127,E,0.035,217.3,170120,5.8,W,D*36
#HEADINGA,COM2,0,47.0,FINE,2088,438594.200,149231,31,18;SOL_COMPUTED,NARROW_INT,0.4452,255.7616,-13.7937,0.0000,0.4480,1.2411,"999",39,38,38,30,3,01,3,f3*460d5297
$GNGGA,014936.30,3039.26754848,N,12047.31892078,E,2,27,0.6,4.1006,M,9.8171,M,09,0*75
$GNRMC,014936.30,A,3039.26754848,N,12047.31892078,E,0.021,220.9,170120,5.8,W,D*35
#HEADINGA,COM2,0,47.0,FINE,2088,438594.300,149329,32,18;SOL_COMPUTED,NARROW_INT,0.4447,255.8749,-13.1505,0.0000,0.4474,1.2420,"999",39,38,38,30,3,01,3,f3*5df60f04
$GNGGA,014936.40,3039.26754846,N,12047.31892075,E,2,27,0.6,4.1038,M,9.8171,M,09,0*7C
$GNRMC,014936.40,A,3039.26754846,N,12047.31892075,E,0.006,174.0,170120,5.8,W,D*3F
#HEADINGA,COM2,0,47.0,FINE,2088,438594.400,149429,29,18;SOL_COMPUTED,NARROW_INT,0.4438,256.1835,-14.5445,0.0000,0.4513,1.2447,"999",39,38,38,30,3,01,3,f3*7137df5c
$GNGGA,014936.50,3039.26754863,N,12047.31892062,E,2,27,0.6,4.1061,M,9.8171,M,09,0*70
$GNRMC,014936.50,A,3039.26754863,N,12047.31892062,E,0.002,275.0,170120,5.8,W,D*39
#HEADINGA,COM2,0,47.0,FINE,2088,438594.500,149529,29,18;SOL_COMPUTED,NARROW_INT,0.4428,255.8283,-14.3432,0.0000,0.4342,1.2274,"999",39,38,38,30,3,01,3,f3*707086f4
$GNGGA,014936.60,3039.26754860,N,12047.31892078,E,2,27,0.6,4.1091,M,9.8171,M,09,0*74
$GNRMC,014936.60,A,3039.26754860,N,12047.31892078,E,0.008,71.7,170120,5.8,W,D*09
#HEADINGA,COM2,0,47.0,FINE,2088,438594.600,149629,29,18;SOL_COMPUTED,NARROW_INT,0.4451,256.1586,-14.0786,0.0000,0.4317,1.2216,"999",39,38,38,30,3,01,3,f3*5f9ea364
$GNGGA,014936.70,3039.26754835,N,12047.31892022,E,2,27,0.6,4.1131,M,9.8171,M,09,0*71
$GNRMC,014936.70,A,3039.26754835,N,12047.31892022,E,0.018,217.1,170120,5.8,W,D*32
#HEADINGA,COM2,0,47.0,FINE,2088,438594.700,149729,29,18;SOL_COMPUTED,NARROW_INT,0.4421,255.9562,-14.1410,0.0000,0.4345,1.2296,"999",39,38,38,30,3,01,3,f3*f64da617
$GNGGA,014936.80,3039.26754785,N,12047.31891945,E,2,27,0.6,4.1134,M,9.8171,M,09,0*74
$GNRMC,014936.80,A,3039.26754785,N,12047.31891945,E,0.024,228.9,170120,5.8,W,D*39
#HEADINGA,COM2,0,47.0,FINE,2088,438594.800,149829,29,18;SOL_COMPUTED,NARROW_INT,0.4451,255.8109,-14.3584,0.0000,0.4318,1.2207,"999",39,38,38,30,3,01,3,f3*9d09389d
$GNGGA,014936.90,3039.26754757,N,12047.31891858,E,2,27,0.6,4.1153,M,9.8171,M,09,0*76
$GNRMC,014936.90,A,3039.26754757,N,12047.31891858,E,0.020,247.5,170120,5.8,W,D*3B
#HEADINGA,COM2,0,47.0,FINE,2088,438594.900,149929,29,18;SOL_COMPUTED,NARROW_INT,0.4424,255.8687,-13.6405,0.0000,0.4331,1.2278,"999",39,38,38,30,3,01,3,f3*bfe20f89
#REFSTATIONA,COM2,0,47.0,FINE,2088,438585.000,149231,803,18;00000000,-2811023.329,4717645.324,3233007.504,0,RTCMV3,"0000"*9f60a78c
$GNGGA,014937.00,3039.26754732,N,12047.31891801,E,2,27,0.6,4.1169,M,9.8171,M,10,0*70
$GNRMC,014937.00,A,3039.26754732,N,12047.31891801,E,0.013,243.0,170120,5.8,W,D*3D
#HEADINGA,COM2,0,47.0,FINE,2088,438595.000,150029,36,18;SOL_COMPUTED,NARROW_INT,0.4471,255.4534,-14.5714,0.0000,0.4301,1.2144,"999",39,38,38,30,3,01,3,f3*3f72c404
$GNGGA,014937.10,3039.26754723,N,12047.31891774,E,2,27,0.6,4.1189,M,9.8171,M,10,0*72
$GNRMC,014937.10,A,3039.26754723,N,12047.31891774,E,0.001,267.3,170120,5.8,W,D*37
#HEADINGA,COM2,0,47.0,FINE,2088,438595.100,150129,30,18;SOL_COMPUTED,NARROW_INT,0.4454,255.9335,-14.5557,0.0000,0.4323,1.2191,"999",39,38,38,30,3,01,3,f3*a19f3160
$GNGGA,014937.20,3039.26754697,N,12047.31891757,E,2,27,0.6,4.1209,M,9.8171,M,10,0*75
$GNRMC,014937.20,A,3039.26754697,N,12047.31891757,E,0.006,168.2,170120,5.8,W,D*31
#HEADINGA,COM2,0,47.0,FINE,2088,438595.200,150231,31,18;SOL_COMPUTED,NARROW_INT,0.4457,255.6618,-14.7065,0.0000,0.4318,1.2174,"999",39,38,38,30,3,01,3,f3*4630f990
$GNGGA,014937.30,3039.26754662,N,12047.31891766,E,2,27,0.6,4.1257,M,9.8171,M,10,0*77
$GNRMC,014937.30,A,3039.26754662,N,12047.31891766,E,0.013,130.7,170120,5.8,W,D*34
#HEADINGA,COM2,0,47.0,FINE,2088,438595.300,150329,29,18;SOL_COMPUTED,NARROW_INT,0.4457,255.8666,-13.7166,0.0000,0.4301,1.2180,"999",39,38,38,30,3,01,3,f3*6663d9e1
$GNGGA,014937.40,3039.26754631,N,12047.31891759,E,2,27,0.6,4.1289,M,9.8171,M,10,0*79
$GNRMC,014937.40,A,3039.26754631,N,12047.31891759,E,0.010,157.0,170120,5.8,W,D*3C
#HEADINGA,COM2,0,47.0,FINE,2088,438595.400,150429,30,18;SOL_COMPUTED,NARROW_INT,0.4464,256.0047,-14.3863,0.0000,0.4308,1.2160,"999",39,38,38,30,3,01,3,f3*34125aaf
$GNGGA,014937.50,3039.26754619,N,12047.31891726,E,2,27,0.6,4.1290,M,9.8171,M,10,0*72
$GNRMC,014937.50,A,3039.26754619,N,12047.31891726,E,0.007,234.3,170120,5.8,W,D*3C
#HEADINGA,COM2,0,47.0,FINE,2088,438595.500,150529,29,18;SOL_COMPUTED,NARROW_INT,0.4446,255.5018,-14.5688,0.0000,0.4324,1.2211,"999",39,38,38,31,3,01,3,f3*1e4b7c0a
$GNGGA,014937.60,3039.26754595,N,12047.31891628,E,2,27,0.6,4.1282,M,9.8171,M,10,0*7A
$GNRMC,014937.60,A,3039.26754595,N,12047.31891628,E,0.028,263.0,170120,5.8,W,D*3B
#HEADINGA,COM2,0,47.0,FINE,2088,438595.600,150629,29,18;SOL_COMPUTED,NARROW_INT,0.4427,256.0904,-14.0169,0.0000,0.4339,1.2266,"999",39,38,38,31,3,01,3,f3*b4cabd88
$GNGGA,014937.70,3039.26754555,N,12047.31891592,E,2,27,0.6,4.1294,M,9.8171,M,10,0*72
$GNRMC,014937.70,A,3039.26754555,N,12047.31891592,E,0.010,226.5,170120,5.8,W,D*3B
#HEADINGA,COM2,0,47.0,FINE,2088,438595.700,150729,29,18;SOL_COMPUTED,NARROW_INT,0.4452,255.5258,-14.0001,0.0000,0.4307,1.2199,"999",39,38,38,31,3,01,3,f3*c1fd00c3
$GNGGA,014937.80,3039.26754504,N,12047.31891587,E,2,27,0.6,4.1310,M,9.8171,M,10,0*70
$GNRMC,014937.80,A,3039.26754504,N,12047.31891587,E,0.012,174.5,170120,5.8,W,D*32
#HEADINGA,COM2,0,47.0,FINE,2088,438595.800,150829,29,18;SOL_COMPUTED,NARROW_INT,0.4470,255.9759,-15.0503,0.0000,0.4316,1.2146,"999",39,38,38,31,3,01,3,f3*aca73711
$GNGGA,014937.90,3039.26754457,N,12047.31891593,E,2,27,0.6,4.1322,M,9.8171,M,10,0*72
$GNRMC,014937.90,A,3039.26754457,N,12047.31891593,E,0.013,164.1,170120,5.8,W,D*35
#HEADINGA,COM2,0,47.0,FINE,2088,438595.900,150929,29,18;SOL_COMPUTED,NARROW_INT,0.4447,255.9870,-13.5480,0.0000,0.4313,1.2221,"999",39,38,38,31,3,01,3,f3*77c79f11
#REFSTATIONA,COM2,0,47.0,FINE,2088,438585.000,150231,802,18;00000000,-2811023.329,4717645.324,3233007.504,0,RTCMV3,"0000"*15ac4eb2
$GNGGA,014938.00,3039.26754433,N,12047.31891610,E,2,27,0.6,4.1342,M,9.8171,M,11,0*79
$GNRMC,014938.00,A,3039.26754433,N,12047.31891610,E,0.010,126.2,170120,5.8,W,D*3F
#HEADINGA,COM2,0,47.0,FINE,2088,438596.000,151028,36,18;SOL_COMPUTED,NARROW_INT,0.4453,255.3610,-14.4892,0.0000,0.4316,1.2202,"999",39,38,38,31,3,01,3,f3*fb0ecaf9
$GNGGA,014938.10,3039.26754409,N,12047.31891571,E,2,27,0.6,4.1354,M,9.8171,M,11,0*72
$GNRMC,014938.10,A,3039.26754409,N,12047.31891571,E,0.012,224.6,170120,5.8,W,D*34
#HEADINGA,COM2,0,47.0,FINE,2088,438596.100,151129,30,18;SOL_COMPUTED,NARROW_INT,0.4454,255.9260,-14.3289,0.0000,0.4320,1.2191,"999",39,38,38,31,3,01,3,f3*01967a2b
$GNGGA,014938.20,3039.26754373,N,12047.31891529,E,2,27,0.6,4.1390,M,9.8171,M,11,0*7E
$GNRMC,014938.20,A,3039.26754373,N,12047.31891529,E,0.013,217.1,170120,5.8,W,D*36
#HEADINGA,COM2,0,47.0,FINE,2088,438596.200,151230,31,18;SOL_COMPUTED,NARROW_INT,0.4455,255.6840,-14.9760,0.0000,0.4330,1.2189,"999",39,38,38,31,3,01,3,f3*6c1ff4f5
$GNGGA,014938.30,3039.26754343,N,12047.31891475,E,2,27,0.6,4.1420,M,9.8171,M,10,0*79
$GNRMC,014938.30,A,3039.26754343,N,12047.31891475,E,0.015,252.8,170120,5.8,W,D*32
#HEADINGA,COM2,0,47.0,FINE,2088,438596.300,151328,32,18;SOL_COMPUTED,NARROW_INT,0.4438,255.7154,-13.9679,0.0000,0.4328,1.2237,"999",39,38,38,31,3,01,3,f3*f570a60f
$GNGGA,014938.40,3039.26754330,N,12047.31891458,E,2,27,0.6,4.1430,M,9.8171,M,10,0*74
$GNRMC,014938.40,A,3039.26754330,N,12047.31891458,E,0.004,290.6,170120,5.8,W,D*3E
#HEADINGA,COM2,0,47.0,FINE,2088,438596.400,151428,30,18;SOL_COMPUTED,NARROW_INT,0.4461,255.8855,-14.5185,0.0000,0.4317,1.2168,"999",39,38,38,31,3,01,3,f3*a9d2bfa5
$GNGGA,014938.50,3039.26754326,N,12047.31891451,E,2,27,0.6,4.1452,M,9.8171,M,10,0*7F
$GNRMC,014938.50,A,3039.26754326,N,12047.31891451,E,0.006,1.2,170120,5.8,W,D*3D
#HEADINGA,COM2,0,47.0,FINE,2088,438596.500,151528,30,18;SOL_COMPUTED,NARROW_INT,0.4468,256.1948,-14.1840,0.0000,0.4308,1.2151,"999",39,38,38,31,3,01,3,f3*6f2ee1c1
$GNGGA,014938.60,3039.26754310,N,12047.31891423,E,2,27,0.6,4.1482,M,9.8171,M,10,0*71
$GNRMC,014938.60,A,3039.26754310,N,12047.31891423,E,0.007,287.0,170120,5.8,W,D*31
#HEADINGA,COM2,0,47.0,FINE,2088,438596.600,151628,30,18;SOL_COMPUTED,NARROW_INT,0.4449,256.0039,-13.8912,0.0000,0.4319,1.2207,"999",39,38,38,31,3,01,3,f3*b4d61006
$GNGGA,014938.70,3039.26754279,N,12047.31891406,E,2,27,0.6,4.1483,M,9.8171,M,10,0*78
$GNRMC,014938.70,A,3039.26754279,N,12047.31891406,E,0.006,217.4,170120,5.8,W,D*35
#HEADINGA,COM2,0,36.0,FINE,2088,438596.700,151728,29,18;SOL_COMPUTED,NARROW_INT,0.4435,255.9178,-14.2432,0.0000,0.4336,1.2240,"999",39,38,38,31,3,01,3,f3*9a6db8c0
$GNGGA,014938.80,3039.26754229,N,12047.31891421,E,2,27,0.6,4.1497,M,9.8171,M,10,0*72
$GNRMC,014938.80,A,3039.26754229,N,12047.31891421,E,0.013,140.5,170120,5.8,W,D*3E
#HEADINGA,COM2,0,36.0,FINE,2088,438596.800,151829,29,18;SOL_COMPUTED,NARROW_INT,0.4444,255.8439,-13.5915,0.0000,0.4316,1.2224,"999",39,38,38,31,3,01,3,f3*0679714a
$GNGGA,014938.90,3039.26754208,N,12047.31891396,E,2,27,0.6,4.1508,M,9.8171,M,10,0*7C
$GNRMC,014938.90,A,3039.26754208,N,12047.31891396,E,0.005,249.8,170120,5.8,W,D*37
#HEADINGA,COM2,0,36.0,FINE,2088,438596.900,151929,29,18;SOL_COMPUTED,NARROW_INT,0.4453,256.0515,-13.5659,0.0000,0.4310,1.2199,"999",39,38,38,31,3,01,3,f3*5b250613
#REFSTATIONA,COM2,0,47.0,FINE,2088,438586.000,151230,803,18;00000000,-2811023.329,4717645.324,3233007.504,0,RTCMV3,"0000"*44adc25d
$GNGGA,014939.00,3039.26754162,N,12047.31891357,E,2,27,0.6,4.1512,M,9.8171,M,11,0*7C
$GNRMC,014939.00,A,3039.26754162,N,12047.31891357,E,0.013,223.6,170120,5.8,W,D*38
#HEADINGA,COM2,0,36.0,FINE,2088,438597.000,152029,36,18;SOL_COMPUTED,NARROW_INT,0.4441,255.6462,-13.9755,0.0000,0.4325,1.2236,"999",39,38,38,31,3,01,3,f3*61405d83
$GNGGA,014939.10,3039.26754145,N,12047.31891351,E,2,27,0.6,4.1547,M,9.8171,M,11,0*7E
$GNRMC,014939.10,A,3039.26754145,N,12047.31891351,E,0.004,106.9,170120,5.8,W,D*37
#HEADINGA,COM2,0,36.0,FINE,2088,438597.100,152129,30,18;SOL_COMPUTED,NARROW_INT,0.4442,255.8889,-14.0495,0.0000,0.4325,1.2229,"999",39,38,38,31,3,01,3,f3*3752a1d4
$GNGGA,014939.20,3039.26754112,N,12047.31891362,E,2,27,0.6,4.1601,M,9.8171,M,11,0*7E
$GNRMC,014939.20,A,3039.26754112,N,12047.31891362,E,0.011,123.9,170120,5.8,W,D*35
#HEADINGA,COM2,0,36.0,FINE,2088,438597.200,152230,31,18;SOL_COMPUTED,NARROW_INT,0.4455,255.4854,-14.2019,0.0000,0.4312,1.2196,"999",39,38,38,31,3,01,3,f3*9c22e512
$GNGGA,014939.30,3039.26754065,N,12047.31891333,E,2,27,0.6,4.1627,M,9.8171,M,11,0*7E
$GNRMC,014939.30,A,3039.26754065,N,12047.31891333,E,0.014,195.0,170120,5.8,W,D*30
#HEADINGA,COM2,0,36.0,FINE,2088,438597.300,152329,29,18;SOL_COMPUTED,NARROW_INT,0.4435,256.1205,-13.6294,0.0000,0.4327,1.2251,"999",39,38,38,31,3,01,3,f3*976c0ce6
$GNGGA,014939.40,3039.26754024,N,12047.31891310,E,2,27,0.6,4.1636,M,9.8171,M,11,0*7D
$GNRMC,014939.40,A,3039.26754024,N,12047.31891310,E,0.011,194.7,170120,5.8,W,D*30
#HEADINGA,COM2,0,36.0,FINE,2088,438597.400,152429,29,18;SOL_COMPUTED,NARROW_INT,0.4449,255.5595,-13.9675,0.0000,0.4313,1.2211,"999",39,38,38,31,3,01,3,f3*68c6f82c
$GNGGA,014939.50,3039.26754031,N,12047.31891250,E,2,27,0.6,4.1651,M,9.8171,M,11,0*7C
$GNRMC,014939.50,A,3039.26754031,N,12047.31891250,E,0.014,288.9,170120,5.8,W,D*35
#HEADINGA,COM2,0,36.0,FINE,2088,438597.500,152528,29,18;SOL_COMPUTED,NARROW_INT,0.4453,255.8054,-15.1235,0.0000,0.4336,1.2192,"999",39,38,38,31,3,01,3,f3*6fa2dc27
$GNGGA,014939.60,3039.26754021,N,12047.31891209,E,2,27,0.6,4.1643,M,9.8171,M,11,0*71
$GNRMC,014939.60,A,3039.26754021,N,12047.31891209,E,0.012,272.7,170120,5.8,W,D*36
#HEADINGA,COM2,0,36.0,FINE,2088,438597.600,152629,29,18;SOL_COMPUTED,NARROW_INT,0.4436,255.9585,-13.2044,0.0000,0.4320,1.2237,"999",39,38,38,31,3,01,3,f3*54acdafd
$GNGGA,014939.70,3039.26754037,N,12047.31891177,E,2,27,0.6,4.1631,M,9.8171,M,11,0*78
$GNRMC,014939.70,A,3039.26754037,N,12047.31891177,E,0.011,314.4,170120,5.8,W,D*3B
#HEADINGA,COM2,0,36.0,FINE,2088,438597.700,152729,29,18;SOL_COMPUTED,NARROW_INT,0.4454,255.7974,-13.5753,0.0000,0.4308,1.2202,"999",39,38,38,31,3,01,3,f3*3ca85f3e
$GNGGA,014939.80,3039.26754002,N,12047.31891171,E,2,27,0.6,4.1666,M,9.8171,M,11,0*75
$GNRMC,014939.80,A,3039.26754002,N,12047.31891171,E,0.009,168.3,170120,5.8,W,D*33
#HEADINGA,COM2,0,36.0,FINE,2088,438597.800,152829,29,18;SOL_COMPUTED,NARROW_INT,0.4464,256.0869,-14.8134,0.0000,0.4325,1.2164,"999",39,38,38,31,3,01,3,f3*21552492
$GNGGA,014939.90,3039.26753982,N,12047.31891158,E,2,27,0.6,4.1697,M,9.8171,M,11,0*77
$GNRMC,014939.90,A,3039.26753982,N,12047.31891158,E,0.006,217.7,170120,5.8,W,D*3F
#HEADINGA,COM2,0,36.0,FINE,2088,438597.900,152928,29,18;SOL_COMPUTED,NARROW_INT,0.4456,255.3954,-13.8800,0.0000,0.4305,1.2159,"999",39,38,38,31,3,01,3,f3*736e2bae
#REFSTATIONA,COM2,0,36.0,FINE,2088,438586.000,152230,803,18;00000000,-2811023.329,4717645.324,3233007.504,0,RTCMV3,"0000"*ec85baac
$GNGGA,014940.00,3039.26753965,N,12047.31891119,E,2,27,0.6,4.1715,M,9.8171,M,12,0*74
$GNRMC,014940.00,A,3039.26753965,N,12047.31891119,E,0.013,257.0,170120,5.8,W,D*33
#HEADINGA,COM2,0,36.0,FINE,2088,438598.000,153029,36,18;SOL_COMPUTED,NARROW_INT,0.4450,255.9330,-14.2552,0.0000,0.4323,1.2173,"999",39,38,38,31,3,01,3,f3*ff4f922b
$GNGGA,014940.10,3039.26753930,N,12047.31891108,E,2,27,0.6,4.1746,M,9.8171,M,12,0*73
$GNRMC,014940.10,A,3039.26753930,N,12047.31891108,E,0.009,201.8,170120,5.8,W,D*32
#HEADINGA,COM2,0,36.0,FINE,2088,438598.100,153129,30,18;SOL_COMPUTED,NARROW_INT,0.4438,256.5040,-14.3114,0.0000,0.4346,1.2234,"999",39,38,38,31,3,01,3,f3*200f29eb
$GNGGA,014940.20,3039.26753887,N,12047.31891097,E,2,27,0.6,4.1790,M,9.8171,M,12,0*71
$GNRMC,014940.20,A,3039.26753887,N,12047.31891097,E,0.011,191.0,170120,5.8,W,D*30
#HEADINGA,COM2,0,36.0,FINE,2088,438598.200,153230,31,18;SOL_COMPUTED,NARROW_INT,0.4446,256.0103,-14.3036,0.0000,0.4334,1.2223,"999",39,38,38,31,3,01,3,f3*c9942e16
$GNGGA,014940.30,3039.26753894,N,12047.31891049,E,2,27,0.6,4.1808,M,9.8171,M,09,0*75
$GNRMC,014940.30,A,3039.26753894,N,12047.31891049,E,0.017,293.6,170120,5.8,W,D*31
#HEADINGA,COM2,0,36.0,FINE,2088,438598.300,153329,33,18;SOL_COMPUTED,NARROW_INT,0.4442,255.3486,-14.0983,0.0000,0.4330,1.2250,"999",39,38,38,31,3,01,3,f3*a930364d
$GNGGA,014940.40,3039.26753928,N,12047.31891015,E,2,27,0.6,4.1816,M,9.8171,M,09,0*72
$GNRMC,014940.40,A,3039.26753928,N,12047.31891015,E,0.016,308.8,170120,5.8,W,D*35
#HEADINGA,COM2,0,36.0,FINE,2088,438598.400,153428,29,18;SOL_COMPUTED,NARROW_INT,0.4450,255.8026,-13.6025,0.0000,0.4319,1.2229,"999",39,38,38,31,3,01,3,f3*19f59a0c
$GNGGA,014940.50,3039.26753957,N,12047.31890990,E,2,27,0.6,4.1842,M,9.8171,M,09,0*7F
$GNRMC,014940.50,A,3039.26753957,N,12047.31890990,E,0.015,321.6,170120,5.8,W,D*3F
#HEADINGA,COM2,0,36.0,FINE,2088,438598.500,153528,29,18;SOL_COMPUTED,NARROW_INT,0.4430,256.2388,-13.2981,0.0000,0.4336,1.2279,"999",39,38,38,31,3,01,3,f3*d8558dcc
$GNGGA,014940.60,3039.26753971,N,12047.31890970,E,2,27,0.6,4.1860,M,9.8171,M,09,0*76
$GNRMC,014940.60,A,3039.26753971,N,12047.31890970,E,0.002,291.2,170120,5.8,W,D*3E
#HEADINGA,COM2,0,36.0,FINE,2088,438598.600,153629,29,18;SOL_COMPUTED,NARROW_INT,0.4425,256.0830,-13.3877,0.0000,0.4341,1.2287,"999",39,38,38,31,3,01,3,f3*df1a4a6e
$GNGGA,014940.70,3039.26753991,N,12047.31890967,E,2,27,0.6,4.1891,M,9.8171,M,09,0*71
$GNRMC,014940.70,A,3039.26753991,N,12047.31890967,E,0.003,25.4,170120,5.8,W,D*0D
#HEADINGA,COM2,0,36.0,FINE,2088,438598.700,153729,29,18;SOL_COMPUTED,NARROW_INT,0.4472,255.5143,-14.1455,0.0000,0.4305,1.2164,"999",39,38,38,31,3,01,3,f3*a4b20587
$GNGGA,014940.80,3039.26753994,N,12047.31890927,E,2,27,0.6,4.1918,M,9.8171,M,09,0*7F
$GNRMC,014940.80,A,3039.26753994,N,12047.31890927,E,0.008,244.4,170120,5.8,W,D*3D
#HEADINGA,COM2,0,36.0,FINE,2088,438598.800,153829,29,18;SOL_COMPUTED,NARROW_INT,0.4443,256.0325,-14.2964,0.0000,0.4343,1.2242,"999",39,38,38,31,3,01,3,f3*29a1f097
$GNGGA,014940.90,3039.26753974,N,12047.31890910,E,2,27,0.6,4.1959,M,9.8171,M,09,0*71
$GNRMC,014940.90,A,3039.26753974,N,12047.31890910,E,0.010,211.4,170120,5.8,W,D*3F
#HEADINGA,COM2,0,36.0,FINE,2088,438598.900,153929,29,18;SOL_COMPUTED,NARROW_INT,0.4461,255.5786,-13.8544,0.0000,0.4311,1.2176,"999",39,38,38,31,3,01,3,f3*5d9ad488
#REFSTATIONA,COM2,0,36.0,FINE,2088,438589.000,153230,803,18;00000000,-2811023.329,4717645.324,3233007.504,0,RTCMV3,"0000"*1991bfa0
$GNGGA,014941.00,3039.26753992,N,12047.31890903,E,2,27,0.6,4.1958,M,9.8171,M,10,0*7A
$GNRMC,014941.00,A,3039.26753992,N,12047.31890903,E,0.005,308.0,170120,5.8,W,D*34
#HEADINGA,COM2,0,36.0,FINE,2088,438599.000,154029,36,18;SOL_COMPUTED,NARROW_INT,0.4460,255.9479,-14.5754,0.0000,0.4325,1.2156,"999",39,38,38,31,3,01,3,f3*9d70f775
$GNGGA,014941.10,3039.26754009,N,12047.31890879,E,2,27,0.6,4.1969,M,9.8171,M,10,0*79
$GNRMC,014941.10,A,3039.26754009,N,12047.31890879,E,0.009,305.5,170120,5.8,W,D*31
#HEADINGA,COM2,0,36.0,FINE,2088,438599.100,154129,30,18;SOL_COMPUTED,NARROW_INT,0.4448,255.9191,-14.1186,0.0000,0.4330,1.2198,"999",39,38,38,31,3,01,3,f3*e1f5f47a
$GNGGA,014941.20,3039.26753988,N,12047.31890902,E,2,27,0.6,4.1997,M,9.8171,M,10,0*71
$GNRMC,014941.20,A,3039.26753988,N,12047.31890902,E,0.009,125.9,170120,5.8,W,D*34
#HEADINGA,COM2,0,36.0,FINE,2088,438599.200,154230,31,18;SOL_COMPUTED,NARROW_INT,0.4448,256.1467,-14.0450,0.0000,0.4329,1.2188,"999",39,38,38,31,3,01,3,f3*237101b8
$GNGGA,014941.30,3039.26753965,N,12047.31890941,E,2,27,0.6,4.2026,M,9.8171,M,08,0*7D
$GNRMC,014941.30,A,3039.26753965,N,12047.31890941,E,0.011,117.9,170120,5.8,W,D*39
#HEADINGA,COM2,0,36.0,FINE,2088,438599.300,154328,33,18;SOL_COMPUTED,NARROW_INT,0.4447,255.6987,-13.9889,0.0000,0.4319,1.2182,"999",39,38,38,31,3,01,3,f3*8e1f3017
$GNGGA,014941.40,3039.26753955,N,12047.31890947,E,2,27,0.6,4.2037,M,9.8171,M,08,0*7F
$GNRMC,014941.40,A,3039.26753955,N,12047.31890947,E,0.003,189.7,170120,5.8,W,D*31
#HEADINGA,COM2,0,36.0,FINE,2088,438599.400,154429,29,18;SOL_COMPUTED,NARROW_INT,0.4440,256.2636,-14.1806,0.0000,0.4335,1.2196,"999",39,38,38,31,3,01,3,f3*71aa49b8
$GNGGA,014941.50,3039.26753937,N,12047.31890915,E,2,27,0.6,4.2033,M,9.8171,M,08,0*79
$GNRMC,014941.50,A,3039.26753937,N,12047.31890915,E,0.013,250.0,170120,5.8,W,D*32
#HEADINGA,COM2,0,36.0,FINE,2088,438599.500,154528,30,18;SOL_COMPUTED,NARROW_INT,0.4436,256.1283,-13.4118,0.0000,0.4329,1.2224,"999",39,38,38,31,3,01,3,f3*ddc1cc27
$GNGGA,014941.60,3039.26753902,N,12047.31890845,E,2,27,0.6,4.2032,M,9.8171,M,08,0*79
$GNRMC,014941.60,A,3039.26753902,N,12047.31890845,E,0.025,246.0,170120,5.8,W,D*31
#HEADINGA,COM2,0,36.0,FINE,2088,438599.600,154629,29,18;SOL_COMPUTED,NARROW_INT,0.4418,256.1016,-13.1276,0.0000,0.4340,1.2274,"999",39,38,38,31,3,01,3,f3*120335a0
$GNGGA,014941.70,3039.26753864,N,12047.31890811,E,2,27,0.6,4.2052,M,9.8171,M,08,0*7E
$GNRMC,014941.70,A,3039.26753864,N,12047.31890811,E,0.010,251.5,170120,5.8,W,D*35
#HEADINGA,COM2,0,36.0,FINE,2088,438599.700,154728,30,18;SOL_COMPUTED,NARROW_INT,0.4434,255.6172,-13.9986,0.0000,0.4332,1.2220,"999",39,38,38,31,3,01,3,f3*d3b32196
$GNGGA,014941.80,3039.26753816,N,12047.31890787,E,2,27,0.6,4.2080,M,9.8171,M,08,0*7B
$GNRMC,014941.80,A,3039.26753816,N,12047.31890787,E,0.010,234.4,170120,5.8,W,D*3D
#HEADINGA,COM2,0,46.0,FINE,2088,438599.800,154829,29,18;SOL_COMPUTED,NARROW_INT,0.4434,255.9007,-13.7001,0.0000,0.4329,1.2221,"999",39,38,38,31,3,01,3,f3*4a3698ca
$GNGGA,014941.90,3039.26753774,N,12047.31890784,E,2,27,0.6,4.2100,M,9.8171,M,08,0*7B
$GNRMC,014941.90,A,3039.26753774,N,12047.31890784,E,0.005,196.6,170120,5.8,W,D*39
#HEADINGA,COM2,0,46.0,FINE,2088,438599.900,154929,28,18;SOL_COMPUTED,NARROW_INT,0.4422,255.9122,-13.3843,0.0000,0.4335,1.2258,"999",39,38,38,31,3,01,3,f3*954aa0ea
#REFSTATIONA,COM2,0,36.0,FINE,2088,438591.000,154230,803,18;00000000,-2811023.329,4717645.324,3233007.504,0,RTCMV3,"0000"*a2ead716
$GNGGA,014942.00,3039.26753735,N,12047.31890788,E,2,27,0.6,4.2100,M,9.8171,M,09,0*79
$GNRMC,014942.00,A,3039.26753735,N,12047.31890788,E,0.005,191.3,170120,5.8,W,D*38
#HEADINGA,COM2,0,46.0,FINE,2088,438600.000,155028,36,18;SOL_COMPUTED,NARROW_INT,0.4427,255.8439,-13.4418,0.0000,0.4330,1.2245,"999",39,38,38,31,3,01,3,f3*07fc3c46
$GNGGA,014942.10,3039.26753700,N,12047.31890803,E,2,27,0.6,4.2089,M,9.8171,M,09,0*72
$GNRMC,014942.10,A,3039.26753700,N,12047.31890803,E,0.004,142.2,170120,5.8,W,D*3D
#HEADINGA,COM2,0,46.0,FINE,2088,438600.100,155129,30,18;SOL_COMPUTED,NARROW_INT,0.4455,255.8875,-13.6294,0.0000,0.4307,1.2172,"999",39,38,38,31,3,01,3,f3*977b2bde
$GNGGA,014942.20,3039.26753677,N,12047.31890809,E,2,27,0.6,4.2089,M,9.8171,M,09,0*7A
$GNRMC,014942.20,A,3039.26753677,N,12047.31890809,E,0.007,175.1,170120,5.8,W,D*31
#HEADINGA,COM2,0,46.0,FINE,2088,438600.200,155230,31,18;SOL_COMPUTED,NARROW_INT,0.4443,255.8620,-13.7281,0.0000,0.4317,1.2200,"999",39,38,38,31,3,01,3,f3*b6169b97
$GNGGA,014942.30,3039.26753630,N,12047.31890823,E,2,27,0.6,4.2104,M,9.8171,M,09,0*74
$GNRMC,014942.30,A,3039.26753630,N,12047.31890823,E,0.013,170.3,170120,5.8,W,D*39
#HEADINGA,COM2,0,46.0,FINE,2088,438600.300,155329,30,18;SOL_COMPUTED,NARROW_INT,0.4454,255.6037,-13.9256,0.0000,0.4307,1.2170,"999",39,38,38,31,3,01,3,f3*a8eeab6f
$GNGGA,014942.40,3039.26753580,N,12047.31890849,E,2,27,0.6,4.2121,M,9.8171,M,09,0*70
$GNRMC,014942.40,A,3039.26753580,N,12047.31890849,E,0.016,157.2,170120,5.8,W,D*3B
#HEADINGA,COM2,0,46.0,FINE,2088,438600.400,155429,29,18;SOL_COMPUTED,NARROW_INT,0.4442,256.1950,-13.2722,0.0000,0.4312,1.2203,"999",39,38,38,31,3,01,3,f3*0a253b21
$GNGGA,014942.50,3039.26753580,N,12047.31890836,E,2,27,0.6,4.2139,M,9.8171,M,09,0*70
$GNRMC,014942.50,A,3039.26753580,N,12047.31890836,E,0.006,283.7,170120,5.8,W,D*3C
#HEADINGA,COM2,0,46.0,FINE,2088,438600.500,155528,29,18;SOL_COMPUTED,NARROW_INT,0.4453,255.7512,-14.3403,0.0000,0.4317,1.2172,"999",39,38,38,31,3,01,3,f3*a64f1932
$GNGGA,014942.60,3039.26753611,N,12047.31890787,E,2,27,0.6,4.2141,M,9.8171,M,09,0*72
$GNRMC,014942.60,A,3039.26753611,N,12047.31890787,E,0.019,305.2,170120,5.8,W,D*35
#HEADINGA,COM2,0,46.0,FINE,2088,438600.600,155629,29,18;SOL_COMPUTED,NARROW_INT,0.4427,255.9021,-14.5952,0.0000,0.4351,1.2243,"999",39,38,38,31,3,01,3,f3*961cf7ee
$GNGGA,014942.70,3039.26753572,N,12047.31890748,E,2,27,0.6,4.2146,M,9.8171,M,09,0*71
$GNRMC,014942.70,A,3039.26753572,N,12047.31890748,E,0.015,229.8,170120,5.8,W,D*38
#HEADINGA,COM2,0,46.0,FINE,2088,438600.700,155729,29,18;SOL_COMPUTED,NARROW_INT,0.4425,256.0366,-13.8525,0.0000,0.4340,1.2252,"999",39,38,38,31,3,01,3,f3*f9320af0
$GNGGA,014942.80,3039.26753529,N,12047.31890710,E,2,27,0.6,4.2148,M,9.8171,M,09,0*73
$GNRMC,014942.80,A,3039.26753529,N,12047.31890710,E,0.020,220.2,170120,5.8,W,D*31
#HEADINGA,COM2,0,46.0,FINE,2088,438600.800,155829,29,18;SOL_COMPUTED,NARROW_INT,0.4426,256.0666,-13.3517,0.0000,0.4330,1.2251,"999",39,38,38,31,3,01,3,f3*b0724cd6
$GNGGA,014942.90,3039.26753502,N,12047.31890681,E,2,27,0.6,4.2146,M,9.8171,M,09,0*7C
$GNRMC,014942.90,A,3039.26753502,N,12047.31890681,E,0.014,224.0,170120,5.8,W,D*31
#HEADINGA,COM2,0,46.0,FINE,2088,438600.900,155929,29,18;SOL_COMPUTED,NARROW_INT,0.4441,255.5231,-14.5880,0.0000,0.4333,1.2208,"999",39,38,38,31,3,01,3,f3*b1344f19
#REFSTATIONA,COM2,0,46.0,FINE,2088,438591.000,155230,804,18;00000000,-2811023.329,4717645.324,3233007.504,0,RTCMV3,"0000"*6d59923b
$GNGGA,014943.00,3039.26753437,N,12047.31890629,E,2,27,0.6,4.2174,M,9.8171,M,10,0*78
$GNRMC,014943.00,A,3039.26753437,N,12047.31890629,E,0.020,226.9,170120,5.8,W,D*30
#HEADINGA,COM2,0,46.0,FINE,2088,438601.000,156029,36,18;SOL_COMPUTED,NARROW_INT,0.4437,255.9870,-14.5750,0.0000,0.4341,1.2218,"999",39,38,38,31,3,01,3,f3*eee9ff7f
$GNGGA,014943.10,3039.26753395,N,12047.31890612,E,2,27,0.6,4.2184,M,9.8171,M,10,0*71
$GNRMC,014943.10,A,3039.26753395,N,12047.31890612,E,0.009,222.9,170120,5.8,W,D*39
#HEADINGA,COM2,0,46.0,FINE,2088,438601.100,156129,30,18;SOL_COMPUTED,NARROW_INT,0.4416,255.4728,-12.8813,0.0000,0.4324,1.2285,"999",39,38,38,31,3,01,3,f3*8a255375
$GNGGA,014943.20,3039.26753347,N,12047.31890607,E,2,27,0.6,4.2205,M,9.8171,M,10,0*73
$GNRMC,014943.20,A,3039.26753347,N,12047.31890607,E,0.009,193.9,170120,5.8,W,D*38
#HEADINGA,COM2,0,46.0,FINE,2088,438601.200,156230,31,18;SOL_COMPUTED,NARROW_INT,0.4447,256.0620,-13.7667,0.0000,0.4316,1.2199,"999",39,38,38,31,3,01,3,f3*38c5be4a
$GNGGA,014943.30,3039.26753286,N,12047.31890571,E,2,27,0.6,4.2213,M,9.8171,M,06,0*7C
$GNRMC,014943.30,A,3039.26753286,N,12047.31890571,E,0.019,218.2,170120,5.8,W,D*3D
#HEADINGA,COM2,0,46.0,FINE,2088,438601.300,156329,32,18;SOL_COMPUTED,NARROW_INT,0.4435,255.9212,-14.1458,0.0000,0.4332,1.2218,"999",39,38,38,31,3,01,3,f3*484aed40
$GNGGA,014943.40,3039.26753232,N,12047.31890549,E,2,27,0.6,4.2219,M,9.8171,M,06,0*75
$GNRMC,014943.40,A,3039.26753232,N,12047.31890549,E,0.015,211.2,170120,5.8,W,D*3B
#HEADINGA,COM2,0,46.0,FINE,2088,438601.400,156429,29,18;SOL_COMPUTED,NARROW_INT,0.4441,256.1182,-14.3961,0.0000,0.4334,1.2206,"999",39,38,38,31,3,01,3,f3*219cceec
$GNGGA,014943.50,3039.26753206,N,12047.31890534,E,2,27,0.6,4.2216,M,9.8171,M,06,0*76
$GNRMC,014943.50,A,3039.26753206,N,12047.31890534,E,0.006,235.0,170120,5.8,W,D*31
#HEADINGA,COM2,0,46.0,FINE,2088,438601.500,156529,29,18;SOL_COMPUTED,NARROW_INT,0.4443,256.1075,-14.5825,0.0000,0.4336,1.2200,"999",39,38,38,31,3,01,3,f3*a5f0cef1
$GNGGA,014943.60,3039.26753180,N,12047.31890502,E,2,27,0.6,4.2204,M,9.8171,M,06,0*7E
$GNRMC,014943.60,A,3039.26753180,N,12047.31890502,E,0.011,255.4,170120,5.8,W,D*3E
#HEADINGA,COM2,0,46.0,FINE,2088,438601.600,156629,29,18;SOL_COMPUTED,NARROW_INT,0.4423,256.2743,-13.4071,0.0000,0.4333,1.2259,"999",39,38,38,31,3,01,3,f3*11f3047b
$GNGGA,014943.70,3039.26753136,N,12047.31890484,E,2,27,0.6,4.2204,M,9.8171,M,06,0*7D
$GNRMC,014943.70,A,3039.26753136,N,12047.31890484,E,0.011,215.8,170120,5.8,W,D*35
#HEADINGA,COM2,0,46.0,FINE,2088,438601.700,156728,30,18;SOL_COMPUTED,NARROW_INT,0.4439,255.6267,-13.6267,0.0000,0.4318,1.2223,"999",39,38,38,31,3,01,3,f3*b9b717d8
$GNGGA,014943.80,3039.26753062,N,12047.31890473,E,2,27,0.6,4.2203,M,9.8171,M,06,0*7D
$GNRMC,014943.80,A,3039.26753062,N,12047.31890473,E,0.020,190.9,170120,5.8,W,D*3F
#HEADINGA,COM2,0,46.0,FINE,2088,438601.800,156829,29,18;SOL_COMPUTED,NARROW_INT,0.4442,255.8551,-14.0314,0.0000,0.4324,1.2212,"999",39,38,38,31,3,01,3,f3*b89f7641
$GNGGA,014943.90,3039.26753004,N,12047.31890456,E,2,27,0.6,4.2210,M,9.8171,M,06,0*79
$GNRMC,014943.90,A,3039.26753004,N,12047.31890456,E,0.016,204.7,170120,5.8,W,D*3C
#HEADINGA,COM2,0,46.0,FINE,2088,438601.900,156929,29,18;SOL_COMPUTED,NARROW_INT,0.4437,255.8827,-13.9372,0.0000,0.4329,1.2228,"999",39,38,38,31,3,01,3,f3*0e9546d6
#REFSTATIONA,COM2,0,46.0,FINE,2088,438595.000,156230,803,18;00000000,-2811023.329,4717645.324,3233007.504,0,RTCMV3,"0000"*e4e73ef9
$GNGGA,014944.00,3039.26752983,N,12047.31890475,E,2,27,0.6,4.2219,M,9.8171,M,07,0*79
$GNRMC,014944.00,A,3039.26752983,N,12047.31890475,E,0.009,120.6,170120,5.8,W,D*3E
#HEADINGA,COM2,0,46.0,FINE,2088,438602.000,157029,36,18;SOL_COMPUTED,NARROW_INT,0.4432,255.7658,-14.2335,0.0000,0.4339,1.2245,"999",39,38,38,31,3,01,3,f3*6b0ebd3f
$GNGGA,014944.10,3039.26752982,N,12047.31890452,E,2,27,0.6,4.2222,M,9.8171,M,07,0*74
$GNRMC,014944.10,A,3039.26752982,N,12047.31890452,E,0.006,290.7,170120,5.8,W,D*3D
#HEADINGA,COM2,0,46.0,FINE,2088,438602.100,157130,29,18;SOL_COMPUTED,NARROW_INT,0.4420,255.7207,-14.5189,0.0000,0.4356,1.2277,"999",39,38,38,31,3,01,3,f3*65e8e3ec
$GNGGA,014944.20,3039.26752981,N,12047.31890417,E,2,27,0.6,4.2213,M,9.8171,M,07,0*77
$GNRMC,014944.20,A,3039.26752981,N,12047.31890417,E,0.011,283.2,170120,5.8,W,D*3D
#HEADINGA,COM2,0,46.0,FINE,2088,438602.200,157232,30,18;SOL_COMPUTED,NARROW_INT,0.4446,256.0963,-14.5525,0.0000,0.4334,1.2202,"999",39,38,38,31,3,01,3,f3*4e0132ed
$GNGGA,014944.30,3039.26752983,N,12047.31890386,E,2,27,0.6,4.2207,M,9.8171,M,07,0*7E
$GNRMC,014944.30,A,3039.26752983,N,12047.31890386,E,0.008,300.5,170120,5.8,W,D*34
#HEADINGA,COM2,0,46.0,FINE,2088,438602.300,157329,30,18;SOL_COMPUTED,NARROW_INT,0.4443,255.4482,-13.8878,0.0000,0.4319,1.2220,"999",39,38,38,31,3,01,3,f3*88a48d32
$GNGGA,014944.40,3039.26752987,N,12047.31890325,E,2,27,0.6,4.2211,M,9.8171,M,07,0*73
$GNRMC,014944.40,A,3039.26752987,N,12047.31890325,E,0.014,276.9,170120,5.8,W,D*3F
#HEADINGA,COM2,0,46.0,FINE,2088,438602.400,157428,30,18;SOL_COMPUTED,NARROW_INT,0.4444,255.8743,-13.9287,0.0000,0.4319,1.2210,"999",39,38,38,31,3,01,3,f3*b4b5d844
$GNGGA,014944.50,3039.26752968,N,12047.31890312,E,2,27,0.6,4.2231,M,9.8171,M,07,0*75
$GNRMC,014944.50,A,3039.26752968,N,12047.31890312,E,0.005,164.7,170120,5.8,W,D*35
#HEADINGA,COM2,0,46.0,FINE,2088,438602.500,157528,30,18;SOL_COMPUTED,NARROW_INT,0.4441,256.4091,-15.0589,0.0000,0.4354,1.2213,"999",39,38,38,31,3,01,3,f3*504635c9
$GNGGA,014944.60,3039.26752948,N,12047.31890291,E,2,27,0.6,4.2241,M,9.8171,M,07,0*79
$GNRMC,014944.60,A,3039.26752948,N,12047.31890291,E,0.007,213.6,170120,5.8,W,D*3E
#HEADINGA,COM2,0,46.0,FINE,2088,438602.600,157629,29,18;SOL_COMPUTED,NARROW_INT,0.4423,255.9235,-14.2757,0.0000,0.4350,1.2267,"999",39,38,38,31,3,01,3,f3*75da2f13
$GNGGA,014944.70,3039.26752921,N,12047.31890253,E,2,27,0.6,4.2246,M,9.8171,M,07,0*7E
$GNRMC,014944.70,A,3039.26752921,N,12047.31890253,E,0.010,238.3,170120,5.8,W,D*34
#HEADINGA,COM2,0,46.0,FINE,2088,438602.700,157729,29,18;SOL_COMPUTED,NARROW_INT,0.4439,255.6145,-13.5107,0.0000,0.4314,1.2222,"999",39,38,38,31,3,01,3,f3*73064e68
$GNGGA,014944.80,3039.26752899,N,12047.31890219,E,2,27,0.6,4.2240,M,9.8171,M,07,0*7B
$GNRMC,014944.80,A,3039.26752899,N,12047.31890219,E,0.011,236.0,170120,5.8,W,D*3B
#HEADINGA,COM2,0,42.0,FINE,2088,438602.800,157829,29,18;SOL_COMPUTED,NARROW_INT,0.4446,255.7951,-13.9510,0.0000,0.4316,1.2198,"999",39,38,38,31,3,01,3,f3*cf428700
$GNGGA,014944.90,3039.26752831,N,12047.31890180,E,2,27,0.6,4.2249,M,9.8171,M,07,0*72
$GNRMC,014944.90,A,3039.26752831,N,12047.31890180,E,0.020,201.9,170120,5.8,W,D*34
#HEADINGA,COM2,0,42.0,FINE,2088,438602.900,157929,29,18;SOL_COMPUTED,NARROW_INT,0.4429,255.9169,-13.8027,0.0000,0.4333,1.2248,"999",39,38,38,31,3,01,3,f3*dc3f2d5e
#REFSTATIONA,COM2,0,46.0,FINE,2088,438595.000,157232,801,18;00000000,-2811023.329,4717645.324,3233007.504,0,RTCMV3,"0000"*3234481f
$GNGGA,014945.00,3039.26752775,N,12047.31890156,E,2,27,0.6,4.2254,M,9.8171,M,08,0*7D
$GNRMC,014945.00,A,3039.26752775,N,12047.31890156,E,0.019,196.2,170120,5.8,W,D*34
#HEADINGA,COM2,0,42.0,FINE,2088,438603.000,158029,36,18;SOL_COMPUTED,NARROW_INT,0.4449,256.2312,-13.8663,0.0000,0.4313,1.2185,"999",39,38,38,31,3,01,3,f3*56707328
$GNGGA,014945.10,3039.26752755,N,12047.31890135,E,2,27,0.6,4.2261,M,9.8171,M,08,0*7D
$GNRMC,014945.10,A,3039.26752755,N,12047.31890135,E,0.008,209.3,170120,5.8,W,D*36
#HEADINGA,COM2,0,42.0,FINE,2088,438603.100,158129,30,18;SOL_COMPUTED,NARROW_INT,0.4443,255.7880,-14.3129,0.0000,0.4331,1.2208,"999",39,38,38,31,3,01,3,f3*92e2f76f
$GNGGA,014945.20,3039.26752720,N,12047.31890152,E,2,27,0.6,4.2285,M,9.8171,M,08,0*77
$GNRMC,014945.20,A,3039.26752720,N,12047.31890152,E,0.011,132.0,170120,5.8,W,D*36
#HEADINGA,COM2,0,42.0,FINE,2088,438603.200,158231,30,18;SOL_COMPUTED,NARROW_INT,0.4439,256.1566,-13.5652,0.0000,0.4324,1.2219,"999",39,38,38,31,3,01,3,f3*1534faa7
$GNGGA,014945.30,3039.26752699,N,12047.31890131,E,2,27,0.6,4.2280,M,9.8171,M,05,0*78
$GNRMC,014945.30,A,3039.26752699,N,12047.31890131,E,0.011,215.3,170120,5.8,W,D*34
#HEADINGA,COM2,0,42.0,FINE,2088,438603.300,158329,32,18;SOL_COMPUTED,NARROW_INT,0.4419,256.3173,-13.8171,0.0000,0.4351,1.2283,"999",39,38,38,31,3,01,3,f3*aa977455
$GNGGA,014945.40,3039.26752703,N,12047.31890096,E,2,27,0.6,4.2278,M,9.8171,M,05,0*76
$GNRMC,014945.40,A,3039.26752703,N,12047.31890096,E,0.008,282.3,170120,5.8,W,D*3B
#HEADINGA,COM2,0,42.0,FINE,2088,438603.400,158429,30,18;SOL_COMPUTED,NARROW_INT,0.4436,255.7991,-13.9793,0.0000,0.4333,1.2238,"999",39,38,38,31,3,01,3,f3*fa5e1988
$GNGGA,014945.50,3039.26752725,N,12047.31890060,E,2,27,0.6,4.2285,M,9.8171,M,05,0*78
$GNRMC,014945.50,A,3039.26752725,N,12047.31890060,E,0.013,321.3,170120,5.8,W,D*35
#HEADINGA,COM2,0,42.0,FINE,2088,438603.500,158528,30,18;SOL_COMPUTED,NARROW_INT,0.4450,255.9600,-14.3013,0.0000,0.4327,1.2200,"999",39,38,38,31,3,01,3,f3*298c594c
$GNGGA,014945.60,3039.26752711,N,12047.31890045,E,2,27,0.6,4.2290,M,9.8171,M,05,0*7F
$GNRMC,014945.60,A,3039.26752711,N,12047.31890045,E,0.002,277.9,170120,5.8,W,D*3E
#HEADINGA,COM2,0,42.0,FINE,2088,438603.600,158629,29,18;SOL_COMPUTED,NARROW_INT,0.4444,255.7221,-14.2809,0.0000,0.4327,1.2204,"999",39,38,38,31,3,01,3,f3*a7e44191
$GNGGA,014945.70,3039.26752690,N,12047.31890042,E,2,27,0.6,4.2264,M,9.8171,M,05,0*7A
$GNRMC,014945.70,A,3039.26752690,N,12047.31890042,E,0.005,166.6,170120,5.8,W,D*3B
#HEADINGA,COM2,0,42.0,FINE,2088,438603.700,158729,29,18;SOL_COMPUTED,NARROW_INT,0.4434,255.8511,-13.7503,0.0000,0.4327,1.2241,"999",39,38,38,31,3,01,3,f3*42d18253
$GNGGA,014945.80,3039.26752668,N,12047.31890056,E,2,27,0.6,4.2265,M,9.8171,M,05,0*76
$GNRMC,014945.80,A,3039.26752668,N,12047.31890056,E,0.009,114.4,170120,5.8,W,D*3D
#HEADINGA,COM2,0,42.0,FINE,2088,438603.800,158829,29,18;SOL_COMPUTED,NARROW_INT,0.4450,255.8184,-14.0609,0.0000,0.4317,1.2196,"999",39,38,38,31,3,01,3,f3*ac91558e
$GNGGA,014945.90,3039.26752658,N,12047.31890068,E,2,27,0.6,4.2264,M,9.8171,M,05,0*78
$GNRMC,014945.90,A,3039.26752658,N,12047.31890068,E,0.007,87.5,170120,5.8,W,D*06
#HEADINGA,COM2,0,42.0,FINE,2088,438603.900,158929,29,18;SOL_COMPUTED,NARROW_INT,0.4445,256.2645,-14.1804,0.0000,0.4327,1.2201,"999",39,38,38,31,3,01,3,f3*0d7de346
#REFSTATIONA,COM2,0,42.0,FINE,2088,438598.000,158231,802,18;00000000,-2811023.329,4717645.324,3233007.504,0,RTCMV3,"0000"*aea153cf
$GNGGA,014946.00,3039.26752639,N,12047.31890065,E,2,27,0.6,4.2287,M,9.8171,M,06,0*76
$GNRMC,014946.00,A,3039.26752639,N,12047.31890065,E,0.004,125.8,170120,5.8,W,D*31
#HEADINGA,COM2,0,42.0,FINE,2088,438604.000,159029,35,18;SOL_COMPUTED,NARROW_INT,0.4433,255.8241,-14.2123,0.0000,0.4339,1.2245,"999",39,38,38,31,3,01,3,f3*d12f2a46
$GNGGA,014946.10,3039.26752598,N,12047.31890031,E,2,27,0.6,4.2299,M,9.8171,M,06,0*71
$GNRMC,014946.10,A,3039.26752598,N,12047.31890031,E,0.015,212.2,170120,5.8,W,D*34
#HEADINGA,COM2,0,42.0,FINE,2088,438604.100,159129,30,18;SOL_COMPUTED,NARROW_INT,0.4443,256.0217,-14.0319,0.0000,0.4328,1.2215,"999",39,38,38,31,3,01,3,f3*f4a40a95
$GNGGA,014946.20,3039.26752559,N,12047.31890006,E,2,27,0.6,4.2289,M,9.8171,M,06,0*7A
$GNRMC,014946.20,A,3039.26752559,N,12047.31890006,E,0.014,202.7,170120,5.8,W,D*3B
#HEADINGA,COM2,0,42.0,FINE,2088,438604.200,159231,30,18;SOL_COMPUTED,NARROW_INT,0.4438,255.9880,-13.6677,0.0000,0.4324,1.2233,"999",39,38,38,31,3,01,3,f3*fbb640f7
$GNGGA,014946.30,3039.26752548,N,12047.31889993,E,2,27,0.6,4.2265,M,9.8171,M,06,0*74
$GNRMC,014946.30,A,3039.26752548,N,12047.31889993,E,0.003,234.9,170120,5.8,W,D*3A
#HEADINGA,COM2,0,42.0,FINE,2088,438604.300,159329,30,18;SOL_COMPUTED,NARROW_INT,0.4430,255.8327,-13.4328,0.0000,0.4326,1.2257,"999",39,38,38,31,3,01,3,f3*2fcf8a3c
$GNGGA,014946.40,3039.26752515,N,12047.31889976,E,2,27,0.6,4.2269,M,9.8171,M,06,0*7C
$GNRMC,014946.40,A,3039.26752515,N,12047.31889976,E,0.008,198.0,170120,5.8,W,D*39
#HEADINGA,COM2,0,42.0,FINE,2088,438604.400,159429,29,18;SOL_COMPUTED,NARROW_INT,0.4415,256.3126,-13.2559,0.0000,0.4343,1.2300,"999",39,38,38,31,3,01,3,f3*79b9bbfb
$GNGGA,014946.50,3039.26752477,N,12047.31889959,E,2,27,0.6,4.2281,M,9.8171,M,06,0*73
$GNRMC,014946.50,A,3039.26752477,N,12047.31889959,E,0.012,188.2,170120,5.8,W,D*38
#HEADINGA,COM2,0,42.0,FINE,2088,438604.500,159528,30,18;SOL_COMPUTED,NARROW_INT,0.4442,255.9402,-13.0533,0.0000,0.4310,1.2234,"999",39,38,38,31,3,01,3,f3*ff8c0da4
$GNGGA,014946.60,3039.26752480,N,12047.31889955,E,2,27,0.6,4.2296,M,9.8171,M,06,0*72
$GNRMC,014946.60,A,3039.26752480,N,12047.31889955,E,0.002,58.7,170120,5.8,W,D*07
#HEADINGA,COM2,0,42.0,FINE,2088,438604.600,159629,29,18;SOL_COMPUTED,NARROW_INT,0.4443,255.7247,-14.1935,0.0000,0.4332,1.2234,"999",39,38,38,31,3,01,3,f3*7b1a7fae
$GNGGA,014946.70,3039.26752496,N,12047.31889954,E,2,27,0.6,4.2319,M,9.8171,M,06,0*73
$GNRMC,014946.70,A,3039.26752496,N,12047.31889954,E,0.007,18.4,170120,5.8,W,D*02
#HEADINGA,COM2,0,42.0,FINE,2088,438604.700,159729,29,18;SOL_COMPUTED,NARROW_INT,0.4436,255.7263,-13.7583,0.0000,0.4331,1.2246,"999",39,38,38,31,3,01,3,f3*7336d851
$GNGGA,014946.80,3039.26752494,N,12047.31889951,E,2,27,0.6,4.2317,M,9.8171,M,06,0*75
$GNRMC,014946.80,A,3039.26752494,N,12047.31889951,E,0.000,53.9,170120,5.8,W,D*0F
#HEADINGA,COM2,0,42.0,FINE,2088,438604.800,159829,29,18;SOL_COMPUTED,NARROW_INT,0.4415,256.0353,-14.3256,0.0000,0.4364,1.2297,"999",39,38,38,31,3,01,3,f3*8e8aeeac
$GNGGA,014946.90,3039.26752511,N,12047.31889942,E,2,27,0.6,4.2300,M,9.8171,M,06,0*7C
$GNRMC,014946.90,A,3039.26752511,N,12047.31889942,E,0.006,343.1,170120,5.8,W,D*3C
#HEADINGA,COM2,0,42.0,FINE,2088,438604.900,159928,29,18;SOL_COMPUTED,NARROW_INT,0.4426,256.6573,-14.8277,0.0000,0.4369,1.2260,"999",39,38,38,31,3,01,3,f3*52681e11
