ššbššbŠºbšb‚Šbšb2Í*04bdb468
$GNGGA,015259.70,3039.26819597,N,12047.31979111,E,2,27,0.6,2.1649,M,9.8172,M,02,0*72
$GNRMC,015259.70,A,3039.26819597,N,12047.31979111,E,0.019,164.4,170120,5.8,W,D*34
#HEADINGA,COM2,0,44.0,FINE,2088,438797.700,52770,28,18;SOL_COMPUTED,NARROW_INT,0.5564,143.3322,26.8750,0.0000,0.4913,0.9081,"999",37,33,33,17,3,01,3,f3*b1643518
$GNGGA,015259.80,3039.26819581,N,12047.31979063,E,2,27,0.6,2.1643,M,9.8172,M,02,0*74
$GNRMC,015259.80,A,3039.26819581,N,12047.31979063,E,0.016,217.6,170120,5.8,W,D*32
#HEADINGA,COM2,0,44.0,FINE,2088,438797.800,52870,28,18;SOL_COMPUTED,NARROW_INT,0.5539,142.9175,26.4829,0.0000,0.4919,0.9160,"999",37,33,33,17,3,01,3,f3*66eec4f4
$GNGGA,015259.90,3039.26819595,N,12047.31979067,E,2,27,0.6,2.1634,M,9.8172,M,02,0*74
$GNRMC,015259.90,A,3039.26819595,N,12047.31979067,E,0.006,113.8,170120,5.8,W,D*3A
#HEADINGA,COM2,0,44.0,FINE,2088,438797.900,52969,29,18;SOL_COMPUTED,NARROW_INT,0.5516,143.2127,26.7312,0.0000,0.4952,0.9181,"999",37,33,33,17,3,01,3,f3*3c2b888a
#REFSTATIONA,COM2,0,44.0,FINE,2088,438795.000,52271,802,18;00000000,-2811023.329,4717645.324,3233007.504,0,RTCMV3,"0000"*8fafc059
$GNGGA,015300.00,3039.26819615,N,12047.31978994,E,2,27,0.6,2.1595,M,9.8172,M,03,0*76
$GNRMC,015300.00,A,3039.26819615,N,12047.31978994,E,0.030,266.9,170120,5.8,W,D*34
#HEADINGA,COM2,0,44.0,FINE,2088,438798.000,53069,35,18;SOL_COMPUTED,NARROW_INT,0.5566,143.2531,27.2430,0.0000,0.4929,0.9067,"999",37,33,33,17,3,01,3,f3*afd8a9fb
$GNGGA,015300.10,3039.26819625,N,12047.31978957,E,2,27,0.6,2.1562,M,9.8172,M,03,0*73
$GNRMC,015300.10,A,3039.26819625,N,12047.31978957,E,0.004,240.3,170120,5.8,W,D*30
#HEADINGA,COM2,0,44.0,FINE,2088,438798.100,53170,29,18;SOL_COMPUTED,NARROW_INT,0.5539,142.7953,26.3958,0.0000,0.4915,0.9164,"999",37,33,33,17,3,01,3,f3*fd09f9dc
$GNGGA,015300.20,3039.26819622,N,12047.31978971,E,2,27,0.6,2.1539,M,9.8172,M,03,0*7D
$GNRMC,015300.20,A,3039.26819622,N,12047.31978971,E,0.012,115.0,170120,5.8,W,D*37
#HEADINGA,COM2,0,44.0,FINE,2088,438798.200,53271,30,18;SOL_COMPUTED,NARROW_INT,0.5552,143.0409,27.3279,0.0000,0.4944,0.9081,"999",37,33,33,17,3,01,3,f3*7002f491
$GNGGA,015300.30,3039.26819601,N,12047.31979034,E,2,27,0.6,2.1506,M,9.8172,M,03,0*78
$GNRMC,015300.30,A,3039.26819601,N,12047.31979034,E,0.014,177.7,170120,5.8,W,D*3B
#HEADINGA,COM2,0,44.0,FINE,2088,438798.300,53369,29,18;SOL_COMPUTED,NARROW_INT,0.5576,143.3737,27.7094,0.0000,0.4942,0.9012,"999",37,33,33,17,3,01,3,f3*c4bb443f
$GNGGA,015300.40,3039.26819559,N,12047.31979079,E,2,27,0.6,2.1457,M,9.8172,M,03,0*7D
$GNRMC,015300.40,A,3039.26819559,N,12047.31979079,E,0.020,233.9,170120,5.8,W,D*31
#HEADINGA,COM2,0,44.0,FINE,2088,438798.400,53469,29,18;SOL_COMPUTED,NARROW_INT,0.5535,143.2808,27.1570,0.0000,0.4959,0.9132,"999",37,33,33,17,3,01,3,f3*90b712b0
$GNGGA,015300.50,3039.26819538,N,12047.31979133,E,2,27,0.6,2.1420,M,9.8172,M,03,0*74
$GNRMC,015300.50,A,3039.26819538,N,12047.31979133,E,0.013,157.6,170120,5.8,W,D*36
#HEADINGA,COM2,0,44.0,FINE,2088,438798.500,53570,28,18;SOL_COMPUTED,NARROW_INT,0.5523,143.0052,26.8953,0.0000,0.4961,0.9179,"999",37,33,33,17,3,01,3,f3*e68c4174
$GNGGA,015300.60,3039.26819557,N,12047.31979206,E,2,27,0.6,2.1383,M,9.8172,M,03,0*75
$GNRMC,015300.60,A,3039.26819557,N,12047.31979206,E,0.014,101.4,170120,5.8,W,D*3F
#HEADINGA,COM2,0,44.0,FINE,2088,438798.600,53669,29,18;SOL_COMPUTED,NARROW_INT,0.5543,143.1522,26.9123,0.0000,0.4943,0.9142,"999",37,33,33,17,3,01,3,f3*8fb57e3d
$GNGGA,015300.70,3039.26819570,N,12047.31979218,E,2,27,0.6,2.1335,M,9.8172,M,03,0*73
$GNRMC,015300.70,A,3039.26819570,N,12047.31979218,E,0.009,238.0,170120,5.8,W,D*35
#HEADINGA,COM2,0,44.0,FINE,2088,438798.700,53769,29,18;SOL_COMPUTED,NARROW_INT,0.5511,142.8139,26.7298,0.0000,0.4963,0.9203,"999",37,33,33,17,3,01,3,f3*f35424a8
$GNGGA,015300.80,3039.26819553,N,12047.31979198,E,2,27,0.6,2.1303,M,9.8172,M,03,0*73
$GNRMC,015300.80,A,3039.26819553,N,12047.31979198,E,0.019,226.8,170120,5.8,W,D*36
#HEADINGA,COM2,0,44.0,FINE,2088,438798.800,53869,29,18;SOL_COMPUTED,NARROW_INT,0.5553,143.3405,27.0659,0.0000,0.4941,0.9105,"999",36,33,33,17,3,01,3,f3*623a3948
$GNGGA,015300.90,3039.26819577,N,12047.31979205,E,2,27,0.6,2.1281,M,9.8172,M,03,0*78
$GNRMC,015300.90,A,3039.26819577,N,12047.31979205,E,0.004,294.1,170120,5.8,W,D*3A
#HEADINGA,COM2,0,44.0,FINE,2088,438798.900,53969,29,18;SOL_COMPUTED,NARROW_INT,0.5564,143.3021,26.8418,0.0000,0.4921,0.9102,"999",37,33,33,17,3,01,3,f3*af180461
#REFSTATIONA,COM2,0,44.0,FINE,2088,438795.000,53271,802,18;00000000,-2811023.329,4717645.324,3233007.504,0,RTCMV3,"0000"*78639c57
$GNGGA,015301.00,3039.26819589,N,12047.31979186,E,2,27,0.6,2.1290,M,9.8172,M,04,0*7E
$GNRMC,015301.00,A,3039.26819589,N,12047.31979186,E,0.013,68.5,170120,5.8,W,D*08
#HEADINGA,COM2,0,44.0,FINE,2088,438799.000,54069,35,18;SOL_COMPUTED,NARROW_INT,0.5526,143.0723,26.6238,0.0000,0.4949,0.9188,"999",37,33,33,17,3,01,3,f3*de26e140
$GNGGA,015301.10,3039.26819567,N,12047.31979154,E,2,27,0.6,2.1288,M,9.8172,M,04,0*79
$GNRMC,015301.10,A,3039.26819567,N,12047.31979154,E,0.008,181.4,170120,5.8,W,D*3B
#HEADINGA,COM2,0,44.0,FINE,2088,438799.100,54170,29,18;SOL_COMPUTED,NARROW_INT,0.5544,143.0232,27.3089,0.0000,0.4961,0.9109,"999",37,33,33,17,3,01,3,f3*ed140dd1
$GNGGA,015301.20,3039.26819537,N,12047.31979079,E,2,27,0.6,2.1288,M,9.8172,M,04,0*71
$GNRMC,015301.20,A,3039.26819537,N,12047.31979079,E,0.016,229.4,170120,5.8,W,D*3D
#HEADINGA,COM2,0,44.0,FINE,2088,438799.200,54271,29,18;SOL_COMPUTED,NARROW_INT,0.5534,143.1767,26.8161,0.0000,0.4946,0.9153,"999",37,33,33,17,3,01,3,f3*22c3393d
$GNGGA,015301.30,3039.26819568,N,12047.31979089,E,2,27,0.6,2.1275,M,9.8172,M,03,0*70
$GNRMC,015301.30,A,3039.26819568,N,12047.31979089,E,0.016,63.6,170120,5.8,W,D*07
#HEADINGA,COM2,0,44.0,FINE,2088,438799.300,54370,31,18;SOL_COMPUTED,NARROW_INT,0.5560,143.2250,26.8598,0.0000,0.4925,0.9112,"999",37,33,33,17,3,01,3,f3*ff40e2b7
$GNGGA,015301.40,3039.26819587,N,12047.31979040,E,2,27,0.6,2.1249,M,9.8172,M,03,0*7C
$GNRMC,015301.40,A,3039.26819587,N,12047.31979040,E,0.016,269.8,170120,5.8,W,D*32
#HEADINGA,COM2,0,44.0,FINE,2088,438799.400,54469,29,18;SOL_COMPUTED,NARROW_INT,0.5550,143.0822,26.4957,0.0000,0.4918,0.9155,"999",37,33,33,17,3,01,3,f3*2df167b6
$GNGGA,015301.50,3039.26819602,N,12047.31978996,E,2,27,0.6,2.1242,M,9.8172,M,03,0*7B
$GNRMC,015301.50,A,3039.26819602,N,12047.31978996,E,0.008,301.0,170120,5.8,W,D*36
#HEADINGA,COM2,0,44.0,FINE,2088,438799.500,54570,29,18;SOL_COMPUTED,NARROW_INT,0.5558,143.2592,27.0124,0.0000,0.4923,0.9111,"999",37,33,33,17,3,01,3,f3*3fa1df1d
$GNGGA,015301.60,3039.26819557,N,12047.31978956,E,2,27,0.6,2.1232,M,9.8172,M,03,0*70
$GNRMC,015301.60,A,3039.26819557,N,12047.31978956,E,0.019,206.1,170120,5.8,W,D*3D
#HEADINGA,COM2,0,44.0,FINE,2088,438799.600,54670,28,18;SOL_COMPUTED,NARROW_INT,0.5554,143.2793,27.4541,0.0000,0.4951,0.9105,"999",37,33,33,17,3,01,3,f3*459ca2b9
$GNGGA,015301.70,3039.26819533,N,12047.31978884,E,2,27,0.6,2.1226,M,9.8172,M,03,0*78
$GNRMC,015301.70,A,3039.26819533,N,12047.31978884,E,0.020,215.6,170120,5.8,W,D*3F
#HEADINGA,COM2,0,46.0,FINE,2088,438799.700,54770,28,18;SOL_COMPUTED,NARROW_INT,0.5635,143.3365,27.9881,0.0000,0.4904,0.8933,"999",37,33,33,17,3,01,3,f3*b5084e3d
$GNGGA,015301.80,3039.26819501,N,12047.31978795,E,2,27,0.6,2.1219,M,9.8172,M,03,0*75
$GNRMC,015301.80,A,3039.26819501,N,12047.31978795,E,0.024,219.0,170120,5.8,W,D*30
#HEADINGA,COM2,0,46.0,FINE,2088,438799.800,54869,28,18;SOL_COMPUTED,NARROW_INT,0.5565,143.2502,27.2100,0.0000,0.4932,0.9100,"999",37,33,33,17,3,01,3,f3*1e845c28
$GNGGA,015301.90,3039.26819515,N,12047.31978778,E,2,27,0.6,2.1218,M,9.8172,M,03,0*73
$GNRMC,015301.90,A,3039.26819515,N,12047.31978778,E,0.015,85.6,170120,5.8,W,D*04
#HEADINGA,COM2,0,46.0,FINE,2088,438799.900,54969,28,18;SOL_COMPUTED,NARROW_INT,0.5566,143.4481,27.1026,0.0000,0.4918,0.9083,"999",37,33,33,17,3,01,3,f3*ee682e69
#REFSTATIONA,COM2,0,44.0,FINE,2088,438796.000,54271,802,18;00000000,-2811023.329,4717645.324,3233007.504,0,RTCMV3,"0000"*f6fdaa81
$GNGGA,015302.00,3039.26819553,N,12047.31978765,E,2,27,0.6,2.1199,M,9.8172,M,04,0*7A
$GNRMC,015302.00,A,3039.26819553,N,12047.31978765,E,0.008,37.8,170120,5.8,W,D*0B
#HEADINGA,COM2,0,46.0,FINE,2088,438800.000,55069,35,18;SOL_COMPUTED,NARROW_INT,0.5545,143.1214,27.2642,0.0000,0.4941,0.9105,"999",37,33,33,17,3,01,3,f3*4cec2ff0
$GNGGA,015302.10,3039.26819570,N,12047.31978687,E,2,27,0.6,2.1179,M,9.8172,M,04,0*79
$GNRMC,015302.10,A,3039.26819570,N,12047.31978687,E,0.015,270.7,170120,5.8,W,D*34
#HEADINGA,COM2,0,46.0,FINE,2088,438800.100,55170,29,18;SOL_COMPUTED,NARROW_INT,0.5561,142.8951,26.7680,0.0000,0.4911,0.9125,"999",37,33,33,17,3,01,3,f3*f0480570
$GNGGA,015302.20,3039.26819582,N,12047.31978592,E,2,27,0.6,2.1152,M,9.8172,M,04,0*79
$GNRMC,015302.20,A,3039.26819582,N,12047.31978592,E,0.021,265.4,170120,5.8,W,D*3D
#HEADINGA,COM2,0,46.0,FINE,2088,438800.200,55271,30,18;SOL_COMPUTED,NARROW_INT,0.5602,143.4059,27.6649,0.0000,0.4914,0.8987,"999",37,33,33,17,3,01,3,f3*040127f6
$GNGGA,015302.30,3039.26819581,N,12047.31978537,E,2,27,0.6,2.1128,M,9.8172,M,02,0*7F
$GNRMC,015302.30,A,3039.26819581,N,12047.31978537,E,0.015,218.2,170120,5.8,W,D*3B
#HEADINGA,COM2,0,46.0,FINE,2088,438800.300,55369,31,18;SOL_COMPUTED,NARROW_INT,0.5590,143.3407,27.6769,0.0000,0.4921,0.9003,"999",37,33,33,17,3,01,3,f3*a719f5dd
$GNGGA,015302.40,3039.26819576,N,12047.31978537,E,2,27,0.6,2.1112,M,9.8172,M,02,0*79
$GNRMC,015302.40,A,3039.26819576,N,12047.31978537,E,0.015,145.7,170120,5.8,W,D*3A
#HEADINGA,COM2,0,46.0,FINE,2088,438800.400,55469,29,18;SOL_COMPUTED,NARROW_INT,0.5542,142.9162,26.6316,0.0000,0.4923,0.9165,"999",37,33,33,17,3,01,3,f3*1516f5d0
$GNGGA,015302.50,3039.26819558,N,12047.31978550,E,2,27,0.6,2.1108,M,9.8172,M,02,0*7E
$GNRMC,015302.50,A,3039.26819558,N,12047.31978550,E,0.022,142.5,170120,5.8,W,D*37
#HEADINGA,COM2,0,46.0,FINE,2088,438800.500,55569,29,18;SOL_COMPUTED,NARROW_INT,0.5585,143.3939,27.1153,0.0000,0.4901,0.9052,"999",37,33,33,17,3,01,3,f3*d62db9ba
$GNGGA,015302.60,3039.26819548,N,12047.31978522,E,2,27,0.6,2.1086,M,9.8172,M,02,0*7E
$GNRMC,015302.60,A,3039.26819548,N,12047.31978522,E,0.017,197.0,170120,5.8,W,D*3B
#HEADINGA,COM2,0,46.0,FINE,2088,438800.600,55670,28,18;SOL_COMPUTED,NARROW_INT,0.5544,142.8584,26.7264,0.0000,0.4927,0.9167,"999",37,33,33,17,3,01,3,f3*c376f6d0
$GNGGA,015302.70,3039.26819558,N,12047.31978444,E,2,27,0.6,2.1047,M,9.8172,M,02,0*72
$GNRMC,015302.70,A,3039.26819558,N,12047.31978444,E,0.022,248.0,170120,5.8,W,D*3D
#HEADINGA,COM2,0,46.0,FINE,2088,438800.700,55769,29,18;SOL_COMPUTED,NARROW_INT,0.5589,142.8715,27.4148,0.0000,0.4917,0.9050,"999",37,33,33,17,3,01,3,f3*af2f0990
$GNGGA,015302.80,3039.26819568,N,12047.31978409,E,2,27,0.6,2.1035,M,9.8172,M,02,0*72
$GNRMC,015302.80,A,3039.26819568,N,12047.31978409,E,0.007,194.6,170120,5.8,W,D*3B
#HEADINGA,COM2,0,46.0,FINE,2088,438800.800,55869,28,18;SOL_COMPUTED,NARROW_INT,0.5560,143.0057,27.4315,0.0000,0.4938,0.9079,"999",37,33,33,17,3,01,3,f3*40aa5e26
$GNGGA,015302.90,3039.26819588,N,12047.31978396,E,2,27,0.6,2.1023,M,9.8172,M,02,0*7B
$GNRMC,015302.90,A,3039.26819588,N,12047.31978396,E,0.006,177.4,170120,5.8,W,D*3B
#HEADINGA,COM2,0,46.0,FINE,2088,438800.900,55969,28,18;SOL_COMPUTED,NARROW_INT,0.5594,143.1794,27.7562,0.0000,0.4925,0.9002,"999",37,33,33,17,3,01,3,f3*e1391b45
#REFSTATIONA,COM2,0,46.0,FINE,2088,438798.000,55271,802,18;00000000,-2811023.329,4717645.324,3233007.504,0,RTCMV3,"0000"*9967639c
$GNGGA,015303.00,3039.26819596,N,12047.31978410,E,2,27,0.6,2.0997,M,9.8172,M,03,0*73
$GNRMC,015303.00,A,3039.26819596,N,12047.31978410,E,0.011,146.7,170120,5.8,W,D*32
#HEADINGA,COM2,0,46.0,FINE,2088,438801.000,56069,35,18;SOL_COMPUTED,NARROW_INT,0.5545,142.8880,27.0568,0.0000,0.4933,0.9117,"999",37,33,33,17,3,01,3,f3*58f2cb70
$GNGGA,015303.10,3039.26819612,N,12047.31978370,E,2,27,0.6,2.1005,M,9.8172,M,03,0*7F
$GNRMC,015303.10,A,3039.26819612,N,12047.31978370,E,0.016,214.3,170120,5.8,W,D*3A
#HEADINGA,COM2,0,46.0,FINE,2088,438801.100,56169,29,18;SOL_COMPUTED,NARROW_INT,0.5599,143.0890,28.0003,0.0000,0.4935,0.8983,"999",37,33,33,17,3,01,3,f3*39c7e61d
$GNGGA,015303.20,3039.26819637,N,12047.31978285,E,2,27,0.6,2.0996,M,9.8172,M,03,0*72
$GNRMC,015303.20,A,3039.26819637,N,12047.31978285,E,0.029,251.9,170120,5.8,W,D*32
#HEADINGA,COM2,0,46.0,FINE,2088,438801.200,56271,30,18;SOL_COMPUTED,NARROW_INT,0.5597,143.0169,27.3936,0.0000,0.4903,0.9011,"999",37,33,33,17,3,01,3,f3*0c6a9887
$GNGGA,015303.30,3039.26819655,N,12047.31978207,E,2,27,0.6,2.1001,M,9.8172,M,03,0*7B
$GNRMC,015303.30,A,3039.26819655,N,12047.31978207,E,0.026,250.1,170120,5.8,W,D*3B
#HEADINGA,COM2,0,46.0,FINE,2088,438801.300,56369,29,18;SOL_COMPUTED,NARROW_INT,0.5576,143.1345,27.4341,0.0000,0.4925,0.9034,"999",37,33,33,18,3,01,3,f3*abf6665c
$GNGGA,015303.40,3039.26819683,N,12047.31978200,E,2,27,0.6,2.1002,M,9.8172,M,03,0*73
$GNRMC,015303.40,A,3039.26819683,N,12047.31978200,E,0.006,222.5,170120,5.8,W,D*33
#HEADINGA,COM2,0,46.0,FINE,2088,438801.400,56469,29,18;SOL_COMPUTED,NARROW_INT,0.5546,143.0748,27.2378,0.0000,0.4936,0.9077,"999",37,33,33,18,3,01,3,f3*eed055ae
$GNGGA,015303.50,3039.26819707,N,12047.31978189,E,2,27,0.6,2.0986,M,9.8172,M,03,0*79
$GNRMC,015303.50,A,3039.26819707,N,12047.31978189,E,0.010,210.0,170120,5.8,W,D*3E
#HEADINGA,COM2,0,46.0,FINE,2088,438801.500,56569,28,18;SOL_COMPUTED,NARROW_INT,0.5537,142.8629,27.2620,0.0000,0.4939,0.9083,"999",37,33,33,18,3,01,3,f3*250c4eaf
$GNGGA,015303.60,3039.26819780,N,12047.31978151,E,2,27,0.6,2.0973,M,9.8172,M,03,0*7A
$GNRMC,015303.60,A,3039.26819780,N,12047.31978151,E,0.014,310.0,170120,5.8,W,D*32
#HEADINGA,COM2,0,46.0,FINE,2088,438801.600,56669,29,18;SOL_COMPUTED,NARROW_INT,0.5576,143.0281,27.9451,0.0000,0.4935,0.8973,"999",37,33,33,18,3,01,3,f3*e898d5f1
$GNGGA,015303.70,3039.26819862,N,12047.31978128,E,2,27,0.6,2.0977,M,9.8172,M,03,0*72
$GNRMC,015303.70,A,3039.26819862,N,12047.31978128,E,0.016,351.5,170120,5.8,W,D*3C
#HEADINGA,COM2,0,46.0,FINE,2088,438801.700,56769,29,18;SOL_COMPUTED,NARROW_INT,0.5571,142.9747,27.2554,0.0000,0.4911,0.9024,"999",37,33,33,18,3,01,3,f3*7ef8935b
$GNGGA,015303.80,3039.26819895,N,12047.31978157,E,2,27,0.6,2.0954,M,9.8172,M,03,0*7C
$GNRMC,015303.80,A,3039.26819895,N,12047.31978157,E,0.007,4.9,170120,5.8,W,D*3C
#HEADINGA,COM2,0,46.0,FINE,2088,438801.800,56869,29,18;SOL_COMPUTED,NARROW_INT,0.5529,142.7628,27.0729,0.0000,0.4940,0.9110,"999",37,33,33,18,3,01,3,f3*32ec4bc1
$GNGGA,015303.90,3039.26819941,N,12047.31978180,E,2,27,0.6,2.0930,M,9.8172,M,03,0*7D
$GNRMC,015303.90,A,3039.26819941,N,12047.31978180,E,0.012,3.1,170120,5.8,W,D*34
#HEADINGA,COM2,0,46.0,FINE,2088,438801.900,56969,28,18;SOL_COMPUTED,NARROW_INT,0.5570,142.9423,27.7810,0.0000,0.4932,0.8988,"999",37,33,33,18,3,01,3,f3*4113b0ab
#REFSTATIONA,COM2,0,46.0,FINE,2088,438798.000,56271,802,18;00000000,-2811023.329,4717645.324,3233007.504,0,RTCMV3,"0000"*5a4281cf
$GNGGA,015304.00,3039.26819951,N,12047.31978148,E,2,27,0.6,2.0930,M,9.8172,M,04,0*71
$GNRMC,015304.00,A,3039.26819951,N,12047.31978148,E,0.013,281.0,170120,5.8,W,D*37
#HEADINGA,COM2,0,46.0,FINE,2088,438802.000,57069,35,18;SOL_COMPUTED,NARROW_INT,0.5612,143.3052,27.8401,0.0000,0.4903,0.8926,"999",37,33,33,18,3,01,3,f3*f8fe0c3d
$GNGGA,015304.10,3039.26819965,N,12047.31978110,E,2,27,0.6,2.0920,M,9.8172,M,04,0*7B
$GNRMC,015304.10,A,3039.26819965,N,12047.31978110,E,0.019,279.1,170120,5.8,W,D*30
#HEADINGA,COM2,0,46.0,FINE,2088,438802.100,57170,29,18;SOL_COMPUTED,NARROW_INT,0.5557,143.1133,27.3200,0.0000,0.4928,0.9056,"999",37,33,33,18,3,01,3,f3*b1481360
$GNGGA,015304.20,3039.26820023,N,12047.31978120,E,2,27,0.6,2.0885,M,9.8172,M,04,0*74
$GNRMC,015304.20,A,3039.26820023,N,12047.31978120,E,0.017,299.9,170120,5.8,W,D*39
#HEADINGA,COM2,0,46.0,FINE,2088,438802.200,57271,30,18;SOL_COMPUTED,NARROW_INT,0.5556,142.9579,27.3239,0.0000,0.4929,0.9060,"999",37,33,33,18,3,01,3,f3*98d31096
$GNGGA,015304.30,3039.26820076,N,12047.31978168,E,2,27,0.6,2.0869,M,9.8172,M,04,0*7B
$GNRMC,015304.30,A,3039.26820076,N,12047.31978168,E,0.012,20.1,170120,5.8,W,D*09
#HEADINGA,COM2,0,46.0,FINE,2088,438802.300,57369,29,18;SOL_COMPUTED,NARROW_INT,0.5549,142.8868,27.2469,0.0000,0.4932,0.9077,"999",37,33,33,18,3,01,3,f3*01317451
$GNGGA,015304.40,3039.26820074,N,12047.31978227,E,2,27,0.6,2.0847,M,9.8172,M,04,0*7A
$GNRMC,015304.40,A,3039.26820074,N,12047.31978227,E,0.005,161.3,170120,5.8,W,D*34
#HEADINGA,COM2,0,46.0,FINE,2088,438802.400,57469,29,18;SOL_COMPUTED,NARROW_INT,0.5565,143.0945,27.5373,0.0000,0.4929,0.9022,"999",37,33,33,18,3,01,3,f3*45c68f87
$GNGGA,015304.50,3039.26820085,N,12047.31978290,E,2,27,0.6,2.0814,M,9.8172,M,04,0*7F
$GNRMC,015304.50,A,3039.26820085,N,12047.31978290,E,0.006,132.8,170120,5.8,W,D*39
#HEADINGA,COM2,0,46.0,FINE,2088,438802.500,57569,29,18;SOL_COMPUTED,NARROW_INT,0.5567,142.9404,27.6446,0.0000,0.4935,0.9018,"999",37,33,33,18,3,01,3,f3*ee065592
$GNGGA,015304.60,3039.26820075,N,12047.31978328,E,2,27,0.6,2.0787,M,9.8172,M,04,0*74
$GNRMC,015304.60,A,3039.26820075,N,12047.31978328,E,0.010,184.2,170120,5.8,W,D*37
#HEADINGA,COM2,0,46.0,FINE,2088,438802.600,57669,29,18;SOL_COMPUTED,NARROW_INT,0.5529,142.9242,27.2632,0.0000,0.4952,0.9104,"999",37,33,33,18,3,01,3,f3*3473add1
$GNGGA,015304.70,3039.26820108,N,12047.31978338,E,2,27,0.6,2.0760,M,9.8172,M,04,0*76
$GNRMC,015304.70,A,3039.26820108,N,12047.31978338,E,0.011,297.5,170120,5.8,W,D*3B
#HEADINGA,COM2,0,46.0,FINE,2088,438802.700,57769,29,18;SOL_COMPUTED,NARROW_INT,0.5577,143.0588,27.5657,0.0000,0.4922,0.9003,"999",37,33,33,18,3,01,3,f3*74c930d1
$GNGGA,015304.80,3039.26820142,N,12047.31978357,E,2,27,0.6,2.0727,M,9.8172,M,04,0*7D
$GNRMC,015304.80,A,3039.26820142,N,12047.31978357,E,0.009,313.1,170120,5.8,W,D*33
#HEADINGA,COM2,0,47.0,FINE,2088,438802.800,57869,28,18;SOL_COMPUTED,NARROW_INT,0.5550,142.9509,27.2053,0.0000,0.4927,0.9064,"999",37,33,33,18,3,01,3,f3*27b1ab2d
$GNGGA,015304.90,3039.26820184,N,12047.31978387,E,2,27,0.6,2.0707,M,9.8172,M,04,0*79
$GNRMC,015304.90,A,3039.26820184,N,12047.31978387,E,0.011,0.8,170120,5.8,W,D*34
#HEADINGA,COM2,0,47.0,FINE,2088,438802.900,57969,28,18;SOL_COMPUTED,NARROW_INT,0.5530,142.9987,26.8199,0.0000,0.4928,0.9121,"999",37,33,33,18,3,01,3,f3*7dece321
#REFSTATIONA,COM2,0,46.0,FINE,2088,438798.000,57271,802,18;00000000,-2811023.329,4717645.324,3233007.504,0,RTCMV3,"0000"*ad8eddc1
$GNGGA,015305.00,3039.26820162,N,12047.31978371,E,2,27,0.6,2.0701,M,9.8172,M,05,0*77
$GNRMC,015305.00,A,3039.26820162,N,12047.31978371,E,0.005,277.2,170120,5.8,W,D*30
#HEADINGA,COM2,0,47.0,FINE,2088,438803.000,58069,35,18;SOL_COMPUTED,NARROW_INT,0.5561,142.9089,27.0982,0.0000,0.4915,0.9060,"999",37,33,33,18,3,01,3,f3*870a4b0a
$GNGGA,015305.10,3039.26820164,N,12047.31978356,E,2,27,0.6,2.0696,M,9.8172,M,05,0*7A
$GNRMC,015305.10,A,3039.26820164,N,12047.31978356,E,0.009,334.1,170120,5.8,W,D*3B
#HEADINGA,COM2,0,47.0,FINE,2088,438803.100,58169,29,18;SOL_COMPUTED,NARROW_INT,0.5573,143.1935,27.1165,0.0000,0.4906,0.9035,"999",37,33,33,18,3,01,3,f3*06165aa8
$GNGGA,015305.20,3039.26820177,N,12047.31978354,E,2,27,0.6,2.0673,M,9.8172,M,05,0*72
$GNRMC,015305.20,A,3039.26820177,N,12047.31978354,E,0.012,343.3,170120,5.8,W,D*30
#HEADINGA,COM2,0,47.0,FINE,2088,438803.200,58270,30,18;SOL_COMPUTED,NARROW_INT,0.5574,143.1821,27.4017,0.0000,0.4916,0.9014,"999",37,33,33,18,3,01,3,f3*c4bf4f56
$GNGGA,015305.30,3039.26820177,N,12047.31978305,E,2,27,0.6,2.0661,M,9.8172,M,05,0*74
$GNRMC,015305.30,A,3039.26820177,N,12047.31978305,E,0.014,295.2,170120,5.8,W,D*38
#HEADINGA,COM2,0,47.0,FINE,2088,438803.300,58369,28,18;SOL_COMPUTED,NARROW_INT,0.5520,142.9441,27.1729,0.0000,0.4955,0.9128,"999",37,33,33,18,3,01,3,f3*7293d6bc
$GNGGA,015305.40,3039.26820178,N,12047.31978280,E,2,27,0.6,2.0646,M,9.8172,M,05,0*75
$GNRMC,015305.40,A,3039.26820178,N,12047.31978280,E,0.008,321.1,170120,5.8,W,D*3C
#HEADINGA,COM2,0,47.0,FINE,2088,438803.400,58469,28,18;SOL_COMPUTED,NARROW_INT,0.5559,142.7616,26.8688,0.0000,0.4906,0.9084,"999",37,33,33,18,3,01,3,f3*2ee9dae6
$GNGGA,015305.50,3039.26820165,N,12047.31978261,E,2,27,0.6,2.0651,M,9.8172,M,05,0*71
$GNRMC,015305.50,A,3039.26820165,N,12047.31978261,E,0.003,14.3,170120,5.8,W,D*02
#HEADINGA,COM2,0,47.0,FINE,2088,438803.500,58569,28,18;SOL_COMPUTED,NARROW_INT,0.5529,142.8631,26.9104,0.0000,0.4938,0.9138,"999",37,33,33,18,3,01,3,f3*30b4bffb
$GNGGA,015305.60,3039.26820143,N,12047.31978252,E,2,27,0.6,2.0648,M,9.8172,M,05,0*7E
$GNRMC,015305.60,A,3039.26820143,N,12047.31978252,E,0.002,205.6,170120,5.8,W,D*33
#HEADINGA,COM2,0,47.0,FINE,2088,438803.600,58669,29,18;SOL_COMPUTED,NARROW_INT,0.5572,143.1842,27.1426,0.0000,0.4910,0.9048,"999",37,33,33,18,3,01,3,f3*0cb38888
$GNGGA,015305.70,3039.26820110,N,12047.31978256,E,2,27,0.6,2.0635,M,9.8172,M,05,0*77
$GNRMC,015305.70,A,3039.26820110,N,12047.31978256,E,0.008,163.0,170120,5.8,W,D*3F
#HEADINGA,COM2,0,47.0,FINE,2088,438803.700,58769,29,18;SOL_COMPUTED,NARROW_INT,0.5576,143.1920,27.9512,0.0000,0.4942,0.8989,"999",37,33,33,18,3,01,3,f3*0aa2e83c
$GNGGA,015305.80,3039.26820086,N,12047.31978223,E,2,27,0.6,2.0643,M,9.8172,M,05,0*75
$GNRMC,015305.80,A,3039.26820086,N,12047.31978223,E,0.006,234.9,170120,5.8,W,D*3A
#HEADINGA,COM2,0,47.0,FINE,2088,438803.800,58869,28,18;SOL_COMPUTED,NARROW_INT,0.5552,143.0675,27.4001,0.0000,0.4933,0.9050,"999",37,33,33,18,3,01,3,f3*c27808b1
$GNGGA,015305.90,3039.26820069,N,12047.31978188,E,2,27,0.6,2.0635,M,9.8172,M,05,0*76
$GNRMC,015305.90,A,3039.26820069,N,12047.31978188,E,0.010,256.6,170120,5.8,W,D*34
#HEADINGA,COM2,0,47.0,FINE,2088,438803.900,58969,28,18;SOL_COMPUTED,NARROW_INT,0.5534,142.8120,26.4837,0.0000,0.4908,0.9140,"999",37,33,33,18,3,01,3,f3*aecd1c1f
#REFSTATIONA,COM2,0,46.0,FINE,2088,438798.000,57271,1802,18;00000000,-2811023.329,4717645.324,3233007.504,0,RTCMV3,"0000"*cd97dc33
$GNGGA,015306.00,3039.26820061,N,12047.31978174,E,2,27,0.6,2.0626,M,9.8172,M,06,0*76
$GNRMC,015306.00,A,3039.26820061,N,12047.31978174,E,0.007,309.4,170120,5.8,W,D*3A
#HEADINGA,COM2,0,47.0,FINE,2088,438804.000,59069,35,18;SOL_COMPUTED,NARROW_INT,0.5571,143.2166,27.1003,0.0000,0.4904,0.9037,"999",37,33,33,18,3,01,3,f3*a3c6a138
$GNGGA,015306.10,3039.26820043,N,12047.31978173,E,2,27,0.6,2.0600,M,9.8172,M,06,0*74
$GNRMC,015306.10,A,3039.26820043,N,12047.31978173,E,0.005,284.1,170120,5.8,W,D*3F
#HEADINGA,COM2,0,47.0,FINE,2088,438804.100,59169,29,18;SOL_COMPUTED,NARROW_INT,0.5542,143.1086,27.4267,0.0000,0.4944,0.9065,"999",37,33,33,18,3,01,3,f3*1424c2a7
$GNGGA,015306.20,3039.26820047,N,12047.31978178,E,2,27,0.6,2.0604,M,9.8172,M,06,0*7C
$GNRMC,015306.20,A,3039.26820047,N,12047.31978178,E,0.011,26.5,170120,5.8,W,D*08
#HEADINGA,COM2,0,47.0,FINE,2088,438804.200,59270,31,18;SOL_COMPUTED,NARROW_INT,0.5512,143.0126,26.9984,0.0000,0.4956,0.9158,"999",37,33,33,18,3,01,3,f3*76fdf3b8
$GNGGA,015306.30,3039.26820085,N,12047.31978229,E,2,27,0.6,2.0584,M,9.8172,M,05,0*7C
$GNRMC,015306.30,A,3039.26820085,N,12047.31978229,E,0.005,4.2,170120,5.8,W,D*32
#HEADINGA,COM2,0,47.0,FINE,2088,438804.300,59369,31,18;SOL_COMPUTED,NARROW_INT,0.5578,143.0847,27.1019,0.0000,0.4901,0.9043,"999",37,33,33,18,3,01,3,f3*ef140cc1
$GNGGA,015306.40,3039.26820076,N,12047.31978290,E,2,27,0.6,2.0559,M,9.8172,M,05,0*75
$GNRMC,015306.40,A,3039.26820076,N,12047.31978290,E,0.011,156.2,170120,5.8,W,D*38
#HEADINGA,COM2,0,47.0,FINE,2088,438804.400,59469,28,18;SOL_COMPUTED,NARROW_INT,0.5560,143.0300,26.8238,0.0000,0.4906,0.9092,"999",37,33,33,18,3,01,3,f3*48f93cfb
$GNGGA,015306.50,3039.26820072,N,12047.31978342,E,2,27,0.6,2.0533,M,9.8172,M,05,0*72
$GNRMC,015306.50,A,3039.26820072,N,12047.31978342,E,0.010,91.5,170120,5.8,W,D*0F
#HEADINGA,COM2,0,47.0,FINE,2088,438804.500,59569,28,18;SOL_COMPUTED,NARROW_INT,0.5535,143.1219,26.3651,0.0000,0.4908,0.9159,"999",37,33,33,18,3,01,3,f3*3cc4ab74
$GNGGA,015306.60,3039.26820068,N,12047.31978379,E,2,27,0.6,2.0516,M,9.8172,M,05,0*75
$GNRMC,015306.60,A,3039.26820068,N,12047.31978379,E,0.006,70.6,170120,5.8,W,D*04
#HEADINGA,COM2,0,47.0,FINE,2088,438804.600,59669,28,18;SOL_COMPUTED,NARROW_INT,0.5553,143.3023,27.6350,0.0000,0.4943,0.9032,"999",37,33,33,18,3,01,3,f3*58229d89
$GNGGA,015306.70,3039.26820085,N,12047.31978412,E,2,27,0.6,2.0499,M,9.8172,M,05,0*7B
$GNRMC,015306.70,A,3039.26820085,N,12047.31978412,E,0.004,271.4,170120,5.8,W,D*3F
#HEADINGA,COM2,0,47.0,FINE,2088,438804.700,59769,29,18;SOL_COMPUTED,NARROW_INT,0.5566,142.7965,27.1512,0.0000,0.4912,0.9051,"999",37,33,33,18,3,01,3,f3*b6ab982b
$GNGGA,015306.80,3039.26820081,N,12047.31978363,E,2,27,0.6,2.0487,M,9.8172,M,05,0*7E
$GNRMC,015306.80,A,3039.26820081,N,12047.31978363,E,0.018,276.2,170120,5.8,W,D*39
#HEADINGA,COM2,0,47.0,FINE,2088,438804.800,59869,28,18;SOL_COMPUTED,NARROW_INT,0.5536,143.0610,27.5657,0.0000,0.4959,0.9070,"999",37,33,33,18,3,01,3,f3*884d4547
$GNGGA,015306.90,3039.26820096,N,12047.31978367,E,2,27,0.6,2.0464,M,9.8172,M,05,0*70
$GNRMC,015306.90,A,3039.26820096,N,12047.31978367,E,0.009,339.6,170120,5.8,W,D*34
#HEADINGA,COM2,0,47.0,FINE,2088,438804.900,59969,28,18;SOL_COMPUTED,NARROW_INT,0.5590,143.3408,27.4457,0.0000,0.4906,0.8986,"999",37,33,33,18,3,01,3,f3*64b17608
#REFSTATIONA,COM2,0,47.0,FINE,2088,438799.000,59270,803,18;00000000,-2811023.329,4717645.324,3233007.504,0,RTCMV3,"0000"*dadfeaf1
$GNGGA,015307.00,3039.26820132,N,12047.31978458,E,2,27,0.6,2.0439,M,9.8172,M,06,0*77
$GNRMC,015307.00,A,3039.26820132,N,12047.31978458,E,0.018,66.6,170120,5.8,W,D*01
#HEADINGA,COM2,0,47.0,FINE,2088,438805.000,60069,36,18;SOL_COMPUTED,NARROW_INT,0.5562,143.1695,27.0629,0.0000,0.4915,0.9067,"999",37,33,33,18,3,01,3,f3*20fefc3b
$GNGGA,015307.10,3039.26820162,N,12047.31978490,E,2,27,0.6,2.0421,M,9.8172,M,06,0*7E
$GNRMC,015307.10,A,3039.26820162,N,12047.31978490,E,0.016,26.0,170120,5.8,W,D*0D
#HEADINGA,COM2,0,47.0,FINE,2088,438805.100,60169,29,18;SOL_COMPUTED,NARROW_INT,0.5566,143.0996,27.5305,0.0000,0.4932,0.9032,"999",37,33,33,18,3,01,3,f3*9b3e5b04
$GNGGA,015307.20,3039.26820132,N,12047.31978484,E,2,27,0.6,2.0404,M,9.8172,M,06,0*7A
$GNRMC,015307.20,A,3039.26820132,N,12047.31978484,E,0.007,212.5,170120,5.8,W,D*3E
#HEADINGA,COM2,0,47.0,FINE,2088,438805.200,60270,31,18;SOL_COMPUTED,NARROW_INT,0.5571,143.0209,26.9218,0.0000,0.4906,0.9078,"999",37,33,33,18,3,01,3,f3*799b325e
$GNGGA,015307.30,3039.26820128,N,12047.31978438,E,2,27,0.6,2.0374,M,9.8172,M,04,0*75
$GNRMC,015307.30,A,3039.26820128,N,12047.31978438,E,0.019,260.3,170120,5.8,W,D*3F
#HEADINGA,COM2,0,47.0,FINE,2088,438805.300,60369,31,18;SOL_COMPUTED,NARROW_INT,0.5594,143.2265,26.5493,0.0000,0.4871,0.9064,"999",37,33,33,18,3,01,3,f3*79734deb
$GNGGA,015307.40,3039.26820101,N,12047.31978462,E,2,27,0.6,2.0357,M,9.8172,M,04,0*77
$GNRMC,015307.40,A,3039.26820101,N,12047.31978462,E,0.016,128.3,170120,5.8,W,D*3C
#HEADINGA,COM2,0,47.0,FINE,2088,438805.400,60469,29,18;SOL_COMPUTED,NARROW_INT,0.5552,143.1503,26.7838,0.0000,0.4918,0.9131,"999",37,33,33,18,3,01,3,f3*371ae06d
$GNGGA,015307.50,3039.26820094,N,12047.31978520,E,2,27,0.6,2.0319,M,9.8172,M,04,0*76
$GNRMC,015307.50,A,3039.26820094,N,12047.31978520,E,0.013,105.7,170120,5.8,W,D*39
#HEADINGA,COM2,0,47.0,FINE,2088,438805.500,60569,29,18;SOL_COMPUTED,NARROW_INT,0.5520,143.0287,27.1628,0.0000,0.4965,0.9158,"999",37,33,33,18,3,01,3,f3*f0046171
$GNGGA,015307.60,3039.26820061,N,12047.31978547,E,2,27,0.6,2.0298,M,9.8172,M,04,0*76
$GNRMC,015307.60,A,3039.26820061,N,12047.31978547,E,0.017,107.9,170120,5.8,W,D*39
#HEADINGA,COM2,0,47.0,FINE,2088,438805.600,60669,28,18;SOL_COMPUTED,NARROW_INT,0.5606,143.6300,27.8032,0.0000,0.4921,0.8973,"999",37,33,33,18,3,01,3,f3*5587469d
$GNGGA,015307.70,3039.26820046,N,12047.31978548,E,2,27,0.6,2.0264,M,9.8172,M,04,0*7E
$GNRMC,015307.70,A,3039.26820046,N,12047.31978548,E,0.009,96.0,170120,5.8,W,D*0D
#HEADINGA,COM2,0,47.0,FINE,2088,438805.700,60769,28,18;SOL_COMPUTED,NARROW_INT,0.5565,143.0458,27.6288,0.0000,0.4947,0.9061,"999",37,33,33,18,3,01,3,f3*91957e32
$GNGGA,015307.80,3039.26820032,N,12047.31978563,E,2,27,0.6,2.0228,M,9.8172,M,04,0*73
$GNRMC,015307.80,A,3039.26820032,N,12047.31978563,E,0.014,91.6,170120,5.8,W,D*05
#HEADINGA,COM2,0,50.0,FINE,2088,438805.800,60868,29,18;SOL_COMPUTED,NARROW_INT,0.5582,142.9540,27.1631,0.0000,0.4911,0.9059,"999",36,33,33,18,3,01,3,f3*4a58f372
$GNGGA,015307.90,3039.26820010,N,12047.31978596,E,2,27,0.6,2.0179,M,9.8172,M,04,0*7F
$GNRMC,015307.90,A,3039.26820010,N,12047.31978596,E,0.018,102.0,170120,5.8,W,D*3F
#HEADINGA,COM2,0,50.0,FINE,2088,438805.900,60968,28,18;SOL_COMPUTED,NARROW_INT,0.5566,142.9086,27.1009,0.0000,0.4921,0.9086,"999",36,33,33,18,3,01,3,f3*54ef1937
#REFSTATIONA,COM2,0,47.0,FINE,2088,438801.000,60270,803,18;00000000,-2811023.329,4717645.324,3233007.504,0,RTCMV3,"0000"*b609c793
$GNGGA,015308.00,3039.26820011,N,12047.31978544,E,2,27,0.6,2.0161,M,9.8172,M,05,0*7F
$GNRMC,015308.00,A,3039.26820011,N,12047.31978544,E,0.011,327.1,170120,5.8,W,D*3A
#HEADINGA,COM2,0,50.0,FINE,2088,438806.000,61069,34,18;SOL_COMPUTED,NARROW_INT,0.5543,142.8453,27.1353,0.0000,0.4943,0.9122,"999",36,33,33,17,3,01,3,f3*51676ac2
$GNGGA,015308.10,3039.26820015,N,12047.31978479,E,2,27,0.6,2.0142,M,9.8172,M,05,0*74
$GNRMC,015308.10,A,3039.26820015,N,12047.31978479,E,0.012,308.8,170120,5.8,W,D*37
#HEADINGA,COM2,0,50.0,FINE,2088,438806.100,61170,29,18;SOL_COMPUTED,NARROW_INT,0.5586,143.0297,27.9873,0.0000,0.4946,0.8995,"999",36,33,33,17,3,01,3,f3*2008b010
$GNGGA,015308.20,3039.26820013,N,12047.31978450,E,2,27,0.6,2.0123,M,9.8172,M,05,0*7D
$GNRMC,015308.20,A,3039.26820013,N,12047.31978450,E,0.006,25.0,170120,5.8,W,D*08
#HEADINGA,COM2,0,50.0,FINE,2088,438806.200,61270,31,18;SOL_COMPUTED,NARROW_INT,0.5544,142.9553,27.4640,0.0000,0.4959,0.9097,"999",36,33,33,17,3,01,3,f3*8e8c6102
$GNGGA,015308.30,3039.26820045,N,12047.31978469,E,2,27,0.6,2.0093,M,9.8172,M,04,0*7E
$GNRMC,015308.30,A,3039.26820045,N,12047.31978469,E,0.019,46.1,170120,5.8,W,D*0A
#HEADINGA,COM2,0,50.0,FINE,2088,438806.300,61369,32,18;SOL_COMPUTED,NARROW_INT,0.5506,142.5259,25.8653,0.0000,0.4923,0.9262,"999",36,33,33,17,3,01,3,f3*d5f90c24
$GNGGA,015308.40,3039.26820017,N,12047.31978503,E,2,27,0.6,2.0067,M,9.8172,M,04,0*78
$GNRMC,015308.40,A,3039.26820017,N,12047.31978503,E,0.019,110.5,170120,5.8,W,D*31
#HEADINGA,COM2,0,50.0,FINE,2088,438806.400,61469,29,18;SOL_COMPUTED,NARROW_INT,0.5534,142.8716,27.1205,0.0000,0.4950,0.9124,"999",36,33,33,17,3,01,3,f3*1e118f12
$GNGGA,015308.50,3039.26819971,N,12047.31978474,E,2,27,0.6,2.0045,M,9.8172,M,04,0*7B
$GNRMC,015308.50,A,3039.26819971,N,12047.31978474,E,0.012,184.7,170120,5.8,W,D*36
#HEADINGA,COM2,0,50.0,FINE,2088,438806.500,61569,29,18;SOL_COMPUTED,NARROW_INT,0.5559,142.8072,26.8745,0.0000,0.4912,0.9086,"999",36,33,33,17,3,01,3,f3*7bb75d87
$GNGGA,015308.60,3039.26819937,N,12047.31978454,E,2,27,0.6,2.0031,M,9.8172,M,04,0*7B
$GNRMC,015308.60,A,3039.26819937,N,12047.31978454,E,0.009,149.7,170120,5.8,W,D*3E
#HEADINGA,COM2,0,50.0,FINE,2088,438806.600,61669,29,18;SOL_COMPUTED,NARROW_INT,0.5595,143.1423,27.7212,0.0000,0.4918,0.8968,"999",36,33,33,17,3,01,3,f3*19fe0599
$GNGGA,015308.70,3039.26819928,N,12047.31978413,E,2,27,0.6,2.0013,M,9.8172,M,04,0*77
$GNRMC,015308.70,A,3039.26819928,N,12047.31978413,E,0.005,275.3,170120,5.8,W,D*36
#HEADINGA,COM2,0,50.0,FINE,2088,438806.700,61769,28,18;SOL_COMPUTED,NARROW_INT,0.5526,142.8316,26.4932,0.0000,0.4926,0.9164,"999",36,33,33,17,3,01,3,f3*f74366bb
$GNGGA,015308.80,3039.26819900,N,12047.31978396,E,2,27,0.6,1.9978,M,9.8172,M,04,0*76
$GNRMC,015308.80,A,3039.26819900,N,12047.31978396,E,0.004,202.6,170120,5.8,W,D*3D
#HEADINGA,COM2,0,50.0,FINE,2088,438806.800,61869,28,18;SOL_COMPUTED,NARROW_INT,0.5628,143.3781,28.1984,0.0000,0.4912,0.8884,"999",36,33,33,17,3,01,3,f3*66a1be9f
$GNGGA,015308.90,3039.26819893,N,12047.31978403,E,2,27,0.6,1.9924,M,9.8172,M,04,0*7E
$GNRMC,015308.90,A,3039.26819893,N,12047.31978403,E,0.007,64.1,170120,5.8,W,D*0A
#HEADINGA,COM2,0,50.0,FINE,2088,438806.900,61968,29,18;SOL_COMPUTED,NARROW_INT,0.5548,143.0003,27.4251,0.0000,0.4947,0.9068,"999",36,33,33,17,3,01,3,f3*8c76426a
#REFSTATIONA,COM2,0,50.0,FINE,2088,438802.000,61270,803,18;00000000,-2811023.329,4717645.324,3233007.504,0,RTCMV3,"0000"*b79afab2
$GNGGA,015309.00,3039.26819857,N,12047.31978409,E,2,27,0.6,1.9885,M,9.8172,M,05,0*7F
$GNRMC,015309.00,A,3039.26819857,N,12047.31978409,E,0.014,126.6,170120,5.8,W,D*32
#HEADINGA,COM2,0,50.0,FINE,2088,438807.000,62069,35,18;SOL_COMPUTED,NARROW_INT,0.5591,143.2304,27.3692,0.0000,0.4909,0.9006,"999",36,33,33,17,3,01,3,f3*1699eedb
$GNGGA,015309.10,3039.26819826,N,12047.31978409,E,2,27,0.6,1.9858,M,9.8172,M,05,0*78
$GNRMC,015309.10,A,3039.26819826,N,12047.31978409,E,0.012,124.6,170120,5.8,W,D*31
#HEADINGA,COM2,0,50.0,FINE,2088,438807.100,62169,29,18;SOL_COMPUTED,NARROW_INT,0.5530,142.7503,26.1876,0.0000,0.4908,0.9178,"999",36,33,33,17,3,01,3,f3*ed4a50ed
$GNGGA,015309.20,3039.26819809,N,12047.31978393,E,2,27,0.6,1.9833,M,9.8172,M,05,0*7F
$GNRMC,015309.20,A,3039.26819809,N,12047.31978393,E,0.010,192.5,170120,5.8,W,D*37
#HEADINGA,COM2,0,50.0,FINE,2088,438807.200,62270,30,18;SOL_COMPUTED,NARROW_INT,0.5538,142.7690,26.7985,0.0000,0.4927,0.9122,"999",36,33,33,17,3,01,3,f3*3f00338c
$GNGGA,015309.30,3039.26819859,N,12047.31978384,E,2,27,0.6,1.9807,M,9.8172,M,05,0*7A
$GNRMC,015309.30,A,3039.26819859,N,12047.31978384,E,0.015,358.5,170120,5.8,W,D*34
#HEADINGA,COM2,0,50.0,FINE,2088,438807.300,62369,29,18;SOL_COMPUTED,NARROW_INT,0.5587,143.2709,27.0907,0.0000,0.4895,0.9018,"999",36,33,33,18,3,01,3,f3*187a1e50
$GNGGA,015309.40,3039.26819913,N,12047.31978352,E,2,27,0.6,1.9780,M,9.8172,M,05,0*79
$GNRMC,015309.40,A,3039.26819913,N,12047.31978352,E,0.017,331.0,170120,5.8,W,D*3F
#HEADINGA,COM2,0,50.0,FINE,2088,438807.400,62469,28,18;SOL_COMPUTED,NARROW_INT,0.5529,142.8253,26.6754,0.0000,0.4928,0.9145,"999",36,33,33,18,3,01,3,f3*cf6dbddf
$GNGGA,015309.50,3039.26819924,N,12047.31978300,E,2,27,0.6,1.9758,M,9.8172,M,05,0*7E
$GNRMC,015309.50,A,3039.26819924,N,12047.31978300,E,0.014,279.4,170120,5.8,W,D*37
#HEADINGA,COM2,0,50.0,FINE,2088,438807.500,62569,29,18;SOL_COMPUTED,NARROW_INT,0.5551,143.0916,26.8412,0.0000,0.4922,0.9120,"999",36,33,33,18,3,01,3,f3*d268c879
$GNGGA,015309.60,3039.26819891,N,12047.31978290,E,2,27,0.6,1.9731,M,9.8172,M,05,0*75
$GNRMC,015309.60,A,3039.26819891,N,12047.31978290,E,0.015,201.1,170120,5.8,W,D*38
#HEADINGA,COM2,0,50.0,FINE,2088,438807.600,62669,29,18;SOL_COMPUTED,NARROW_INT,0.5594,143.4016,26.8905,0.0000,0.4885,0.9048,"999",36,33,33,18,3,01,3,f3*e16837fb
$GNGGA,015309.70,3039.26819845,N,12047.31978318,E,2,27,0.6,1.9705,M,9.8172,M,05,0*7B
$GNRMC,015309.70,A,3039.26819845,N,12047.31978318,E,0.020,162.7,170120,5.8,W,D*37
#HEADINGA,COM2,0,50.0,FINE,2088,438807.700,62769,29,18;SOL_COMPUTED,NARROW_INT,0.5578,142.9684,26.9744,0.0000,0.4903,0.9076,"999",36,33,33,18,3,01,3,f3*09bf0931
$GNGGA,015309.80,3039.26819817,N,12047.31978325,E,2,27,0.6,1.9679,M,9.8172,M,05,0*77
$GNRMC,015309.80,A,3039.26819817,N,12047.31978325,E,0.016,187.7,170120,5.8,W,D*3F
#HEADINGA,COM2,0,50.0,FINE,2088,438807.800,62869,28,18;SOL_COMPUTED,NARROW_INT,0.5582,143.1553,27.8379,0.0000,0.4936,0.9005,"999",36,33,33,18,3,01,3,f3*fb99f4d8
$GNGGA,015309.90,3039.26819835,N,12047.31978300,E,2,27,0.6,1.9657,M,9.8172,M,05,0*7D
$GNRMC,015309.90,A,3039.26819835,N,12047.31978300,E,0.006,304.8,170120,5.8,W,D*3E
#HEADINGA,COM2,0,50.0,FINE,2088,438807.900,62969,28,18;SOL_COMPUTED,NARROW_INT,0.5560,143.2484,27.4473,0.0000,0.4939,0.9070,"999",36,33,33,18,3,01,3,f3*cb3f4024
#REFSTATIONA,COM2,0,50.0,FINE,2088,438802.000,62270,803,18;00000000,-2811023.329,4717645.324,3233007.504,0,RTCMV3,"0000"*74bf18e1
$GNGGA,015310.00,3039.26819844,N,12047.31978274,E,2,27,0.6,1.9636,M,9.8172,M,06,0*7C
$GNRMC,015310.00,A,3039.26819844,N,12047.31978274,E,0.006,301.6,170120,5.8,W,D*30
#HEADINGA,COM2,0,50.0,FINE,2088,438808.000,63069,35,18;SOL_COMPUTED,NARROW_INT,0.5517,142.8747,26.1712,0.0000,0.4922,0.9227,"999",36,33,33,18,3,01,3,f3*744e2b51
$GNGGA,015310.10,3039.26819815,N,12047.31978296,E,2,27,0.6,1.9635,M,9.8172,M,06,0*76
$GNRMC,015310.10,A,3039.26819815,N,12047.31978296,E,0.015,123.1,170120,5.8,W,D*3E
#HEADINGA,COM2,0,50.0,FINE,2088,438808.100,63169,29,18;SOL_COMPUTED,NARROW_INT,0.5541,143.3403,27.7300,0.0000,0.4969,0.9082,"999",36,33,33,18,3,01,3,f3*c67c2570
$GNGGA,015310.20,3039.26819805,N,12047.31978291,E,2,27,0.6,1.9633,M,9.8172,M,06,0*75
$GNRMC,015310.20,A,3039.26819805,N,12047.31978291,E,0.005,142.4,170120,5.8,W,D*38
#HEADINGA,COM2,0,50.0,FINE,2088,438808.200,63271,30,18;SOL_COMPUTED,NARROW_INT,0.5567,143.2620,26.8354,0.0000,0.4905,0.9096,"999",36,33,33,18,3,01,3,f3*3972dc66
$GNGGA,015310.30,3039.26819802,N,12047.31978269,E,2,27,0.6,1.9623,M,9.8172,M,05,0*76
$GNRMC,015310.30,A,3039.26819802,N,12047.31978269,E,0.010,226.8,170120,5.8,W,D*30
#HEADINGA,COM2,0,50.0,FINE,2088,438808.300,63369,31,18;SOL_COMPUTED,NARROW_INT,0.5565,143.5130,27.7434,0.0000,0.4947,0.9038,"999",36,33,33,18,3,01,3,f3*6025ba1f
$GNGGA,015310.40,3039.26819838,N,12047.31978284,E,2,27,0.6,1.9588,M,9.8172,M,05,0*79
$GNRMC,015310.40,A,3039.26819838,N,12047.31978284,E,0.006,25.5,170120,5.8,W,D*06
#HEADINGA,COM2,0,50.0,FINE,2088,438808.400,63469,29,18;SOL_COMPUTED,NARROW_INT,0.5534,143.1834,26.7665,0.0000,0.4931,0.9156,"999",36,33,33,18,3,01,3,f3*536a2b73
$GNGGA,015310.50,3039.26819884,N,12047.31978262,E,2,27,0.6,1.9569,M,9.8172,M,05,0*78
$GNRMC,015310.50,A,3039.26819884,N,12047.31978262,E,0.011,348.4,170120,5.8,W,D*37
#HEADINGA,COM2,0,50.0,FINE,2088,438808.500,63569,29,18;SOL_COMPUTED,NARROW_INT,0.5599,143.6774,27.7632,0.0000,0.4917,0.8974,"999",36,33,33,18,3,01,3,f3*7956fa43
$GNGGA,015310.60,3039.26819899,N,12047.31978264,E,2,27,0.6,1.9539,M,9.8172,M,05,0*74
$GNRMC,015310.60,A,3039.26819899,N,12047.31978264,E,0.005,56.8,170120,5.8,W,D*0B
#HEADINGA,COM2,0,50.0,FINE,2088,438808.600,63669,29,18;SOL_COMPUTED,NARROW_INT,0.5516,143.1688,26.6016,0.0000,0.4939,0.9191,"999",36,33,33,18,3,01,3,f3*b3817f81
$GNGGA,015310.70,3039.26819886,N,12047.31978265,E,2,27,0.6,1.9514,M,9.8172,M,05,0*75
$GNRMC,015310.70,A,3039.26819886,N,12047.31978265,E,0.008,147.0,170120,5.8,W,D*31
#HEADINGA,COM2,0,50.0,FINE,2088,438808.700,63769,28,18;SOL_COMPUTED,NARROW_INT,0.5525,143.1428,26.6605,0.0000,0.4933,0.9178,"999",36,33,33,18,3,01,3,f3*30274a0a
$GNGGA,015310.80,3039.26819876,N,12047.31978241,E,2,27,0.6,1.9494,M,9.8172,M,05,0*7A
$GNRMC,015310.80,A,3039.26819876,N,12047.31978241,E,0.008,194.7,170120,5.8,W,D*3E
#HEADINGA,COM2,0,48.0,FINE,2088,438808.800,63869,28,18;SOL_COMPUTED,NARROW_INT,0.5519,143.3569,26.5370,0.0000,0.4933,0.9184,"999",36,33,33,18,3,01,3,f3*1d7abf47
$GNGGA,015310.90,3039.26819884,N,12047.31978239,E,2,27,0.6,1.9466,M,9.8172,M,05,0*74
$GNRMC,015310.90,A,3039.26819884,N,12047.31978239,E,0.003,97.6,170120,5.8,W,D*05
#HEADINGA,COM2,0,48.0,FINE,2088,438808.900,63968,28,18;SOL_COMPUTED,NARROW_INT,0.5557,143.6268,26.8828,0.0000,0.4917,0.9107,"999",36,33,33,18,3,01,3,f3*b8ad243d
#REFSTATIONA,COM2,0,50.0,FINE,2088,438803.000,63271,802,18;00000000,-2811023.329,4717645.324,3233007.504,0,RTCMV3,"0000"*8fdb498e
$GNGGA,015311.00,3039.26819871,N,12047.31978239,E,2,27,0.6,1.9434,M,9.8172,M,06,0*72
$GNRMC,015311.00,A,3039.26819871,N,12047.31978239,E,0.008,161.8,170120,5.8,W,D*3A
#HEADINGA,COM2,0,48.0,FINE,2088,438809.000,64069,35,18;SOL_COMPUTED,NARROW_INT,0.5579,143.6342,27.6251,0.0000,0.4928,0.9016,"999",36,33,33,18,3,01,3,f3*a4f38e4d
$GNGGA,015311.10,3039.26819856,N,12047.31978188,E,2,27,0.6,1.9401,M,9.8172,M,06,0*79
$GNRMC,015311.10,A,3039.26819856,N,12047.31978188,E,0.016,216.5,170120,5.8,W,D*36
#HEADINGA,COM2,0,48.0,FINE,2088,438809.100,64169,29,18;SOL_COMPUTED,NARROW_INT,0.5542,143.0436,26.7039,0.0000,0.4922,0.9148,"999",36,33,33,18,3,01,3,f3*d8b75205
$GNGGA,015311.20,3039.26819861,N,12047.31978093,E,2,27,0.6,1.9363,M,9.8172,M,06,0*76
$GNRMC,015311.20,A,3039.26819861,N,12047.31978093,E,0.025,253.3,170120,5.8,W,D*3D
#HEADINGA,COM2,0,48.0,FINE,2088,438809.200,64270,31,18;SOL_COMPUTED,NARROW_INT,0.5535,143.1020,27.4558,0.0000,0.4958,0.9106,"999",36,33,33,18,3,01,3,f3*35ddc88a
$GNGGA,015311.30,3039.26819981,N,12047.31977977,E,2,27,0.6,1.9327,M,9.8172,M,03,0*71
$GNRMC,015311.30,A,3039.26819981,N,12047.31977977,E,0.017,257.6,170120,5.8,W,D*3F
#HEADINGA,COM2,0,48.0,FINE,2088,438809.300,64369,33,18;SOL_COMPUTED,NARROW_INT,0.5551,143.0718,26.6946,0.0000,0.3973,0.9450,"999",36,33,33,17,3,01,3,f3*ff468ff5
$GNGGA,015311.40,3039.26820100,N,12047.31977900,E,2,27,0.6,1.9276,M,9.8172,M,03,0*78
$GNRMC,015311.40,A,3039.26820100,N,12047.31977900,E,0.010,243.8,170120,5.8,W,D*3F
#HEADINGA,COM2,0,48.0,FINE,2088,438809.400,64469,29,18;SOL_COMPUTED,NARROW_INT,0.5592,143.1962,27.2619,0.0000,0.3964,0.9338,"999",36,33,33,17,3,01,3,f3*eda35aba
$GNGGA,015311.50,3039.26820177,N,12047.31977832,E,2,27,0.6,1.9214,M,9.8172,M,03,0*7D
$GNRMC,015311.50,A,3039.26820177,N,12047.31977832,E,0.012,202.5,170120,5.8,W,D*34
#HEADINGA,COM2,0,48.0,FINE,2088,438809.500,64569,29,18;SOL_COMPUTED,NARROW_INT,0.5558,143.2486,26.8219,0.0000,0.3974,0.9442,"999",36,33,33,17,3,01,3,f3*0beb867c
$GNGGA,015311.60,3039.26820236,N,12047.31977771,E,2,27,0.6,1.9153,M,9.8172,M,03,0*70
$GNRMC,015311.60,A,3039.26820236,N,12047.31977771,E,0.017,186.4,170120,5.8,W,D*32
#HEADINGA,COM2,0,48.0,FINE,2088,438809.600,64669,29,18;SOL_COMPUTED,NARROW_INT,0.5597,143.0562,27.5468,0.0000,0.3970,0.9307,"999",36,33,33,17,3,01,3,f3*f5e45205
$GNGGA,015311.70,3039.26820314,N,12047.31977665,E,2,27,0.6,1.9089,M,9.8172,M,03,0*72
$GNRMC,015311.70,A,3039.26820314,N,12047.31977665,E,0.019,220.4,170120,5.8,W,D*37
#HEADINGA,COM2,0,48.0,FINE,2088,438809.700,64769,29,18;SOL_COMPUTED,NARROW_INT,0.5571,142.9020,27.1262,0.0000,0.3975,0.9379,"999",36,33,33,17,3,01,3,f3*7fb00d55
$GNGGA,015311.80,3039.26820412,N,12047.31977589,E,2,27,0.6,1.9051,M,9.8172,M,03,0*78
$GNRMC,015311.80,A,3039.26820412,N,12047.31977589,E,0.007,192.0,170120,5.8,W,D*39
#HEADINGA,COM2,0,48.0,FINE,2088,438809.800,64869,29,18;SOL_COMPUTED,NARROW_INT,0.5628,143.1301,27.7875,0.0000,0.3954,0.9228,"999",36,33,33,17,3,01,3,f3*5a0e5556
$GNGGA,015311.90,3039.26820524,N,12047.31977526,E,2,27,0.6,1.9023,M,9.8172,M,03,0*7D
$GNRMC,015311.90,A,3039.26820524,N,12047.31977526,E,0.001,132.5,170120,5.8,W,D*30
#HEADINGA,COM2,0,48.0,FINE,2088,438809.900,64969,28,18;SOL_COMPUTED,NARROW_INT,0.5610,143.2390,27.8795,0.0000,0.3968,0.9249,"999",36,33,33,17,3,01,3,f3*c1f455cd
#REFSTATIONA,COM2,0,48.0,FINE,2088,438806.000,64270,803,18;00000000,-2811023.329,4717645.324,3233007.504,0,RTCMV3,"0000"*ea686bdb
$GNGGA,015312.00,3039.26820614,N,12047.31977454,E,2,27,0.6,1.9006,M,9.8172,M,04,0*73
$GNRMC,015312.00,A,3039.26820614,N,12047.31977454,E,0.008,214.3,170120,5.8,W,D*36
#HEADINGA,COM2,0,48.0,FINE,2088,438810.000,65069,36,18;SOL_COMPUTED,NARROW_INT,0.5600,142.9970,27.6072,0.0000,0.3968,0.9305,"999",36,33,33,17,3,01,3,f3*05c586ba
$GNGGA,015312.10,3039.26820668,N,12047.31977383,E,2,27,0.6,1.8977,M,9.8172,M,04,0*7A
$GNRMC,015312.10,A,3039.26820668,N,12047.31977383,E,0.021,202.7,170120,5.8,W,D*39
#HEADINGA,COM2,0,48.0,FINE,2088,438810.100,65169,30,18;SOL_COMPUTED,NARROW_INT,0.5582,143.1042,27.7600,0.0000,0.3985,0.9322,"999",36,33,33,17,3,01,3,f3*04b1d925
$GNGGA,015312.20,3039.26820708,N,12047.31977316,E,2,27,0.6,1.8931,M,9.8172,M,04,0*70
$GNRMC,015312.20,A,3039.26820708,N,12047.31977316,E,0.025,196.7,170120,5.8,W,D*3B
#HEADINGA,COM2,0,48.0,FINE,2088,438810.200,65271,30,18;SOL_COMPUTED,NARROW_INT,0.5586,143.0423,27.5080,0.0000,0.3974,0.9321,"999",36,33,33,17,3,01,3,f3*4f0b0946
$GNGGA,015312.30,3039.26820793,N,12047.31977294,E,2,27,0.6,1.8867,M,9.8172,M,04,0*7A
$GNRMC,015312.30,A,3039.26820793,N,12047.31977294,E,0.011,131.3,170120,5.8,W,D*3D
#HEADINGA,COM2,0,48.0,FINE,2088,438810.300,65369,29,18;SOL_COMPUTED,NARROW_INT,0.5565,142.9344,27.1269,0.0000,0.3977,0.9388,"999",36,33,33,17,3,01,3,f3*cb75de94
$GNGGA,015312.40,3039.26820914,N,12047.31977303,E,2,27,0.6,1.8821,M,9.8172,M,04,0*71
$GNRMC,015312.40,A,3039.26820914,N,12047.31977303,E,0.022,71.0,170120,5.8,W,D*02
#HEADINGA,COM2,0,48.0,FINE,2088,438810.400,65469,28,18;SOL_COMPUTED,NARROW_INT,0.5558,143.0578,27.4773,0.0000,0.3993,0.9370,"999",36,33,33,17,3,01,3,f3*9e74a50c
$GNGGA,015312.50,3039.26821014,N,12047.31977281,E,2,27,0.6,1.8781,M,9.8172,M,04,0*76
$GNRMC,015312.50,A,3039.26821014,N,12047.31977281,E,0.017,53.7,170120,5.8,W,D*01
#HEADINGA,COM2,0,48.0,FINE,2088,438810.500,65569,29,18;SOL_COMPUTED,NARROW_INT,0.5570,143.1303,27.0450,0.0000,0.3974,0.9393,"999",36,33,33,17,3,01,3,f3*07e179ea
$GNGGA,015312.60,3039.26821108,N,12047.31977212,E,2,27,0.6,1.8747,M,9.8172,M,04,0*79
$GNRMC,015312.60,A,3039.26821108,N,12047.31977212,E,0.009,346.7,170120,5.8,W,D*3C
#HEADINGA,COM2,0,48.0,FINE,2088,438810.600,65669,28,18;SOL_COMPUTED,NARROW_INT,0.5539,142.8025,26.8000,0.0000,0.3992,0.9466,"999",36,33,33,17,3,01,3,f3*05f69b39
$GNGGA,015312.70,3039.26821161,N,12047.31977184,E,2,27,0.6,1.8715,M,9.8172,M,04,0*7C
$GNRMC,015312.70,A,3039.26821161,N,12047.31977184,E,0.009,70.9,170120,5.8,W,D*06
#HEADINGA,COM2,0,48.0,FINE,2088,438810.700,65769,29,18;SOL_COMPUTED,NARROW_INT,0.5551,142.9881,27.1587,0.0000,0.3993,0.9416,"999",36,33,33,17,3,01,3,f3*5920f73c
$GNGGA,015312.80,3039.26821178,N,12047.31977119,E,2,27,0.6,1.8674,M,9.8172,M,04,0*79
$GNRMC,015312.80,A,3039.26821178,N,12047.31977119,E,0.012,210.1,170120,5.8,W,D*33
#HEADINGA,COM2,0,48.0,FINE,2088,438810.800,65869,28,18;SOL_COMPUTED,NARROW_INT,0.5581,143.0048,27.2009,0.0000,0.3973,0.9370,"999",36,33,33,17,3,01,3,f3*03f41487
$GNGGA,015312.90,3039.26821211,N,12047.31977015,E,2,27,0.6,1.8651,M,9.8172,M,04,0*7E
$GNRMC,015312.90,A,3039.26821211,N,12047.31977015,E,0.002,161.4,170120,5.8,W,D*32
#HEADINGA,COM2,0,48.0,FINE,2088,438810.900,65969,28,18;SOL_COMPUTED,NARROW_INT,0.5550,142.9419,26.5330,0.0000,0.3974,0.9477,"999",36,33,33,17,3,01,3,f3*893d1e9f
#REFSTATIONA,COM2,0,48.0,FINE,2088,438806.000,65271,802,18;00000000,-2811023.329,4717645.324,3233007.504,0,RTCMV3,"0000"*0d2ba2a1
$GNGGA,015313.00,3039.26821229,N,12047.31976935,E,2,27,0.6,1.8617,M,9.8172,M,05,0*74
$GNRMC,015313.00,A,3039.26821229,N,12047.31976935,E,0.008,145.1,170120,5.8,W,D*32
#HEADINGA,COM2,0,48.0,FINE,2088,438811.000,66069,35,18;SOL_COMPUTED,NARROW_INT,0.5551,143.0770,27.0193,0.0000,0.3986,0.9426,"999",36,33,33,17,3,01,3,f3*9e97f9c7
$GNGGA,015313.10,3039.26821226,N,12047.31976857,E,2,27,0.6,1.8582,M,9.8172,M,05,0*70
$GNRMC,015313.10,A,3039.26821226,N,12047.31976857,E,0.015,161.3,170120,5.8,W,D*31
#HEADINGA,COM2,0,48.0,FINE,2088,438811.100,66169,29,18;SOL_COMPUTED,NARROW_INT,0.5566,143.2810,27.2368,0.0000,0.3980,0.9382,"999",36,33,33,17,3,01,3,f3*0e318955
$GNGGA,015313.20,3039.26821239,N,12047.31976778,E,2,27,0.6,1.8565,M,9.8172,M,05,0*76
$GNRMC,015313.20,A,3039.26821239,N,12047.31976778,E,0.011,137.5,170120,5.8,W,D*3F
#HEADINGA,COM2,0,48.0,FINE,2088,438811.200,66270,30,18;SOL_COMPUTED,NARROW_INT,0.5557,143.0168,26.8707,0.0000,0.3977,0.9430,"999",36,33,33,17,3,01,3,f3*264f4567
$GNGGA,015313.30,3039.26821265,N,12047.31976675,E,2,27,0.6,1.8536,M,9.8172,M,04,0*75
$GNRMC,015313.30,A,3039.26821265,N,12047.31976675,E,0.011,222.5,170120,5.8,W,D*3C
#HEADINGA,COM2,0,48.0,FINE,2088,438811.300,66369,31,18;SOL_COMPUTED,NARROW_INT,0.5594,143.3354,27.7790,0.0000,0.3982,0.9283,"999",36,33,33,17,3,01,3,f3*06f2ddd6
$GNGGA,015313.40,3039.26821291,N,12047.31976576,E,2,27,0.6,1.8515,M,9.8172,M,04,0*78
$GNRMC,015313.40,A,3039.26821291,N,12047.31976576,E,0.006,209.1,170120,5.8,W,D*3B
#HEADINGA,COM2,0,48.0,FINE,2088,438811.400,66469,29,18;SOL_COMPUTED,NARROW_INT,0.5531,142.9638,26.8823,0.0000,0.4001,0.9466,"999",36,33,33,17,3,01,3,f3*9a60f986
$GNGGA,015313.50,3039.26821258,N,12047.31976465,E,2,27,0.6,1.8503,M,9.8172,M,04,0*78
$GNRMC,015313.50,A,3039.26821258,N,12047.31976465,E,0.026,196.4,170120,5.8,W,D*3E
#HEADINGA,COM2,0,48.0,FINE,2088,438811.500,66569,29,18;SOL_COMPUTED,NARROW_INT,0.5541,142.9114,26.6278,0.0000,0.3990,0.9494,"999",36,33,33,17,3,01,3,f3*fe720030
$GNGGA,015313.60,3039.26821270,N,12047.31976399,E,2,27,0.6,1.8464,M,9.8172,M,04,0*75
$GNRMC,015313.60,A,3039.26821270,N,12047.31976399,E,0.012,174.0,170120,5.9,W,D*3D
#HEADINGA,COM2,0,48.0,FINE,2088,438811.600,66669,29,18;SOL_COMPUTED,NARROW_INT,0.5580,143.2223,27.5529,0.0000,0.3989,0.9341,"999",36,33,33,17,3,01,3,f3*c5f72b4d
$GNGGA,015313.70,3039.26821303,N,12047.31976331,E,2,27,0.6,1.8428,M,9.8172,M,04,0*7B
$GNRMC,015313.70,A,3039.26821303,N,12047.31976331,E,0.006,129.1,170120,5.9,W,D*37
#HEADINGA,COM2,0,48.0,FINE,2088,438811.700,66769,28,18;SOL_COMPUTED,NARROW_INT,0.5578,143.0747,27.3646,0.0000,0.3988,0.9364,"999",36,33,33,17,3,01,3,f3*8b26aeee
$GNGGA,015313.80,3039.26821347,N,12047.31976268,E,2,27,0.6,1.8392,M,9.8172,M,04,0*7F
$GNRMC,015313.80,A,3039.26821347,N,12047.31976268,E,0.005,77.8,170120,5.9,W,D*05
#HEADINGA,COM2,0,43.0,FINE,2088,438811.800,66869,28,18;SOL_COMPUTED,NARROW_INT,0.5554,142.9933,27.0244,0.0000,0.3990,0.9430,"999",36,33,33,17,3,01,3,f3*0786ce5b
$GNGGA,015313.90,3039.26821363,N,12047.31976200,E,2,27,0.6,1.8369,M,9.8172,M,04,0*72
$GNRMC,015313.90,A,3039.26821363,N,12047.31976200,E,0.015,141.6,170120,5.9,W,D*37
#HEADINGA,COM2,0,43.0,FINE,2088,438811.900,66969,28,18;SOL_COMPUTED,NARROW_INT,0.5577,143.0547,27.4016,0.0000,0.3990,0.9362,"999",36,33,33,17,3,01,3,f3*aa6ce351
#REFSTATIONA,COM2,0,48.0,FINE,2088,438807.000,66270,803,18;00000000,-2811023.329,4717645.324,3233007.504,0,RTCMV3,"0000"*c2a64d93
$GNGGA,015314.00,3039.26821421,N,12047.31976113,E,2,27,0.6,1.8340,M,9.8172,M,05,0*76
$GNRMC,015314.00,A,3039.26821421,N,12047.31976113,E,0.001,258.2,170120,5.9,W,D*33
#HEADINGA,COM2,0,43.0,FINE,2088,438812.000,67069,35,18;SOL_COMPUTED,NARROW_INT,0.5605,143.1031,28.0285,0.0000,0.3993,0.9265,"999",36,33,33,17,3,01,3,f3*b07a887b
$GNGGA,015314.10,3039.26821412,N,12047.31976018,E,2,27,0.6,1.8318,M,9.8172,M,05,0*70
$GNRMC,015314.10,A,3039.26821412,N,12047.31976018,E,0.019,205.0,170120,5.9,W,D*3B
#HEADINGA,COM2,0,43.0,FINE,2088,438812.100,67170,29,18;SOL_COMPUTED,NARROW_INT,0.5592,143.2078,27.8357,0.0000,0.3989,0.9310,"999",36,33,33,17,3,01,3,f3*2a65fc47
$GNGGA,015314.20,3039.26821419,N,12047.31975902,E,2,27,0.6,1.8283,M,9.8172,M,05,0*7A
$GNRMC,015314.20,A,3039.26821419,N,12047.31975902,E,0.022,233.3,170120,5.9,W,D*3C
#HEADINGA,COM2,0,43.0,FINE,2088,438812.200,67272,30,18;SOL_COMPUTED,NARROW_INT,0.5556,143.1505,26.9331,0.0000,0.3982,0.9434,"999",36,33,33,17,3,01,3,f3*48e16680
$GNGGA,015314.30,3039.26821555,N,12047.31975770,E,2,27,0.6,1.8269,M,9.8172,M,04,0*7C
$GNRMC,015314.30,A,3039.26821555,N,12047.31975770,E,0.014,237.1,170120,5.9,W,D*3C
#HEADINGA,COM2,0,43.0,FINE,2088,438812.300,67369,32,18;SOL_COMPUTED,NARROW_INT,0.5516,142.9843,26.7563,0.0000,0.4007,0.9518,"999",36,33,33,17,3,01,3,f3*c9dfa1c0
$GNGGA,015314.40,3039.26821710,N,12047.31975685,E,2,27,0.6,1.8237,M,9.8172,M,04,0*78
$GNRMC,015314.40,A,3039.26821710,N,12047.31975685,E,0.003,283.4,170120,5.9,W,D*3F
#HEADINGA,COM2,0,43.0,FINE,2088,438812.400,67469,29,18;SOL_COMPUTED,NARROW_INT,0.5582,143.3045,27.3273,0.0000,0.3975,0.9348,"999",36,33,33,17,3,01,3,f3*7b31932b
$GNGGA,015314.50,3039.26821837,N,12047.31975588,E,2,27,0.6,1.8217,M,9.8172,M,04,0*7F
$GNRMC,015314.50,A,3039.26821837,N,12047.31975588,E,0.009,250.8,170120,5.9,W,D*32
#HEADINGA,COM2,0,43.0,FINE,2088,438812.500,67569,29,18;SOL_COMPUTED,NARROW_INT,0.5589,143.1546,27.7020,0.0000,0.3993,0.9334,"999",36,33,33,17,3,01,3,f3*a9f0c7f7
$GNGGA,015314.60,3039.26821958,N,12047.31975528,E,2,27,0.6,1.8198,M,9.8172,M,04,0*7A
$GNRMC,015314.60,A,3039.26821958,N,12047.31975528,E,0.003,140.4,170120,5.9,W,D*37
#HEADINGA,COM2,0,43.0,FINE,2088,438812.600,67669,28,18;SOL_COMPUTED,NARROW_INT,0.5566,142.9288,27.3722,0.0000,0.4001,0.9402,"999",36,33,33,17,3,01,3,f3*fb8bb84e
$GNGGA,015314.70,3039.26822080,N,12047.31975459,E,2,27,0.6,1.8169,M,9.8172,M,04,0*7D
$GNRMC,015314.70,A,3039.26822080,N,12047.31975459,E,0.004,240.8,170120,5.9,W,D*36
#HEADINGA,COM2,0,43.0,FINE,2088,438812.700,67769,29,18;SOL_COMPUTED,NARROW_INT,0.5554,143.0505,26.9061,0.0000,0.3991,0.9474,"999",36,33,33,17,3,01,3,f3*abefef02
$GNGGA,015314.80,3039.26822177,N,12047.31975366,E,2,27,0.6,1.8141,M,9.8172,M,04,0*7A
$GNRMC,015314.80,A,3039.26822177,N,12047.31975366,E,0.013,225.8,170120,5.9,W,D*3E
#HEADINGA,COM2,0,43.0,FINE,2088,438812.800,67869,28,18;SOL_COMPUTED,NARROW_INT,0.5562,142.9580,27.0221,0.0000,0.3991,0.9451,"999",36,33,33,17,3,01,3,f3*476a341c
$GNGGA,015314.90,3039.26822282,N,12047.31975292,E,2,27,0.6,1.8122,M,9.8172,M,04,0*7D
$GNRMC,015314.90,A,3039.26822282,N,12047.31975292,E,0.005,204.2,170120,5.9,W,D*32
#HEADINGA,COM2,0,43.0,FINE,2088,438812.900,67969,28,18;SOL_COMPUTED,NARROW_INT,0.5585,143.3225,27.5995,0.0000,0.3985,0.9361,"999",36,33,33,17,3,01,3,f3*a1c1d729
#REFSTATIONA,COM2,0,43.0,FINE,2088,438808.000,67272,801,18;00000000,-2811023.329,4717645.324,3233007.504,0,RTCMV3,"0000"*a38d20a5
$GNGGA,015315.00,3039.26822365,N,12047.31975185,E,2,27,0.6,1.8099,M,9.8172,M,05,0*78
$GNRMC,015315.00,A,3039.26822365,N,12047.31975185,E,0.019,235.1,170120,5.9,W,D*3B
#HEADINGA,COM2,0,43.0,FINE,2088,438813.000,68069,34,18;SOL_COMPUTED,NARROW_INT,0.5580,143.1423,27.5161,0.0000,0.3988,0.9378,"999",36,33,33,17,3,01,3,f3*2d62358d
$GNGGA,015315.10,3039.26822454,N,12047.31975112,E,2,27,0.6,1.8080,M,9.8172,M,05,0*7A
$GNRMC,015315.10,A,3039.26822454,N,12047.31975112,E,0.009,211.0,170120,5.9,W,D*37
#HEADINGA,COM2,0,43.0,FINE,2088,438813.100,68169,29,18;SOL_COMPUTED,NARROW_INT,0.5539,143.1357,26.9472,0.0000,0.3999,0.9501,"999",36,33,33,17,3,01,3,f3*0e339785
$GNGGA,015315.20,3039.26822536,N,12047.31975043,E,2,27,0.6,1.8058,M,9.8172,M,05,0*7C
$GNRMC,015315.20,A,3039.26822536,N,12047.31975043,E,0.010,205.9,170120,5.9,W,D*30
#HEADINGA,COM2,0,43.0,FINE,2088,438813.200,68270,30,18;SOL_COMPUTED,NARROW_INT,0.5582,143.1083,27.5090,0.0000,0.3989,0.9384,"999",36,33,33,17,3,01,3,f3*ccfd5d71
$GNGGA,015315.30,3039.26822656,N,12047.31974983,E,2,27,0.6,1.8034,M,9.8172,M,05,0*76
$GNRMC,015315.30,A,3039.26822656,N,12047.31974983,E,0.006,341.7,170120,5.9,W,D*38
#HEADINGA,COM2,0,43.0,FINE,2088,438813.300,68368,29,18;SOL_COMPUTED,NARROW_INT,0.5585,143.1907,27.7819,0.0000,0.4000,0.9362,"999",36,33,33,17,3,01,3,f3*1c71f772
$GNGGA,015315.40,3039.26822760,N,12047.31974904,E,2,27,0.6,1.8005,M,9.8172,M,05,0*78
$GNRMC,015315.40,A,3039.26822760,N,12047.31974904,E,0.009,278.5,170120,5.9,W,D*32
#HEADINGA,COM2,0,43.0,FINE,2088,438813.400,68469,29,18;SOL_COMPUTED,NARROW_INT,0.5587,142.9382,27.4724,0.0000,0.3986,0.9380,"999",36,33,33,17,3,01,3,f3*7d3e3359
$GNGGA,015315.50,3039.26822849,N,12047.31974796,E,2,27,0.6,1.7967,M,9.8172,M,05,0*7A
$GNRMC,015315.50,A,3039.26822849,N,12047.31974796,E,0.018,245.3,170120,5.9,W,D*3A
#HEADINGA,COM2,0,43.0,FINE,2088,438813.500,68568,29,18;SOL_COMPUTED,NARROW_INT,0.5586,143.1876,27.7209,0.0000,0.3998,0.9367,"999",36,33,33,17,3,01,3,f3*b80108c3
$GNGGA,015315.60,3039.26822910,N,12047.31974738,E,2,27,0.6,1.7955,M,9.8172,M,05,0*71
$GNRMC,015315.60,A,3039.26822910,N,12047.31974738,E,0.011,182.4,170120,5.9,W,D*36
#HEADINGA,COM2,0,43.0,FINE,2088,438813.600,68668,29,18;SOL_COMPUTED,NARROW_INT,0.5560,143.1725,27.7899,0.0000,0.4020,0.9406,"999",35,33,33,17,3,01,3,f3*5cfeaea1
$GNGGA,015315.70,3039.26822971,N,12047.31974669,E,2,27,0.6,1.7951,M,9.8172,M,05,0*76
$GNRMC,015315.70,A,3039.26822971,N,12047.31974669,E,0.014,207.9,170120,5.9,W,D*33
#HEADINGA,COM2,0,43.0,FINE,2088,438813.700,68768,29,18;SOL_COMPUTED,NARROW_INT,0.5547,143.0485,27.0746,0.0000,0.4005,0.9487,"999",35,33,33,17,3,01,3,f3*c6aaeff5
$GNGGA,015315.80,3039.26823034,N,12047.31974647,E,2,27,0.6,1.7920,M,9.8172,M,05,0*7A
$GNRMC,015315.80,A,3039.26823034,N,12047.31974647,E,0.013,174.7,170120,5.9,W,D*37
#HEADINGA,COM2,0,43.0,FINE,2088,438813.800,68868,29,18;SOL_COMPUTED,NARROW_INT,0.5554,143.2088,27.4397,0.0000,0.4010,0.9443,"999",35,33,33,17,3,01,3,f3*aa398b25
$GNGGA,015315.90,3039.26823091,N,12047.31974621,E,2,27,0.6,1.7900,M,9.8172,M,05,0*76
$GNRMC,015315.90,A,3039.26823091,N,12047.31974621,E,0.013,165.7,170120,5.9,W,D*39
#HEADINGA,COM2,0,43.0,FINE,2088,438813.900,68968,28,18;SOL_COMPUTED,NARROW_INT,0.5518,142.8599,27.0138,0.0000,0.4026,0.9542,"999",35,33,33,17,3,01,3,f3*318f5afa
#REFSTATIONA,COM2,0,43.0,FINE,2088,438808.000,67272,1800,18;00000000,-2811023.329,4717645.324,3233007.504,0,RTCMV3,"0000"*58260a18
$GNGGA,015316.00,3039.26823121,N,12047.31974560,E,2,27,0.6,1.7873,M,9.8172,M,06,0*76
$GNRMC,015316.00,A,3039.26823121,N,12047.31974560,E,0.024,205.3,170120,5.9,W,D*3A
#HEADINGA,COM2,0,43.0,FINE,2088,438814.000,69068,35,18;SOL_COMPUTED,NARROW_INT,0.5535,142.8178,26.8840,0.0000,0.4011,0.9526,"999",35,33,33,17,3,01,3,f3*d00cc061
$GNGGA,015316.10,3039.26823195,N,12047.31974456,E,2,27,0.6,1.7841,M,9.8172,M,06,0*7D
$GNRMC,015316.10,A,3039.26823195,N,12047.31974456,E,0.025,253.5,170120,5.9,W,D*34
#HEADINGA,COM2,0,43.0,FINE,2088,438814.100,69168,30,18;SOL_COMPUTED,NARROW_INT,0.5560,142.8095,27.3408,0.0000,0.4009,0.9447,"999",35,33,33,17,3,01,3,f3*b81c4c34
$GNGGA,015316.20,3039.26823286,N,12047.31974414,E,2,27,0.6,1.7831,M,9.8172,M,06,0*7E
$GNRMC,015316.20,A,3039.26823286,N,12047.31974414,E,0.008,53.4,170120,5.9,W,D*0C
#HEADINGA,COM2,0,43.0,FINE,2088,438814.200,69269,30,18;SOL_COMPUTED,NARROW_INT,0.5537,142.6206,26.6846,0.0000,0.4004,0.9533,"999",35,33,33,17,3,01,3,f3*c13b37db
$GNGGA,015316.30,3039.26823367,N,12047.31974366,E,2,27,0.6,1.7815,M,9.8172,M,05,0*76
$GNRMC,015316.30,A,3039.26823367,N,12047.31974366,E,0.006,208.8,170120,5.9,W,D*3F
#HEADINGA,COM2,0,43.0,FINE,2088,438814.300,69368,31,18;SOL_COMPUTED,NARROW_INT,0.5611,143.1801,27.7970,0.0000,0.3981,0.9312,"999",35,33,33,17,3,01,3,f3*d44c0e78
$GNGGA,015316.40,3039.26823411,N,12047.31974267,E,2,27,0.6,1.7771,M,9.8172,M,05,0*7A
$GNRMC,015316.40,A,3039.26823411,N,12047.31974267,E,0.030,219.8,170120,5.9,W,D*3B
#HEADINGA,COM2,0,43.0,FINE,2088,438814.400,69468,29,18;SOL_COMPUTED,NARROW_INT,0.5570,143.0762,27.2838,0.0000,0.3994,0.9431,"999",35,33,33,17,3,01,3,f3*024da0cb
$GNGGA,015316.50,3039.26823426,N,12047.31974120,E,2,27,0.6,1.7711,M,9.8172,M,05,0*79
$GNRMC,015316.50,A,3039.26823426,N,12047.31974120,E,0.044,232.1,170120,5.9,W,D*3D
#HEADINGA,COM2,0,43.0,FINE,2088,438814.500,69568,29,18;SOL_COMPUTED,NARROW_INT,0.5628,142.8813,28.6564,0.0000,0.4002,0.9231,"999",35,33,33,17,3,01,3,f3*824463e0
$GNGGA,015316.60,3039.26823467,N,12047.31973967,E,2,27,0.6,1.7672,M,9.8172,M,05,0*77
$GNRMC,015316.60,A,3039.26823467,N,12047.31973967,E,0.038,241.9,170120,5.9,W,D*30
#HEADINGA,COM2,0,43.0,FINE,2088,438814.600,69668,29,18;SOL_COMPUTED,NARROW_INT,0.5653,143.0402,28.9864,0.0000,0.3994,0.9167,"999",35,33,33,17,3,01,3,f3*d6b3fbfc
$GNGGA,015316.70,3039.26823540,N,12047.31973933,E,2,27,0.6,1.7663,M,9.8172,M,05,0*73
$GNRMC,015316.70,A,3039.26823540,N,12047.31973933,E,0.026,85.2,170120,5.9,W,D*0A
#HEADINGA,COM2,0,43.0,FINE,2088,438814.700,69768,28,18;SOL_COMPUTED,NARROW_INT,0.5625,142.8326,28.1021,0.0000,0.3982,0.9287,"999",35,33,33,17,3,01,3,f3*6705a570
$GNGGA,015316.80,3039.26823646,N,12047.31974015,E,2,27,0.6,1.7678,M,9.8172,M,05,0*79
$GNRMC,015316.80,A,3039.26823646,N,12047.31974015,E,0.043,79.0,170120,5.9,W,D*08
#HEADINGA,COM2,0,43.0,FINE,2088,438814.800,69868,29,18;SOL_COMPUTED,NARROW_INT,0.5574,142.6860,27.7132,0.0000,0.4006,0.9405,"999",35,33,33,17,3,01,3,f3*581b99a7
$GNGGA,015316.90,3039.26823764,N,12047.31974076,E,2,27,0.6,1.7682,M,9.8172,M,05,0*79
$GNRMC,015316.90,A,3039.26823764,N,12047.31974076,E,0.034,71.0,170120,5.9,W,D*05
#HEADINGA,COM2,0,51.0,FINE,2088,438814.900,69968,28,18;SOL_COMPUTED,NARROW_INT,0.5598,143.2149,28.0066,0.0000,0.3991,0.9333,"999",35,33,33,17,3,01,3,f3*63ba8a95
#REFSTATIONA,COM2,0,43.0,FINE,2088,438809.000,69269,803,18;00000000,-2811023.329,4717645.324,3233007.504,0,RTCMV3,"0000"*35d486d3
$GNGGA,015317.00,3039.26823879,N,12047.31974107,E,2,27,0.6,1.7657,M,9.8172,M,06,0*7E
$GNRMC,015317.00,A,3039.26823879,N,12047.31974107,E,0.022,64.0,170120,5.9,W,D*0A
#HEADINGA,COM2,0,51.0,FINE,2088,438815.000,70068,35,18;SOL_COMPUTED,NARROW_INT,0.5592,142.8673,27.7761,0.0000,0.3989,0.9367,"999",35,33,33,17,3,01,3,f3*aa683d2b
$GNGGA,015317.10,3039.26823916,N,12047.31974082,E,2,27,0.6,1.7626,M,9.8172,M,06,0*7D
$GNRMC,015317.10,A,3039.26823916,N,12047.31974082,E,0.018,166.8,170120,5.9,W,D*3D
#HEADINGA,COM2,0,51.0,FINE,2088,438815.100,70168,29,18;SOL_COMPUTED,NARROW_INT,0.5548,142.6691,26.6956,0.0000,0.3984,0.9531,"999",35,33,33,17,3,01,3,f3*2a739585
$GNGGA,015317.20,3039.26823907,N,12047.31974036,E,2,27,0.6,1.7613,M,9.8172,M,06,0*77
$GNRMC,015317.20,A,3039.26823907,N,12047.31974036,E,0.029,176.8,170120,5.9,W,D*32
