A,3039.11463596,N,12047.31573109,E,0.037,2.5,150120,5.8,W,A*3C
#HEADINGA,COM2,0,76.0,FINE,2088,268818.300,420702,19,18;SOL_COMPUTED,L1_FLOAT,14.3029,101.3701,60.2391,0.0000,49.1378,65.1318,"999",10,6,6,0,3,00,0,11*6bb113df
$GNGGA,024000.40,3039.11463491,N,12047.31573297,E,1,08,1.8,22.3972,M,9.8179,M,,*7B
$GNRMC,024000.40,A,3039.11463491,N,12047.31573297,E,0.084,153.4,150120,5.8,W,A*35
#HEADINGA,COM2,0,76.0,FINE,2088,268818.400,420802,18,18;SOL_COMPUTED,L1_FLOAT,14.2718,101.3688,60.2331,0.0000,49.2384,65.2813,"999",10,6,6,0,3,00,0,11*eef8fc08
$GNGGA,024000.50,3039.11463927,N,12047.31572755,E,1,07,1.8,22.4103,M,9.8179,M,,*76
$GNRMC,024000.50,A,3039.11463927,N,12047.31572755,E,0.054,163.2,150120,5.8,W,A*36
#HEADINGA,COM2,0,76.0,FINE,2088,268818.500,420902,19,18;SOL_COMPUTED,L1_FLOAT,14.2645,101.4078,60.1099,0.0000,49.0812,65.5175,"999",10,6,6,0,3,00,0,11*ddab2a1b
$GNGGA,024000.60,3039.11464569,N,12047.31572623,E,1,07,1.8,22.4190,M,9.8179,M,,*7E
$GNRMC,024000.60,A,3039.11464569,N,12047.31572623,E,0.035,111.8,150120,5.8,W,A*3C
#HEADINGA,COM2,0,76.0,FINE,2088,268818.600,421002,18,18;SOL_COMPUTED,L1_FLOAT,14.2979,101.3805,60.3125,0.0000,49.2730,65.0376,"999",10,6,6,0,3,00,0,11*1c0c5986
$GNGGA,024000.70,3039.11464853,N,12047.31572837,E,1,07,1.8,22.4634,M,9.8179,M,,*79
$GNRMC,024000.70,A,3039.11464853,N,12047.31572837,E,0.063,93.6,150120,5.8,W,A*04
#HEADINGA,COM2,0,76.0,FINE,2088,268818.700,421102,19,18;SOL_COMPUTED,L1_FLOAT,14.2594,101.3467,60.1454,0.0000,49.1579,65.4661,"999",10,6,6,0,3,00,0,11*f660fc8d
$GNGGA,024000.80,3039.11465690,N,12047.31572220,E,1,07,1.8,22.4573,M,9.8179,M,,*7A
$GNRMC,024000.80,A,3039.11465690,N,12047.31572220,E,0.043,68.5,150120,5.8,W,A*02
#HEADINGA,COM2,0,76.0,FINE,2088,268818.800,421202,18,18;SOL_COMPUTED,L1_FLOAT,14.3232,101.4652,60.2919,0.0000,49.1588,64.9745,"999",10,6,6,0,3,00,0,11*ee60eab1
$GNGGA,024000.90,3039.11466009,N,12047.31571879,E,1,07,1.8,22.4788,M,9.8179,M,,*7D
$GNRMC,024000.90,A,3039.11466009,N,12047.31571879,E,0.034,81.3,150120,5.8,W,A*02
#HEADINGA,COM2,0,76.0,FINE,2088,268818.900,421302,19,18;SOL_COMPUTED,L1_FLOAT,14.2893,101.4792,60.2580,0.0000,49.2266,65.1838,"999",10,6,6,0,3,00,0,11*747366f5
#REFSTATIONA,COM2,0,90.0,UNKNOWN,0,0.000,0,421406,0;00000001,0.000,0.000,0.000,0,NONE,""*7c681f53
$GNGGA,024001.00,3039.11466211,N,12047.31571549,E,1,07,1.8,22.5069,M,9.8179,M,,*79
$GNRMC,024001.00,A,3039.11466211,N,12047.31571549,E,0.030,105.0,150120,5.8,W,A*35
#HEADINGA,COM2,0,76.0,FINE,2088,268819.000,421402,23,18;SOL_COMPUTED,L1_FLOAT,14.2904,101.4355,60.0969,0.0000,48.9851,65.4185,"999",10,6,6,0,3,00,0,11*c99eb9e1
$GNGGA,024001.10,3039.11466993,N,12047.31571739,E,1,07,1.8,22.5089,M,9.8179,M,,*72
$GNRMC,024001.10,A,3039.11466993,N,12047.31571739,E,0.050,74.6,150120,5.8,W,A*07
#HEADINGA,COM2,0,76.0,FINE,2088,268819.100,421502,19,18;SOL_COMPUTED,L1_FLOAT,14.3160,101.4032,60.3013,0.0000,49.2062,64.9716,"999",10,6,6,0,3,00,0,11*c8c6ed05
$GNGGA,024001.20,3039.11468016,N,12047.31571896,E,1,07,1.8,22.5031,M,9.8179,M,,*72
$GNRMC,024001.20,A,3039.11468016,N,12047.31571896,E,0.075,57.0,150120,5.8,W,A*04
#HEADINGA,COM2,0,76.0,FINE,2088,268819.200,421603,18,18;SOL_COMPUTED,L1_FLOAT,15.0011,100.5445,61.0242,0.0000,47.1461,59.4696,"999",10,6,6,0,3,00,0,11*e444373a
$GNGGA,024001.30,3039.11468565,N,12047.31571315,E,1,07,1.8,22.5230,M,9.8179,M,,*71
$GNRMC,024001.30,A,3039.11468565,N,12047.31571315,E,0.064,49.9,150120,5.8,W,A*02
#HEADINGA,COM2,0,76.0,FINE,2088,268819.300,421702,19,18;SOL_COMPUTED,L1_FLOAT,15.0476,100.5095,61.3147,0.0000,47.4384,58.8488,"999",10,6,6,0,3,00,0,11*20069bcb
$GNGGA,024001.40,3039.11468451,N,12047.31570749,E,1,07,1.8,22.5621,M,9.8179,M,,*78
$GNRMC,024001.40,A,3039.11468451,N,12047.31570749,E,0.037,68.9,150120,5.8,W,A*0A
#HEADINGA,COM2,0,76.0,FINE,2088,268819.400,421802,18,18;SOL_COMPUTED,L1_FLOAT,14.9561,100.5179,61.2117,0.0000,47.5752,182.4487,"999",10,5,5,0,3,00,0,11*dc1c8fa8
$GNGGA,024001.50,3039.11468621,N,12047.31570214,E,1,07,1.8,22.5868,M,9.8179,M,,*72
$GNRMC,024001.50,A,3039.11468621,N,12047.31570214,E,0.024,88.1,150120,5.8,W,A*07
#HEADINGA,COM2,0,76.0,FINE,2088,268819.500,421902,18,18;SOL_COMPUTED,L1_FLOAT,15.0087,100.5177,61.2389,0.0000,47.4517,181.7964,"999",10,5,5,0,3,00,0,11*3a913570
$GNGGA,024001.60,3039.11469369,N,12047.31569960,E,1,07,1.8,22.5809,M,9.8179,M,,*7E
$GNRMC,024001.60,A,3039.11469369,N,12047.31569960,E,0.028,65.9,150120,5.8,W,A*0B
#HEADINGA,COM2,0,76.0,FINE,2088,268819.600,422002,18,18;SOL_COMPUTED,L1_FLOAT,15.0138,100.5383,61.3995,0.0000,47.6820,181.6454,"999",10,5,5,0,3,00,0,11*f480ecf1
$GNGGA,024001.70,3039.11470024,N,12047.31570094,E,1,07,1.8,22.6071,M,9.8179,M,,*73
$GNRMC,024001.70,A,3039.11470024,N,12047.31570094,E,0.046,56.9,150120,5.8,W,A*0A
#HEADINGA,COM2,0,76.0,FINE,2088,268819.700,422102,18,18;SOL_COMPUTED,L1_FLOAT,14.9729,100.5872,61.0286,0.0000,47.2561,182.3662,"999",10,5,5,0,3,00,0,11*4cb2dd07
$GNGGA,024001.80,3039.11470057,N,12047.31570041,E,1,07,1.8,22.6409,M,9.8179,M,,*7B
$GNRMC,024001.80,A,3039.11470057,N,12047.31570041,E,0.043,74.3,150120,5.8,W,A*06
#HEADINGA,COM2,0,76.0,FINE,2088,268819.800,422202,18,18;SOL_COMPUTED,L1_FLOAT,14.9784,100.5266,61.2100,0.0000,47.5114,182.1924,"999",10,5,5,0,3,00,0,11*cf7e38c3
$GNGGA,024001.90,3039.11470650,N,12047.31568946,E,1,07,1.8,22.6499,M,9.8179,M,,*75
$GNRMC,024001.90,A,3039.11470650,N,12047.31568946,E,0.023,56.4,150120,5.8,W,A*00
#HEADINGA,COM2,0,76.0,FINE,2088,268819.900,422302,18,18;SOL_COMPUTED,L1_FLOAT,15.0122,100.5419,61.3314,0.0000,47.5907,181.7152,"999",10,5,5,0,3,00,0,11*96c1464e
#REFSTATIONA,COM2,0,90.0,UNKNOWN,0,0.000,0,422407,0;00000001,0.000,0.000,0.000,0,NONE,""*1a189619
$GNGGA,024002.00,3039.11471110,N,12047.31568361,E,1,07,1.8,22.6682,M,9.8179,M,,*7A
$GNRMC,024002.00,A,3039.11471110,N,12047.31568361,E,0.018,42.2,150120,5.8,W,A*0C
#HEADINGA,COM2,0,76.0,FINE,2088,268820.000,422402,23,18;SOL_COMPUTED,L1_FLOAT,14.9807,100.5090,61.5362,0.0000,48.0070,181.9757,"999",10,5,5,0,3,00,0,11*e94f331d
$GNGGA,024002.10,3039.11471962,N,12047.31568340,E,1,07,1.8,22.6678,M,9.8179,M,,*70
$GNRMC,024002.10,A,3039.11471962,N,12047.31568340,E,0.035,35.9,150120,5.8,W,A*07
#HEADINGA,COM2,0,76.0,FINE,2088,268820.100,422502,19,18;SOL_COMPUTED,L1_FLOAT,15.0024,100.5213,61.2795,0.0000,47.5477,181.8701,"999",10,5,5,0,3,00,0,11*7ad7a26e
$GNGGA,024002.20,3039.11472763,N,12047.31568235,E,1,07,1.8,22.6719,M,9.8179,M,,*7A
$GNRMC,024002.20,A,3039.11472763,N,12047.31568235,E,0.047,32.5,150120,5.8,W,A*05
#HEADINGA,COM2,0,76.0,FINE,2088,268820.200,422603,18,18;SOL_COMPUTED,L1_FLOAT,14.9946,100.7083,60.4298,0.0000,45.7146,179.2030,"999",10,5,5,0,3,00,0,11*eea4b703
$GNGGA,024002.30,3039.11473112,N,12047.31567475,E,1,07,1.8,22.6962,M,9.8179,M,,*75
$GNRMC,024002.30,A,3039.11473112,N,12047.31567475,E,0.034,18.7,150120,5.8,W,A*06
#HEADINGA,COM2,0,76.0,FINE,2088,268820.300,422702,18,18;SOL_COMPUTED,L1_FLOAT,14.9816,100.7891,60.1955,0.0000,45.4417,179.4926,"999",10,5,5,0,3,00,0,11*8130280c
$GNGGA,024002.40,3039.11472834,N,12047.31566817,E,1,07,1.8,22.7245,M,9.8179,M,,*78
$GNRMC,024002.40,A,3039.11472834,N,12047.31566817,E,0.004,251.6,150120,5.8,W,A*39
#HEADINGA,COM2,0,76.0,FINE,2088,268820.400,422802,18,18;SOL_COMPUTED,L1_FLOAT,15.0176,100.7438,60.2692,0.0000,45.4295,179.0233,"999",10,5,5,0,3,00,0,11*8bf9bbb3
$GNGGA,024002.50,3039.11472865,N,12047.31566006,E,1,07,1.8,22.7560,M,9.8179,M,,*75
$GNRMC,024002.50,A,3039.11472865,N,12047.31566006,E,0.038,220.3,150120,5.8,W,A*38
#HEADINGA,COM2,0,76.0,FINE,2088,268820.500,422902,18,18;SOL_COMPUTED,L1_FLOAT,15.0056,100.6489,60.6300,0.0000,45.9641,178.9683,"999",10,5,5,0,3,00,0,11*2e8b39b0
$GNGGA,024002.60,3039.11473833,N,12047.31565689,E,1,07,1.8,22.7544,M,9.8179,M,,*70
$GNRMC,024002.60,A,3039.11473833,N,12047.31565689,E,0.018,314.0,150120,5.8,W,A*3C
#HEADINGA,COM2,0,76.0,FINE,2088,268820.600,423002,18,18;SOL_COMPUTED,L1_FLOAT,15.0011,100.8316,59.9927,0.0000,45.1186,179.3803,"999",10,5,5,0,3,00,0,11*db355800
$GNGGA,024002.70,3039.11474597,N,12047.31565650,E,1,07,1.8,22.7750,M,9.8179,M,,*76
$GNRMC,024002.70,A,3039.11474597,N,12047.31565650,E,0.044,7.6,150120,5.8,W,A*33
#HEADINGA,COM2,0,76.0,FINE,2088,268820.700,423102,18,18;SOL_COMPUTED,L1_FLOAT,14.9841,100.8522,59.9350,0.0000,45.0974,179.6185,"999",10,5,5,0,3,00,0,11*2f4c3841
$GNGGA,024002.80,3039.11475333,N,12047.31565396,E,1,07,1.8,22.7902,M,9.8179,M,,*76
$GNRMC,024002.80,A,3039.11475333,N,12047.31565396,E,0.059,10.8,150120,5.8,W,A*0E
#HEADINGA,COM2,0,76.0,FINE,2088,268820.800,423202,18,18;SOL_COMPUTED,L1_FLOAT,15.0232,100.7708,60.5165,0.0000,45.7716,178.8385,"999",10,5,5,0,3,00,0,11*c5bdcd23
$GNGGA,024002.90,3039.11475305,N,12047.31565244,E,1,07,1.8,22.8188,M,9.8179,M,,*79
$GNRMC,024002.90,A,3039.11475305,N,12047.31565244,E,0.027,22.1,150120,5.8,W,A*05
#HEADINGA,COM2,0,76.0,FINE,2088,268820.900,423302,18,18;SOL_COMPUTED,L1_FLOAT,15.0047,100.6671,60.1541,0.0000,45.3106,179.2504,"999",10,5,5,0,3,00,0,11*3f653c3c
#REFSTATIONA,COM2,0,90.0,UNKNOWN,0,0.000,0,423407,0;00000001,0.000,0.000,0.000,0,NONE,""*5d0b60e2
$GNGGA,024003.00,3039.11475650,N,12047.31564529,E,1,08,1.8,22.8303,M,9.8179,M,,*77
$GNRMC,024003.00,A,3039.11475650,N,12047.31564529,E,0.012,270.6,150120,5.8,W,A*31
#HEADINGA,COM2,0,76.0,FINE,2088,268821.000,423402,24,18;SOL_COMPUTED,L1_FLOAT,15.0859,100.7233,60.5075,0.0000,45.5658,178.1032,"999",10,5,5,0,3,00,0,11*beaf7de9
$GNGGA,024003.10,3039.11476252,N,12047.31564297,E,1,08,1.8,22.8352,M,9.8179,M,,*75
$GNRMC,024003.10,A,3039.11476252,N,12047.31564297,E,0.015,347.4,150120,5.8,W,A*37
#HEADINGA,COM2,0,76.0,FINE,2088,268821.100,423502,20,18;SOL_COMPUTED,L1_FLOAT,14.9979,100.7143,60.6936,0.0000,46.0992,179.0495,"999",10,5,5,0,3,00,0,11*f6527006
$GNGGA,024003.20,3039.11477074,N,12047.31563835,E,1,08,1.8,22.8382,M,9.8179,M,,*79
$GNRMC,024003.20,A,3039.11477074,N,12047.31563835,E,0.049,356.6,150120,5.8,W,A*3D
#HEADINGA,COM2,0,76.0,FINE,2088,268821.200,423603,19,18;SOL_COMPUTED,L1_FLOAT,15.1503,100.7701,60.6622,0.0000,45.0486,174.3082,"999",10,5,5,0,3,00,0,11*b496dda8
$GNGGA,024003.30,3039.11477363,N,12047.31563616,E,1,08,1.8,22.8506,M,9.8179,M,,*78
$GNRMC,024003.30,A,3039.11477363,N,12047.31563616,E,0.028,358.8,150120,5.8,W,A*31
#HEADINGA,COM2,0,76.0,FINE,2088,268821.300,423702,19,18;SOL_COMPUTED,L1_FLOAT,15.1678,100.7725,60.8594,0.0000,45.2767,174.0049,"999",10,5,5,0,3,00,0,11*6e7c1bfc
$GNGGA,024003.40,3039.11477158,N,12047.31563217,E,1,08,1.8,22.8844,M,9.8179,M,,*7B
$GNRMC,024003.40,A,3039.11477158,N,12047.31563217,E,0.078,198.2,150120,5.8,W,A*38
#HEADINGA,COM2,0,76.0,FINE,2088,268821.400,423802,19,18;SOL_COMPUTED,L1_FLOAT,15.1860,100.8438,60.4311,0.0000,44.6415,174.0317,"999",10,5,5,0,3,00,0,11*0b9c12ed
$GNGGA,024003.50,3039.11477539,N,12047.31562518,E,1,08,1.8,22.8930,M,9.8179,M,,*72
$GNRMC,024003.50,A,3039.11477539,N,12047.31562518,E,0.069,217.6,150120,5.8,W,A*33
#HEADINGA,COM2,0,76.0,FINE,2088,268821.500,423902,19,18;SOL_COMPUTED,L1_FLOAT,15.1595,100.7714,60.9539,0.0000,45.4400,174.0551,"999",10,5,5,0,3,00,0,11*ea83d857
$GNGGA,024003.60,3039.11477895,N,12047.31562384,E,1,08,1.8,22.9146,M,9.8179,M,,*71
$GNRMC,024003.60,A,3039.11477895,N,12047.31562384,E,0.023,210.1,150120,5.8,W,A*36
#HEADINGA,COM2,0,76.0,FINE,2088,268821.600,424002,19,18;SOL_COMPUTED,L1_FLOAT,15.1557,100.8214,60.5068,0.0000,44.8347,174.3456,"999",10,5,5,0,3,00,0,11*8cbf694a
$GNGGA,024003.70,3039.11478636,N,12047.31562178,E,1,08,1.8,22.9242,M,9.8179,M,,*7E
$GNRMC,024003.70,A,3039.11478636,N,12047.31562178,E,0.054,15.4,150120,5.8,W,A*0C
#HEADINGA,COM2,0,76.0,FINE,2088,268821.700,424102,19,18;SOL_COMPUTED,L1_FLOAT,15.0998,100.8631,60.3839,0.0000,44.8415,175.0608,"999",10,5,5,0,3,00,0,11*a336311a
$GNGGA,024003.80,3039.11479355,N,12047.31561393,E,1,08,1.8,22.9297,M,9.8179,M,,*7C
$GNRMC,024003.80,A,3039.11479355,N,12047.31561393,E,0.073,339.8,150120,5.8,W,A*32
#HEADINGA,COM2,0,76.0,FINE,2088,268821.800,424202,19,18;SOL_COMPUTED,L1_FLOAT,15.1260,100.7954,60.5016,0.0000,44.9143,174.6949,"999",10,5,5,0,3,00,0,11*429ec20f
$GNGGA,024003.90,3039.11479706,N,12047.31560647,E,1,08,1.8,22.9437,M,9.8179,M,,*7E
$GNRMC,024003.90,A,3039.11479706,N,12047.31560647,E,0.068,303.8,150120,5.8,W,A*3F
#HEADINGA,COM2,0,76.0,FINE,2088,268821.900,424302,18,18;SOL_COMPUTED,L1_FLOAT,15.1415,100.8276,60.4545,0.0000,44.8116,174.5461,"999",10,5,5,0,3,00,0,11*877ccff7
#REFSTATIONA,COM2,0,90.0,UNKNOWN,0,0.000,0,424406,0;00000001,0.000,0.000,0.000,0,NONE,""*fc453405
$GNGGA,024004.00,3039.11479849,N,12047.31559979,E,1,08,1.8,22.9555,M,9.8179,M,,*79
$GNRMC,024004.00,A,3039.11479849,N,12047.31559979,E,0.075,268.2,150120,5.8,W,A*37
#HEADINGA,COM2,0,76.0,FINE,2088,268822.000,424402,24,18;SOL_COMPUTED,L1_FLOAT,15.1463,100.8410,60.3412,0.0000,44.6468,174.5551,"999",10,5,5,0,3,00,0,11*b687dea4
$GNGGA,024004.10,3039.11480667,N,12047.31559725,E,1,08,1.8,22.9442,M,9.8179,M,,*7C
$GNRMC,024004.10,A,3039.11480667,N,12047.31559725,E,0.084,332.7,150120,5.8,W,A*30
#HEADINGA,COM2,0,76.0,FINE,2088,268822.100,424502,20,18;SOL_COMPUTED,L1_FLOAT,15.1253,100.8296,60.7202,0.0000,45.2348,174.5988,"999",10,5,5,0,3,00,0,11*22b4f2fe
$GNGGA,024004.20,3039.11481020,N,12047.31559792,E,1,08,1.8,22.9645,M,9.8179,M,,*72
$GNRMC,024004.20,A,3039.11481020,N,12047.31559792,E,0.077,2.6,150120,5.8,W,A*36
#HEADINGA,COM2,0,76.0,FINE,2088,268822.200,424603,19,18;SOL_COMPUTED,L1_FLOAT,15.2513,100.9274,60.4095,0.0000,43.9494,170.5238,"999",10,5,5,0,3,00,0,11*ab40d0cf
$GNGGA,024004.30,3039.11481035,N,12047.31559501,E,1,08,1.8,23.0074,M,9.8179,M,,*73
$GNRMC,024004.30,A,3039.11481035,N,12047.31559501,E,0.025,352.5,150120,5.8,W,A*39
#HEADINGA,COM2,0,76.0,FINE,2088,268822.300,424702,19,18;SOL_COMPUTED,L1_FLOAT,15.2382,100.9271,60.7652,0.0000,44.4759,170.4889,"999",10,5,5,0,3,00,0,11*9260e29f
$GNGGA,024004.40,3039.11480994,N,12047.31558943,E,1,07,1.8,23.0310,M,9.8179,M,,*72
$GNRMC,024004.40,A,3039.11480994,N,12047.31558943,E,0.039,227.7,150120,5.8,W,A*3A
#HEADINGA,COM2,0,76.0,FINE,2088,268822.400,424802,19,18;SOL_COMPUTED,L1_FLOAT,15.2243,100.9613,60.6859,0.0000,44.4185,170.6919,"999",10,5,5,0,3,00,0,11*d807105a
$GNGGA,024004.50,3039.11481177,N,12047.31558698,E,1,08,1.8,23.0270,M,9.8179,M,,*76
$GNRMC,024004.50,A,3039.11481177,N,12047.31558698,E,0.040,213.7,150120,5.8,W,A*3F
#HEADINGA,COM2,0,76.0,FINE,2088,268822.500,424902,19,18;SOL_COMPUTED,L1_FLOAT,15.3003,100.9719,60.6660,0.0000,44.1754,169.8574,"999",10,5,5,0,3,00,0,11*700dc2ec
$GNGGA,024004.60,3039.11481703,N,12047.31558193,E,1,07,1.8,23.0393,M,9.8179,M,,*7F
$GNRMC,024004.60,A,3039.11481703,N,12047.31558193,E,0.026,263.9,150120,5.8,W,A*3C
#HEADINGA,COM2,0,76.0,FINE,2088,268822.600,425002,18,18;SOL_COMPUTED,L1_FLOAT,15.2432,100.9563,60.6919,0.0000,44.3739,170.4827,"999",10,5,5,0,3,00,0,11*5f455ec2
$GNGGA,024004.70,3039.11482230,N,12047.31557769,E,1,07,1.8,23.0463,M,9.8179,M,,*7C
$GNRMC,024004.70,A,3039.11482230,N,12047.31557769,E,0.033,305.3,150120,5.8,W,A*38
#HEADINGA,COM2,0,76.0,FINE,2088,268822.700,425102,18,18;SOL_COMPUTED,L1_FLOAT,15.2911,100.9448,60.9408,0.0000,44.5792,169.8213,"999",10,5,5,0,3,00,0,11*1e5c7b19
$GNGGA,024004.80,3039.11482470,N,12047.31558010,E,1,08,1.8,23.0584,M,9.8179,M,,*70
$GNRMC,024004.80,A,3039.11482470,N,12047.31558010,E,0.027,29.0,150120,5.8,W,A*08
#HEADINGA,COM2,0,76.0,FINE,2088,268822.800,425202,19,18;SOL_COMPUTED,L1_FLOAT,15.2629,100.8600,61.2843,0.0000,45.1289,169.9481,"999",10,5,5,0,3,00,0,11*65eb16fd
$GNGGA,024004.90,3039.11482789,N,12047.31557294,E,1,08,1.8,23.0643,M,9.8179,M,,*7D
$GNRMC,024004.90,A,3039.11482789,N,12047.31557294,E,0.025,288.8,150120,5.8,W,A*3E
#HEADINGA,COM2,0,76.0,FINE,2088,268822.900,425302,19,18;SOL_COMPUTED,L1_FLOAT,15.2895,100.8285,60.9723,0.0000,44.6024,169.8208,"999",10,5,5,0,3,00,0,11*72fcf41f
#REFSTATIONA,COM2,0,90.0,UNKNOWN,0,0.000,0,425406,0;00000001,0.000,0.000,0.000,0,NONE,""*bb56c2fe
$GNGGA,024005.00,3039.11483139,N,12047.31556315,E,1,08,1.8,23.0668,M,9.8179,M,,*79
$GNRMC,024005.00,A,3039.11483139,N,12047.31556315,E,0.078,266.1,150120,5.8,W,A*32
#HEADINGA,COM2,0,76.0,FINE,2088,268823.000,425402,23,18;SOL_COMPUTED,L1_FLOAT,15.2731,100.9834,60.8051,0.0000,44.4592,170.1040,"999",10,5,5,0,3,00,0,11*db06fb43
$GNGGA,024005.10,3039.11483970,N,12047.31556204,E,1,08,1.8,23.0713,M,9.8179,M,,*71
$GNRMC,024005.10,A,3039.11483970,N,12047.31556204,E,0.159,359.5,150120,5.8,W,A*3C
#HEADINGA,COM2,0,76.0,FINE,2088,268823.100,425502,20,18;SOL_COMPUTED,L1_FLOAT,15.2910,100.9445,60.8633,0.0000,44.4787,169.8753,"999",10,5,5,0,3,00,0,11*ea25d450
$GNGGA,024005.20,3039.11484708,N,12047.31556501,E,1,08,1.8,23.0625,M,9.8179,M,,*72
$GNRMC,024005.20,A,3039.11484708,N,12047.31556501,E,0.178,18.1,150120,5.8,W,A*0A
#HEADINGA,COM2,0,76.0,FINE,2088,268823.200,425602,19,18;SOL_COMPUTED,L1_FLOAT,15.4715,101.0380,61.4242,0.0000,44.2835,165.0069,"999",10,5,5,0,3,00,0,11*b05a03c2
$GNGGA,024005.30,3039.11484796,N,12047.31556885,E,1,08,1.8,23.0950,M,9.8179,M,,*78
$GNRMC,024005.30,A,3039.11484796,N,12047.31556885,E,0.128,49.0,150120,5.8,W,A*0D
#HEADINGA,COM2,0,76.0,FINE,2088,268823.300,425702,19,18;SOL_COMPUTED,L1_FLOAT,15.4130,100.9871,61.1963,0.0000,44.1146,165.7538,"999",10,5,5,0,3,00,0,11*bd12c6a9
$GNGGA,024005.40,3039.11484744,N,12047.31556321,E,1,08,1.8,23.1245,M,9.8179,M,,*7B
$GNRMC,024005.40,A,3039.11484744,N,12047.31556321,E,0.043,181.7,150120,5.8,W,A*3E
#HEADINGA,COM2,0,76.0,FINE,2088,268823.400,425802,19,18;SOL_COMPUTED,L1_FLOAT,15.4136,101.0735,61.1182,0.0000,44.0352,165.7960,"999",10,5,5,0,3,00,0,11*d5d01350
$GNGGA,024005.50,3039.11484938,N,12047.31555624,E,1,08,1.8,23.1394,M,9.8179,M,,*71
$GNRMC,024005.50,A,3039.11484938,N,12047.31555624,E,0.056,232.4,150120,5.8,W,A*35
#HEADINGA,COM2,0,76.0,FINE,2088,268823.500,425902,18,18;SOL_COMPUTED,L1_FLOAT,15.4075,101.0315,60.9935,0.0000,43.8667,165.9277,"999",10,5,5,0,3,00,0,11*023924dd
$GNGGA,024005.60,3039.11485351,N,12047.31555640,E,1,08,1.8,23.1326,M,9.8179,M,,*7D
$GNRMC,024005.60,A,3039.11485351,N,12047.31555640,E,0.010,354.6,150120,5.8,W,A*31
#HEADINGA,COM2,0,76.0,FINE,2088,268823.600,426002,18,18;SOL_COMPUTED,L1_FLOAT,15.4649,100.9840,61.3240,0.0000,44.1504,165.1401,"999",10,5,5,0,3,00,0,11*94995487
$GNGGA,024005.70,3039.11485621,N,12047.31555270,E,1,08,1.8,23.1459,M,9.8179,M,,*76
$GNRMC,024005.70,A,3039.11485621,N,12047.31555270,E,0.019,330.5,150120,5.8,W,A*3D
#HEADINGA,COM2,0,76.0,FINE,2088,268823.700,426102,18,18;SOL_COMPUTED,L1_FLOAT,15.4531,101.0078,61.3258,0.0000,44.1960,165.2691,"999",10,5,5,0,3,00,0,11*52b244e2
$GNGGA,024005.80,3039.11485951,N,12047.31554887,E,1,08,1.8,23.1586,M,9.8179,M,,*71
$GNRMC,024005.80,A,3039.11485951,N,12047.31554887,E,0.029,329.7,150120,5.8,W,A*30
#HEADINGA,COM2,0,76.0,FINE,2088,268823.800,426202,18,18;SOL_COMPUTED,L1_FLOAT,15.4111,100.9954,61.3110,0.0000,44.2934,165.7300,"999",10,5,5,0,3,00,0,11*8b3400d1
$GNGGA,024005.90,3039.11486150,N,12047.31554718,E,1,08,1.8,23.1631,M,9.8179,M,,*7C
$GNRMC,024005.90,A,3039.11486150,N,12047.31554718,E,0.023,335.2,150120,5.8,W,A*30
#HEADINGA,COM2,0,76.0,FINE,2088,268823.900,426302,18,18;SOL_COMPUTED,L1_FLOAT,15.4189,100.9449,61.2819,0.0000,44.2164,165.6621,"999",10,5,5,0,3,00,0,11*ce92e758
#REFSTATIONA,COM2,0,90.0,UNKNOWN,0,0.000,0,426406,0;00000001,0.000,0.000,0.000,0,NONE,""*7262d9f3
$GNGGA,024006.00,3039.11486245,N,12047.31554646,E,1,07,1.8,23.1744,M,9.8179,M,,*77
$GNRMC,024006.00,A,3039.11486245,N,12047.31554646,E,0.012,354.6,150120,5.8,W,A*36
#HEADINGA,COM2,0,76.0,FINE,2088,268824.000,426402,23,18;SOL_COMPUTED,L1_FLOAT,15.4620,101.0038,61.1972,0.0000,43.9944,165.2508,"999",10,5,5,0,3,00,0,11*7b069618
$GNGGA,024006.10,3039.11486086,N,12047.31554459,E,1,07,1.8,23.1965,M,9.8179,M,,*7A
$GNRMC,024006.10,A,3039.11486086,N,12047.31554459,E,0.008,185.6,150120,5.8,W,A*33
#HEADINGA,COM2,0,76.0,FINE,2088,268824.100,426502,19,18;SOL_COMPUTED,L1_FLOAT,15.4165,100.9774,61.1907,0.0000,44.1087,165.7436,"999",10,5,5,0,3,00,0,11*f49e2639
$GNGGA,024006.20,3039.11486610,N,12047.31554042,E,1,08,1.8,23.1961,M,9.8179,M,,*75
$GNRMC,024006.20,A,3039.11486610,N,12047.31554042,E,0.021,340.6,150120,5.8,W,A*37
#HEADINGA,COM2,0,76.0,FINE,2088,268824.200,426603,19,18;SOL_COMPUTED,L1_FLOAT,15.6519,101.0845,61.7193,0.0000,43.7606,160.5362,"999",10,5,5,0,3,00,0,11*fffd30d6
$GNGGA,024006.30,3039.11486863,N,12047.31553766,E,1,07,1.8,23.1857,M,9.8179,M,,*73
$GNRMC,024006.30,A,3039.11486863,N,12047.31553766,E,0.017,323.5,150120,5.8,W,A*39
#HEADINGA,COM2,0,76.0,FINE,2088,268824.300,426702,19,18;SOL_COMPUTED,L1_FLOAT,15.6579,100.9920,61.7050,0.0000,43.6927,160.4804,"999",10,5,5,0,3,00,0,11*c795e474
$GNGGA,024006.40,3039.11486831,N,12047.31553372,E,1,07,1.8,23.2028,M,9.8179,M,,*71
$GNRMC,024006.40,A,3039.11486831,N,12047.31553372,E,0.018,267.5,150120,5.8,W,A*36
#HEADINGA,COM2,0,76.0,FINE,2088,268824.400,426802,18,18;SOL_COMPUTED,L1_FLOAT,15.5844,101.0329,61.8550,0.0000,44.1293,161.1630,"999",10,5,5,0,3,00,0,11*185741e3
$GNGGA,024006.50,3039.11486777,N,12047.31552948,E,1,08,1.8,23.2208,M,9.8179,M,,*70
$GNRMC,024006.50,A,3039.11486777,N,12047.31552948,E,0.031,239.2,150120,5.8,W,A*3F
#HEADINGA,COM2,0,76.0,FINE,2088,268824.500,426902,19,18;SOL_COMPUTED,L1_FLOAT,15.6256,100.9686,61.7022,0.0000,43.7753,160.8190,"999",10,5,5,0,3,00,0,11*9be1cdf4
$GNGGA,024006.60,3039.11486916,N,12047.31552131,E,1,08,1.8,23.2246,M,9.8179,M,,*76
$GNRMC,024006.60,A,3039.11486916,N,12047.31552131,E,0.064,243.5,150120,5.8,W,A*39
#HEADINGA,COM2,0,76.0,FINE,2088,268824.600,427002,19,18;SOL_COMPUTED,L1_FLOAT,15.5865,101.0092,61.5735,0.0000,43.7180,161.2950,"999",10,5,5,0,3,00,0,11*8dd5ec57
$GNGGA,024006.70,3039.11487024,N,12047.31552408,E,1,08,1.8,23.2465,M,9.8179,M,,*76
$GNRMC,024006.70,A,3039.11487024,N,12047.31552408,E,0.016,17.6,150120,5.8,W,A*0B
#HEADINGA,COM2,0,76.0,FINE,2088,268824.700,427102,18,18;SOL_COMPUTED,L1_FLOAT,15.6080,101.0167,61.5376,0.0000,43.6117,161.0951,"999",10,5,5,0,3,00,0,11*9b021655
$GNGGA,024006.80,3039.11487411,N,12047.31552283,E,1,08,1.8,23.2450,M,9.8179,M,,*78
$GNRMC,024006.80,A,3039.11487411,N,12047.31552283,E,0.033,19.2,150120,5.8,W,A*0E
#HEADINGA,COM2,0,76.0,FINE,2088,268824.800,427202,19,18;SOL_COMPUTED,L1_FLOAT,15.6520,101.0602,61.5177,0.0000,43.4781,160.6575,"999",10,5,5,0,3,00,0,11*934faa23
$GNGGA,024006.90,3039.11487505,N,12047.31552080,E,1,08,1.8,23.2403,M,9.8179,M,,*7A
$GNRMC,024006.90,A,3039.11487505,N,12047.31552080,E,0.009,27.6,150120,5.8,W,A*0A
#HEADINGA,COM2,0,76.0,FINE,2088,268824.900,427302,19,18;SOL_COMPUTED,L1_FLOAT,15.6808,100.9734,62.0378,0.0000,44.1106,160.0870,"999",10,5,5,0,3,00,0,11*c9aab411
#REFSTATIONA,COM2,0,90.0,UNKNOWN,0,0.000,0,427406,0;00000001,0.000,0.000,0.000,0,NONE,""*35712f08
$GNGGA,024007.00,3039.11487490,N,12047.31551320,E,1,08,1.8,23.2421,M,9.8179,M,,*75
$GNRMC,024007.00,A,3039.11487490,N,12047.31551320,E,0.065,228.6,150120,5.8,W,A*32
#HEADINGA,COM2,0,76.0,FINE,2088,268825.000,427402,23,18;SOL_COMPUTED,L1_FLOAT,15.6566,100.9590,61.6340,0.0000,43.5986,160.5508,"999",10,5,5,0,3,00,0,11*7beb3af0
$GNGGA,024007.10,3039.11487828,N,12047.31551055,E,1,08,1.8,23.2367,M,9.8179,M,,*7F
$GNRMC,024007.10,A,3039.11487828,N,12047.31551055,E,0.039,258.4,150120,5.8,W,A*31
#HEADINGA,COM2,0,76.0,FINE,2088,268825.100,427502,19,18;SOL_COMPUTED,L1_FLOAT,15.5791,101.0465,61.3634,0.0000,43.4664,161.4975,"999",10,5,5,0,3,00,0,11*79ef2aa6
$GNGGA,024007.20,3039.11488206,N,12047.31550573,E,1,08,1.8,23.2374,M,9.8179,M,,*77
$GNRMC,024007.20,A,3039.11488206,N,12047.31550573,E,0.050,290.6,150120,5.8,W,A*32
#HEADINGA,COM2,0,76.0,FINE,2088,268825.200,427602,19,18;SOL_COMPUTED,L1_FLOAT,15.8770,101.0902,62.2165,0.0000,43.4123,155.6999,"999",10,5,5,0,3,00,0,11*45655ef0
$GNGGA,024007.30,3039.11488331,N,12047.31550350,E,1,08,1.8,23.2513,M,9.8179,M,,*73
$GNRMC,024007.30,A,3039.11488331,N,12047.31550350,E,0.044,293.0,150120,5.8,W,A*31
#HEADINGA,COM2,0,76.0,FINE,2088,268825.300,427702,19,18;SOL_COMPUTED,L1_FLOAT,15.8479,101.1222,62.0044,0.0000,43.2035,156.1014,"999",10,5,5,0,3,00,0,11*53f4944b
$GNGGA,024007.40,3039.11487967,N,12047.31549857,E,1,08,1.8,23.2785,M,9.8179,M,,*7B
$GNRMC,024007.40,A,3039.11487967,N,12047.31549857,E,0.088,229.4,150120,5.8,W,A*31
#HEADINGA,COM2,0,76.0,FINE,2088,268825.400,427802,19,18;SOL_COMPUTED,L1_FLOAT,15.8225,100.9978,61.8768,0.0000,43.0483,156.4146,"999",10,5,5,0,3,00,0,11*050cb568
$GNGGA,024007.50,3039.11487911,N,12047.31549462,E,1,08,1.8,23.2986,M,9.8179,M,,*7C
$GNRMC,024007.50,A,3039.11487911,N,12047.31549462,E,0.087,230.5,150120,5.8,W,A*3D
#HEADINGA,COM2,0,76.0,FINE,2088,268825.500,427902,19,18;SOL_COMPUTED,L1_FLOAT,15.8163,101.0561,62.0583,0.0000,43.3442,156.3872,"999",10,5,5,0,3,00,0,11*4b14dbe4
$GNGGA,024007.60,3039.11488425,N,12047.31549442,E,1,08,1.8,23.2848,M,9.8179,M,,*7B
$GNRMC,024007.60,A,3039.11488425,N,12047.31549442,E,0.035,321.8,150120,5.8,W,A*3C
#HEADINGA,COM2,0,76.0,FINE,2088,268825.600,428002,18,18;SOL_COMPUTED,L1_FLOAT,15.8927,101.0935,62.5775,0.0000,43.9037,155.3660,"999",10,5,5,0,3,00,0,11*6408e29a
$GNGGA,024007.70,3039.11489022,N,12047.31549440,E,1,07,1.8,23.2777,M,9.8179,M,,*76
$GNRMC,024007.70,A,3039.11489022,N,12047.31549440,E,0.073,1.0,150120,5.8,W,A*36
#HEADINGA,COM2,0,76.0,FINE,2088,268825.700,428102,19,18;SOL_COMPUTED,L1_FLOAT,15.8595,101.0917,62.2397,0.0000,43.5029,155.8738,"999",10,5,5,0,3,00,0,11*a1d7f85a
$GNGGA,024007.80,3039.11489153,N,12047.31549467,E,1,07,1.8,23.2894,M,9.8179,M,,*79
$GNRMC,024007.80,A,3039.11489153,N,12047.31549467,E,0.058,10.4,150120,5.8,W,A*06
#HEADINGA,COM2,0,76.0,FINE,2088,268825.800,428202,18,18;SOL_COMPUTED,L1_FLOAT,15.8466,100.9816,62.2458,0.0000,43.5096,155.9950,"999",10,5,5,0,3,00,0,11*8e9cb85d
$GNGGA,024007.90,3039.11489252,N,12047.31549165,E,1,07,1.8,23.2995,M,9.8179,M,,*7D
$GNRMC,024007.90,A,3039.11489252,N,12047.31549165,E,0.040,359.1,150120,5.8,W,A*30
#HEADINGA,COM2,0,76.0,FINE,2088,268825.900,428302,18,18;SOL_COMPUTED,L1_FLOAT,15.8401,101.0736,62.0497,0.0000,43.2806,156.1694,"999",10,5,5,0,3,00,0,11*e8fc8d90
#REFSTATIONA,COM2,0,90.0,UNKNOWN,0,0.000,0,428406,0;00000001,0.000,0.000,0.000,0,NONE,""*6e7754b3
$GNGGA,024008.00,3039.11489238,N,12047.31549212,E,1,07,1.8,23.3191,M,9.8179,M,,*79
$GNRMC,024008.00,A,3039.11489238,N,12047.31549212,E,0.027,17.1,150120,5.8,W,A*01
#HEADINGA,COM2,0,76.0,FINE,2088,268826.000,428402,23,18;SOL_COMPUTED,L1_FLOAT,15.8510,101.1250,62.2116,0.0000,43.5042,155.9825,"999",10,5,5,0,3,00,0,11*bbde6ce7
$GNGGA,024008.10,3039.11489553,N,12047.31548550,E,1,07,1.8,23.3194,M,9.8179,M,,*77
$GNRMC,024008.10,A,3039.11489553,N,12047.31548550,E,0.031,331.8,150120,5.8,W,A*33
#HEADINGA,COM2,0,76.0,FINE,2088,268826.100,428502,19,18;SOL_COMPUTED,L1_FLOAT,15.8498,101.0534,62.1796,0.0000,43.4359,156.0111,"999",10,5,5,0,3,00,0,11*ad7a4a79
$GNGGA,024008.20,3039.11489884,N,12047.31548228,E,1,07,1.8,23.3172,M,9.8179,M,,*73
$GNRMC,024008.20,A,3039.11489884,N,12047.31548228,E,0.037,329.1,150120,5.8,W,A*39
#HEADINGA,COM2,0,76.0,FINE,2088,268826.200,428602,19,18;SOL_COMPUTED,L1_FLOAT,16.1101,101.2432,62.1990,0.0000,42.4054,151.2909,"999",10,5,5,0,3,00,0,11*6dbd4f02
$GNGGA,024008.30,3039.11490006,N,12047.31547853,E,1,07,1.8,23.3305,M,9.8179,M,,*73
$GNRMC,024008.30,A,3039.11490006,N,12047.31547853,E,0.037,316.0,150120,5.8,W,A*36
#HEADINGA,COM2,0,76.0,FINE,2088,268826.300,428702,18,18;SOL_COMPUTED,L1_FLOAT,16.1867,101.1456,63.0825,0.0000,43.4390,150.1134,"999",10,5,5,0,3,00,0,11*ecb5b954
$GNGGA,024008.40,3039.11489586,N,12047.31548033,E,1,07,1.8,23.3726,M,9.8179,M,,*75
$GNRMC,024008.40,A,3039.11489586,N,12047.31548033,E,0.014,279.6,150120,5.8,W,A*3A
#HEADINGA,COM2,0,76.0,FINE,2088,268826.400,428802,18,18;SOL_COMPUTED,L1_FLOAT,16.0795,101.2551,62.2209,0.0000,42.5256,151.5736,"999",10,5,5,0,3,00,0,11*c1146ec2
$GNGGA,024008.50,3039.11489629,N,12047.31547749,E,1,07,1.8,23.3813,M,9.8179,M,,*7E
$GNRMC,024008.50,A,3039.11489629,N,12047.31547749,E,0.017,259.3,150120,5.8,W,A*3C
#HEADINGA,COM2,0,76.0,FINE,2088,268826.500,428902,18,18;SOL_COMPUTED,L1_FLOAT,16.1167,101.2330,62.4482,0.0000,42.7410,151.1094,"999",10,5,5,0,3,00,0,11*8ecdf7ec
$GNGGA,024008.60,3039.11490195,N,12047.31547435,E,1,07,1.8,23.3658,M,9.8179,M,,*7C
$GNRMC,024008.60,A,3039.11490195,N,12047.31547435,E,0.023,303.4,150120,5.8,W,A*31
#HEADINGA,COM2,0,76.0,FINE,2088,268826.600,429002,18,18;SOL_COMPUTED,L1_FLOAT,16.0761,101.2508,62.7450,0.0000,43.2891,151.3391,"999",10,5,5,0,3,00,0,11*afb3fd3e
$GNGGA,024008.70,3039.11490842,N,12047.31547022,E,1,07,1.8,23.3495,M,9.8179,M,,*7F
$GNRMC,024008.70,A,3039.11490842,N,12047.31547022,E,0.038,320.3,150120,5.8,W,A*3D
#HEADINGA,COM2,0,76.0,FINE,2088,268826.700,429102,18,18;SOL_COMPUTED,L1_FLOAT,16.1338,101.2536,62.5992,0.0000,42.9255,150.8775,"999",10,5,5,0,3,00,0,11*76ea507f
$GNGGA,024008.80,3039.11491020,N,12047.31546843,E,1,07,1.8,23.3554,M,9.8179,M,,*7F
$GNRMC,024008.80,A,3039.11491020,N,12047.31546843,E,0.037,320.4,150120,5.8,W,A*39
#HEADINGA,COM2,0,76.0,FINE,2088,268826.800,429202,18,18;SOL_COMPUTED,L1_FLOAT,16.0574,101.2124,62.2584,0.0000,42.6237,151.7722,"999",10,5,5,0,3,00,0,11*e884ac85
$GNGGA,024008.90,3039.11491057,N,12047.31546719,E,1,07,1.8,23.3774,M,9.8179,M,,*7E
$GNRMC,024008.90,A,3039.11491057,N,12047.31546719,E,0.033,319.1,150120,5.8,W,A*33
#HEADINGA,COM2,0,76.0,FINE,2088,268826.900,429302,18,18;SOL_COMPUTED,L1_FLOAT,16.1492,101.2179,62.8131,0.0000,43.1824,150.6250,"999",10,5,5,0,3,00,0,11*c867ab65
#REFSTATIONA,COM2,0,90.0,UNKNOWN,0,0.000,0,429406,0;00000001,0.000,0.000,0.000,0,NONE,""*2964a248
$GNGGA,024009.00,3039.11490721,N,12047.31546765,E,1,07,1.8,23.3907,M,9.8179,M,,*70
$GNRMC,024009.00,A,3039.11490721,N,12047.31546765,E,0.019,289.2,150120,5.8,W,A*34
#HEADINGA,COM2,0,76.0,FINE,2088,268827.000,429402,23,18;SOL_COMPUTED,L1_FLOAT,16.1300,101.1944,62.7132,0.0000,43.0788,150.8590,"999",10,5,5,0,3,00,0,11*c036149a
$GNGGA,024009.10,3039.11491077,N,12047.31546442,E,1,07,1.8,23.3802,M,9.8179,M,,*76
$GNRMC,024009.10,A,3039.11491077,N,12047.31546442,E,0.024,298.8,150120,5.8,W,A*32
#HEADINGA,COM2,0,76.0,FINE,2088,268827.100,429502,19,18;SOL_COMPUTED,L1_FLOAT,16.1102,101.1709,62.5621,0.0000,42.9041,151.1254,"999",10,5,5,0,3,00,0,11*ee80c388
$GNGGA,024009.20,3039.11491679,N,12047.31546305,E,1,07,1.8,23.3694,M,9.8179,M,,*78
$GNRMC,024009.20,A,3039.11491679,N,12047.31546305,E,0.031,325.3,150120,5.8,W,A*35
#HEADINGA,COM2,0,76.0,FINE,2088,268827.200,429603,18,18;SOL_COMPUTED,L1_FLOAT,16.3674,101.4550,62.7124,0.0000,43.3694,71.2678,"999",10,5,5,0,3,00,0,11*a0772496
$GNGGA,024009.30,3039.11491629,N,12047.31545997,E,1,07,1.8,23.3778,M,9.8179,M,,*7D
$GNRMC,024009.30,A,3039.11491629,N,12047.31545997,E,0.028,308.6,150120,5.8,W,A*31
#HEADINGA,COM2,0,76.0,FINE,2088,268827.300,429702,18,18;SOL_COMPUTED,L1_FLOAT,16.3610,101.3709,63.1734,0.0000,43.9872,71.4143,"999",11,5,5,0,3,00,0,11*daff8d3f
$GNGGA,024009.40,3039.11491708,N,12047.31545453,E,1,07,1.8,23.3942,M,9.8179,M,,*7A
$GNRMC,024009.40,A,3039.11491708,N,12047.31545453,E,0.034,293.1,150120,5.8,W,A*38
#HEADINGA,COM2,0,76.0,FINE,2088,268827.400,429802,19,18;SOL_COMPUTED,L1_FLOAT,16.3204,101.4547,63.1644,0.0000,44.1719,71.5878,"999",11,5,5,0,3,00,0,11*ae9db6e4
$GNGGA,024009.50,3039.11492031,N,12047.31545211,E,1,07,1.8,23.3965,M,9.8179,M,,*70
$GNRMC,024009.50,A,3039.11492031,N,12047.31545211,E,0.038,306.9,150120,5.8,W,A*3E
#HEADINGA,COM2,0,76.0,FINE,2088,268827.500,429902,18,18;SOL_COMPUTED,L1_FLOAT,16.3157,101.4697,63.0979,0.0000,44.0996,71.5921,"999",11,5,5,0,3,00,0,11*a83a71bc
$GNGGA,024009.60,3039.11492207,N,12047.31545105,E,1,08,1.8,23.4084,M,9.8179,M,,*7C
$GNRMC,024009.60,A,3039.11492207,N,12047.31545105,E,0.037,315.0,150120,5.8,W,A*38
#HEADINGA,COM2,0,76.0,FINE,2088,268827.600,430002,19,18;SOL_COMPUTED,L1_FLOAT,16.3231,101.4717,62.5562,0.0000,43.2777,71.4266,"999",11,5,5,0,3,00,0,11*168dcd2f
$GNGGA,024009.70,3039.11492469,N,12047.31544899,E,1,08,1.8,23.4148,M,9.8179,M,,*7F
$GNRMC,024009.70,A,3039.11492469,N,12047.31544899,E,0.040,320.3,150120,5.8,W,A*3F
#HEADINGA,COM2,0,76.0,FINE,2088,268827.700,430102,19,18;SOL_COMPUTED,L1_FLOAT,16.3478,101.4251,63.0707,0.0000,43.9257,71.4486,"999",11,5,5,0,3,00,0,11*b0492f18
$GNGGA,024009.80,3039.11492465,N,12047.31544981,E,1,08,1.8,23.4267,M,9.8179,M,,*7A
$GNRMC,024009.80,A,3039.11492465,N,12047.31544981,E,0.030,323.0,150120,5.8,W,A*33
#HEADINGA,COM2,0,76.0,FINE,2088,268827.800,430202,19,18;SOL_COMPUTED,L1_FLOAT,16.2859,101.4440,62.7601,0.0000,43.6479,71.6434,"999",11,5,5,0,3,00,0,11*94398540
$GNGGA,024009.90,3039.11492777,N,12047.31544546,E,1,08,1.8,23.4195,M,9.8179,M,,*72
$GNRMC,024009.90,A,3039.11492777,N,12047.31544546,E,0.037,311.3,150120,5.8,W,A*30
#HEADINGA,COM2,0,76.0,FINE,2088,268827.900,430302,19,18;SOL_COMPUTED,L1_FLOAT,16.3285,101.3665,63.2521,0.0000,44.1928,71.5827,"999",11,5,5,0,3,00,0,11*d859d02d
#REFSTATIONA,COM2,0,90.0,UNKNOWN,0,0.000,0,430406,0;00000001,0.000,0.000,0.000,0,NONE,""*1153d1ca
$GNGGA,024010.00,3039.11492744,N,12047.31544243,E,1,08,1.8,23.4237,M,9.8179,M,,*7A
$GNRMC,024010.00,A,3039.11492744,N,12047.31544243,E,0.036,280.2,150120,5.8,W,A*3A
#HEADINGA,COM2,0,76.0,FINE,2088,268828.000,430402,23,18;SOL_COMPUTED,L1_FLOAT,16.3340,101.3706,62.7555,0.0000,43.4371,71.4360,"999",11,5,5,0,3,00,0,11*0f5bebd7
$GNGGA,024010.10,3039.11492839,N,12047.31544249,E,1,08,1.8,23.4343,M,9.8179,M,,*76
$GNRMC,024010.10,A,3039.11492839,N,12047.31544249,E,0.028,294.4,150120,5.8,W,A*38
#HEADINGA,COM2,0,76.0,FINE,2088,268828.100,430502,20,18;SOL_COMPUTED,L1_FLOAT,16.2967,101.3162,63.2098,0.0000,44.1624,71.7156,"999",11,5,5,0,3,00,0,11*8e29990c
$GNGGA,024010.20,3039.11493051,N,12047.31544299,E,1,08,1.8,23.4482,M,9.8179,M,,*75
$GNRMC,024010.20,A,3039.11493051,N,12047.31544299,E,0.026,325.2,150120,5.8,W,A*32
#HEADINGA,COM2,0,76.0,FINE,2088,268828.200,430602,19,18;SOL_COMPUTED,L1_FLOAT,16.5784,101.5088,63.6789,0.0000,42.6786,142.3060,"999",11,5,5,0,3,00,0,11*33132427
$GNGGA,024010.30,3039.11493250,N,12047.31543950,E,1,08,1.8,23.4423,M,9.8179,M,,*75
$GNRMC,024010.30,A,3039.11493250,N,12047.31543950,E,0.028,297.3,150120,5.8,W,A*3E
#HEADINGA,COM2,0,76.0,FINE,2088,268828.300,430702,19,18;SOL_COMPUTED,L1_FLOAT,16.6156,101.4793,63.8202,0.0000,42.7803,141.9155,"999",11,5,5,0,3,00,0,11*add83b10
$GNGGA,024010.40,3039.11493111,N,12047.31543508,E,1,08,1.8,23.4473,M,9.8179,M,,*70
$GNRMC,024010.40,A,3039.11493111,N,12047.31543508,E,0.056,236.5,150120,5.8,W,A*3A
#HEADINGA,COM2,0,76.0,FINE,2088,268828.400,430802,19,18;SOL_COMPUTED,L1_FLOAT,16.6119,101.4899,63.3021,0.0000,42.0261,142.2184,"999",11,5,5,0,3,00,0,11*15334571
$GNGGA,024010.50,3039.11493231,N,12047.31542861,E,1,08,1.8,23.4522,M,9.8179,M,,*76
$GNRMC,024010.50,A,3039.11493231,N,12047.31542861,E,0.077,244.8,150120,5.8,W,A*32
#HEADINGA,COM2,0,76.0,FINE,2088,268828.500,430902,19,18;SOL_COMPUTED,L1_FLOAT,16.5536,101.4802,63.3922,0.0000,42.3023,142.6756,"999",11,5,5,0,3,00,0,11*4aa0f20c
$GNGGA,024010.60,3039.11493732,N,12047.31542486,E,1,08,1.8,23.4635,M,9.8179,M,,*73
$GNRMC,024010.60,A,3039.11493732,N,12047.31542486,E,0.071,303.2,150120,5.8,W,A*3C
#HEADINGA,COM2,0,76.0,FINE,2088,268828.600,431002,19,18;SOL_COMPUTED,L1_FLOAT,16.5690,101.5117,63.8261,0.0000,42.9334,142.3198,"999",11,5,5,0,3,00,0,11*12064f25
$GNGGA,024010.70,3039.11493693,N,12047.31542751,E,1,08,1.8,23.4839,M,9.8179,M,,*73
$GNRMC,024010.70,A,3039.11493693,N,12047.31542751,E,0.029,322.0,150120,5.8,W,A*32
#HEADINGA,COM2,0,76.0,FINE,2088,268828.700,431102,19,18;SOL_COMPUTED,L1_FLOAT,16.6037,101.4928,63.4663,0.0000,42.2941,142.2121,"999",11,5,5,0,3,00,0,11*7ec815eb
$GNGGA,024010.80,3039.11493882,N,12047.31542819,E,1,08,1.8,23.4821,M,9.8179,M,,*78
$GNRMC,024010.80,A,3039.11493882,N,12047.31542819,E,0.018,343.1,150120,5.8,W,A*34
#HEADINGA,COM2,0,76.0,FINE,2088,268828.800,431202,19,18;SOL_COMPUTED,L1_FLOAT,16.6186,101.4719,64.0387,0.0000,43.1102,141.7871,"999",11,5,5,0,3,00,0,11*94fc79b4
$GNGGA,024010.90,3039.11493856,N,12047.31542896,E,1,08,1.8,23.4961,M,9.8179,M,,*72
$GNRMC,024010.90,A,3039.11493856,N,12047.31542896,E,0.004,59.3,150120,5.8,W,A*0C
#HEADINGA,COM2,0,76.0,FINE,2088,268828.900,431302,19,18;SOL_COMPUTED,L1_FLOAT,16.5787,101.4942,63.4942,0.0000,42.4029,142.4177,"999",11,5,5,0,3,00,0,11*e73e221b
#REFSTATIONA,COM2,0,90.0,UNKNOWN,0,0.000,0,431406,0;00000001,0.000,0.000,0.000,0,NONE,""*56402731
$GNGGA,024011.00,3039.11494093,N,12047.31542622,E,1,08,1.8,23.4874,M,9.8179,M,,*78
$GNRMC,024011.00,A,3039.11494093,N,12047.31542622,E,0.009,277.9,150120,5.8,W,A*3A
#HEADINGA,COM2,0,76.0,FINE,2088,268829.000,431402,23,18;SOL_COMPUTED,L1_FLOAT,16.5901,101.4329,64.1603,0.0000,43.3532,141.9691,"999",11,5,5,0,3,00,0,11*87e53032
$GNGGA,024011.10,3039.11494203,N,12047.31542609,E,1,08,1.8,23.4889,M,9.8179,M,,*79
$GNRMC,024011.10,A,3039.11494203,N,12047.31542609,E,0.004,257.9,150120,5.8,W,A*36
#HEADINGA,COM2,0,76.0,FINE,2088,268829.100,431502,19,18;SOL_COMPUTED,L1_FLOAT,16.8261,101.6544,63.8613,0.0000,42.0278,138.2403,"999",11,5,5,0,3,00,0,11*a017409d
$GNGGA,024011.20,3039.11494579,N,12047.31542347,E,1,08,1.8,23.4975,M,9.8179,M,,*7D
$GNRMC,024011.20,A,3039.11494579,N,12047.31542347,E,0.023,336.5,150120,5.8,W,A*3F
#HEADINGA,COM2,0,76.0,FINE,2088,268829.200,431602,19,18;SOL_COMPUTED,L1_FLOAT,16.7933,101.6207,63.4872,0.0000,41.5368,138.7018,"999",11,5,5,0,3,00,0,11*20598a40
$GNGGA,024011.30,3039.11494691,N,12047.31542232,E,1,08,1.8,23.5207,M,9.8179,M,,*75
$GNRMC,024011.30,A,3039.11494691,N,12047.31542232,E,0.023,338.2,150120,5.8,W,A*31
#HEADINGA,COM2,0,76.0,FINE,2088,268829.300,431702,18,18;SOL_COMPUTED,L1_FLOAT,16.8440,101.6046,63.7813,0.0000,41.8337,138.1380,"999",11,5,5,0,3,00,0,11*0f86c119
$GNGGA,024011.40,3039.11494355,N,12047.31542088,E,1,08,1.8,23.5287,M,9.8179,M,,*74
$GNRMC,024011.40,A,3039.11494355,N,12047.31542088,E,0.062,205.0,150120,5.8,W,A*30
#HEADINGA,COM2,0,76.0,FINE,2088,268829.400,431802,18,18;SOL_COMPUTED,L1_FLOAT,16.8753,101.5233,64.1681,0.0000,42.2870,137.6838,"999",11,5,5,0,3,00,0,11*6be09507
$GNGGA,024011.50,3039.11494200,N,12047.31541609,E,1,08,1.8,23.5433,M,9.8179,M,,*71
$GNRMC,024011.50,A,3039.11494200,N,12047.31541609,E,0.088,213.4,150120,5.8,W,A*3B
#HEADINGA,COM2,0,76.0,FINE,2088,268829.500,431902,18,18;SOL_COMPUTED,L1_FLOAT,16.8923,101.5491,63.9545,0.0000,41.9393,137.6590,"999",11,5,5,0,3,00,0,11*b5d99db3
$GNGGA,024011.60,3039.11494423,N,12047.31541297,E,1,08,1.8,23.5412,M,9.8179,M,,*75
$GNRMC,024011.60,A,3039.11494423,N,12047.31541297,E,0.068,227.7,150120,5.8,W,A*36
#HEADINGA,COM2,0,76.0,FINE,2088,268829.600,432002,18,18;SOL_COMPUTED,L1_FLOAT,16.8410,101.5928,63.9152,0.0000,42.0371,138.1015,"999",11,5,5,0,3,00,0,11*74b5e836
$GNGGA,024011.70,3039.11494595,N,12047.31541414,E,1,08,1.8,23.5400,M,9.8179,M,,*76
$GNRMC,024011.70,A,3039.11494595,N,12047.31541414,E,0.034,227.3,150120,5.8,W,A*3B
#HEADINGA,COM2,0,76.0,FINE,2088,268829.700,432102,18,18;SOL_COMPUTED,L1_FLOAT,16.8768,101.5323,63.9598,0.0000,41.9781,137.7874,"999",11,5,5,0,3,00,0,11*c2c1a1fd
$GNGGA,024011.80,3039.11495009,N,12047.31541144,E,1,08,1.8,23.5382,M,9.8179,M,,*75
$GNRMC,024011.80,A,3039.11495009,N,12047.31541144,E,0.031,298.5,150120,5.8,W,A*32
#HEADINGA,COM2,0,76.0,FINE,2088,268829.800,432202,18,18;SOL_COMPUTED,L1_FLOAT,16.8662,101.5691,64.0231,0.0000,42.1241,137.8444,"999",11,5,5,0,3,00,0,11*84a3b4a9
$GNGGA,024011.90,3039.11495029,N,12047.31541252,E,1,08,1.8,23.5418,M,9.8179,M,,*76
$GNRMC,024011.90,A,3039.11495029,N,12047.31541252,E,0.015,280.6,150120,5.8,W,A*39
#HEADINGA,COM2,0,76.0,FINE,2088,268829.900,432302,18,18;SOL_COMPUTED,L1_FLOAT,16.9168,101.5354,64.0766,0.0000,42.0590,137.4061,"999",11,5,5,0,3,00,0,11*444236bd
#REFSTATIONA,COM2,0,90.0,UNKNOWN,0,0.000,0,432406,0;00000001,0.000,0.000,0.000,0,NONE,""*9f743c3c
$GNGGA,024012.00,3039.11495160,N,12047.31540854,E,1,08,1.8,23.5431,M,9.8179,M,,*76
$GNRMC,024012.00,A,3039.11495160,N,12047.31540854,E,0.032,265.4,150120,5.8,W,A*3E
#HEADINGA,COM2,0,76.0,FINE,2088,268830.000,432402,23,18;SOL_COMPUTED,L1_FLOAT,16.8271,101.5857,64.4739,0.0000,42.9300,137.9346,"999",11,5,5,0,3,00,0,11*af4b4697
$GNGGA,024012.10,3039.11495412,N,12047.31540730,E,1,08,1.8,23.5382,M,9.8179,M,,*75
$GNRMC,024012.10,A,3039.11495412,N,12047.31540730,E,0.030,283.4,150120,5.8,W,A*38
#HEADINGA,COM2,0,76.0,FINE,2088,268830.100,432502,19,18;SOL_COMPUTED,L1_FLOAT,17.1006,101.7006,64.3849,0.0000,41.7984,134.0016,"999",11,5,5,0,3,00,0,11*c6031a9e
$GNGGA,024012.20,3039.11495516,N,12047.31540528,E,1,08,1.8,23.5515,M,9.8179,M,,*70
$GNRMC,024012.20,A,3039.11495516,N,12047.31540528,E,0.032,284.6,150120,5.8,W,A*32
#HEADINGA,COM2,0,76.0,FINE,2088,268830.200,432602,19,18;SOL_COMPUTED,L1_FLOAT,17.1732,101.6538,64.6882,0.0000,42.0558,133.2812,"999",11,5,5,0,3,00,0,11*00072562
$GNGGA,024012.30,3039.11495503,N,12047.31540576,E,1,08,1.8,23.5556,M,9.8179,M,,*79
$GNRMC,024012.30,A,3039.11495503,N,12047.31540576,E,0.023,267.8,150120,5.8,W,A*3F
#HEADINGA,COM2,0,76.0,FINE,2088,268830.300,432702,19,18;SOL_COMPUTED,L1_FLOAT,17.1847,101.6580,64.4257,0.0000,41.6291,133.3299,"999",11,5,5,0,3,00,0,11*a252b58d
$GNGGA,024012.40,3039.11495401,N,12047.31540219,E,1,08,1.8,23.5653,M,9.8179,M,,*75
$GNRMC,024012.40,A,3039.11495401,N,12047.31540219,E,0.041,242.1,150120,5.8,W,A*3F
#HEADINGA,COM2,0,76.0,FINE,2088,268830.400,432802,18,18;SOL_COMPUTED,L1_FLOAT,17.1417,101.6773,64.6506,0.0000,42.0935,133.5512,"999",11,5,5,0,3,00,0,11*2ec13ea5
$GNGGA,024012.50,3039.11495130,N,12047.31540280,E,1,08,1.8,23.5825,M,9.8179,M,,*7C
$GNRMC,024012.50,A,3039.11495130,N,12047.31540280,E,0.052,212.9,150120,5.8,W,A*36
#HEADINGA,COM2,0,76.0,FINE,2088,268830.500,432902,18,18;SOL_COMPUTED,L1_FLOAT,17.1574,101.5901,64.3932,0.0000,41.6036,133.5617,"999",11,5,5,0,3,00,0,11*b30caed2
$GNGGA,024012.60,3039.11495295,N,12047.31540476,E,1,08,1.8,23.5815,M,9.8179,M,,*7F
$GNRMC,024012.60,A,3039.11495295,N,12047.31540476,E,0.022,196.4,150120,5.8,W,A*33
#HEADINGA,COM2,0,76.0,FINE,2088,268830.600,433002,18,18;SOL_COMPUTED,L1_FLOAT,17.1887,101.5469,64.6007,0.0000,41.8182,133.2137,"999",11,5,5,0,3,00,0,11*9e05d0e3
$GNGGA,024012.70,3039.11495432,N,12047.31540660,E,1,08,1.8,23.5855,M,9.8179,M,,*74
$GNRMC,024012.70,A,3039.11495432,N,12047.31540660,E,0.013,133.6,150120,5.8,W,A*33
#HEADINGA,COM2,0,76.0,FINE,2088,268830.700,433102,18,18;SOL_COMPUTED,L1_FLOAT,17.1678,101.6614,64.5705,0.0000,41.8988,133.3968,"999",11,5,5,0,3,00,0,11*82c00d71
$GNGGA,024012.80,3039.11495654,N,12047.31540490,E,1,08,1.8,23.5881,M,9.8179,M,,*7D
$GNRMC,024012.80,A,3039.11495654,N,12047.31540490,E,0.003,71.7,150120,5.8,W,A*04
#HEADINGA,COM2,0,76.0,FINE,2088,268830.800,433202,18,18;SOL_COMPUTED,L1_FLOAT,17.1771,101.6495,64.4811,0.0000,41.7324,133.3725,"999",11,5,5,0,3,00,0,11*88fe2a8d
$GNGGA,024012.90,3039.11495873,N,12047.31540576,E,1,08,1.8,23.5744,M,9.8179,M,,*78
$GNRMC,024012.90,A,3039.11495873,N,12047.31540576,E,0.009,59.8,150120,5.8,W,A*08
#HEADINGA,COM2,0,76.0,FINE,2088,268830.900,433302,18,18;SOL_COMPUTED,L1_FLOAT,17.1929,101.5980,64.5720,0.0000,41.8003,133.2044,"999",11,5,5,0,3,00,0,11*e755b4b7
#REFSTATIONA,COM2,0,90.0,UNKNOWN,0,0.000,0,433406,0;00000001,0.000,0.000,0.000,0,NONE,""*d867cac7
$GNGGA,024013.00,3039.11496004,N,12047.31540292,E,1,08,1.8,23.5757,M,9.8179,M,,*74
$GNRMC,024013.00,A,3039.11496004,N,12047.31540292,E,0.005,307.9,150120,5.8,W,A*33
#HEADINGA,COM2,0,76.0,FINE,2088,268831.000,433402,23,18;SOL_COMPUTED,L1_FLOAT,17.1608,101.6992,64.6681,0.0000,42.0967,133.4090,"999",11,5,5,0,3,00,0,11*11155eb9
$GNGGA,024013.10,3039.11496010,N,12047.31540183,E,1,08,1.8,23.5855,M,9.8179,M,,*7E
$GNRMC,024013.10,A,3039.11496010,N,12047.31540183,E,0.007,256.5,150120,5.8,W,A*3F
#HEADINGA,COM2,0,76.0,FINE,2088,268831.100,433502,19,18;SOL_COMPUTED,L1_FLOAT,17.3946,101.6851,64.8808,0.0000,41.4836,129.8697,"999",11,5,5,0,3,00,0,11*22bc3c18
$GNGGA,024013.20,3039.11496247,N,12047.31540530,E,1,08,1.8,23.5944,M,9.8179,M,,*70
$GNRMC,024013.20,A,3039.11496247,N,12047.31540530,E,0.029,36.8,150120,5.8,W,A*05
#HEADINGA,COM2,0,76.0,FINE,2088,268831.200,433602,19,18;SOL_COMPUTED,L1_FLOAT,17.3797,101.7668,64.5533,0.0000,41.0783,130.1498,"999",11,5,5,0,3,00,0,11*09bc0951
$GNGGA,024013.30,3039.11496205,N,12047.31540919,E,1,08,1.8,23.6039,M,9.8179,M,,*70
$GNRMC,024013.30,A,3039.11496205,N,12047.31540919,E,0.037,71.9,150120,5.8,W,A*08
#HEADINGA,COM2,0,76.0,FINE,2088,268831.300,433702,18,18;SOL_COMPUTED,L1_FLOAT,17.3910,101.7247,64.9634,0.0000,41.6505,129.8599,"999",11,5,5,0,3,00,0,11*60bf3c21
$GNGGA,024013.40,3039.11496232,N,12047.31540894,E,1,08,1.8,23.6030,M,9.8179,M,,*7E
$GNRMC,024013.40,A,3039.11496232,N,12047.31540894,E,0.029,91.6,150120,5.8,W,A*01
#HEADINGA,COM2,0,76.0,FINE,2088,268831.400,433802,18,18;SOL_COMPUTED,L1_FLOAT,17.3910,101.8339,64.8277,0.0000,41.5217,129.9333,"999",11,5,5,0,3,00,0,11*3b5c7423
$GNGGA,024013.50,3039.11496385,N,12047.31540367,E,1,08,1.8,23.5949,M,9.8179,M,,*71
$GNRMC,024013.50,A,3039.11496385,N,12047.31540367,E,0.020,217.8,150120,5.8,W,A*31
#HEADINGA,COM2,0,76.0,FINE,2088,268831.500,433902,18,18;SOL_COMPUTED,L1_FLOAT,17.3719,101.8020,64.8264,0.0000,41.5426,130.0788,"999",11,5,5,0,3,00,0,11*ee8a14bb
$GNGGA,024013.60,3039.11496339,N,12047.31540187,E,1,08,1.8,23.6148,M,9.8179,M,,*73
$GNRMC,024013.60,A,3039.11496339,N,12047.31540187,E,0.024,225.8,150120,5.8,W,A*3C
#HEADINGA,COM2,0,76.0,FINE,2088,268831.600,434002,18,18;SOL_COMPUTED,L1_FLOAT,17.4010,101.6551,64.8453,0.0000,41.3994,129.8515,"999",11,5,5,0,3,00,0,11*39c3c760
$GNGGA,024013.70,3039.11496405,N,12047.31540347,E,1,08,1.8,23.6251,M,9.8179,M,,*7F
$GNRMC,024013.70,A,3039.11496405,N,12047.31540347,E,0.009,197.0,150120,5.8,W,A*36
#HEADINGA,COM2,0,76.0,FINE,2088,268831.700,434102,18,18;SOL_COMPUTED,L1_FLOAT,17.3392,101.8520,64.8245,0.0000,41.6580,130.3305,"999",11,5,5,0,3,00,0,11*2329ed25
$GNGGA,024013.80,3039.11496627,N,12047.31540350,E,1,08,1.8,23.6376,M,9.8179,M,,*70
$GNRMC,024013.80,A,3039.11496627,N,12047.31540350,E,0.009,16.3,150120,5.8,W,A*06
#HEADINGA,COM2,0,76.0,FINE,2088,268831.800,434202,18,18;SOL_COMPUTED,L1_FLOAT,17.3879,101.8204,64.9003,0.0000,41.6358,129.9287,"999",11,5,5,0,3,00,0,11*34ba7847
$GNGGA,024013.90,3039.11496815,N,12047.31540262,E,1,08,1.8,23.6297,M,9.8179,M,,*70
$GNRMC,024013.90,A,3039.11496815,N,12047.31540262,E,0.010,356.0,150120,5.8,W,A*34
#HEADINGA,COM2,0,76.0,FINE,2088,268831.900,434302,18,18;SOL_COMPUTED,L1_FLOAT,17.4088,101.8335,64.9597,0.0000,41.6892,129.7450,"999",11,5,5,0,3,00,0,11*7371717d
#REFSTATIONA,COM2,0,90.0,UNKNOWN,0,0.000,0,434406,0;00000001,0.000,0.000,0.000,0,NONE,""*d66d0c67
$GNGGA,024014.00,3039.11496722,N,12047.31539893,E,1,08,1.8,23.6389,M,9.8179,M,,*71
$GNRMC,024014.00,A,3039.11496722,N,12047.31539893,E,0.024,239.6,150120,5.8,W,A*32
#HEADINGA,COM2,0,76.0,FINE,2088,268832.000,434402,23,18;SOL_COMPUTED,L1_FLOAT,17.3661,101.7254,64.8290,0.0000,41.5111,130.1317,"999",11,5,5,0,3,00,0,11*ceaae52c
$GNGGA,024014.10,3039.11497044,N,12047.31539785,E,1,08,1.8,23.6407,M,9.8179,M,,*7F
$GNRMC,024014.10,A,3039.11497044,N,12047.31539785,E,0.022,308.1,150120,5.8,W,A*3F
#HEADINGA,COM2,0,76.0,FINE,2088,268832.100,434502,19,18;SOL_COMPUTED,L1_FLOAT,17.4033,101.7866,65.0410,0.0000,41.7967,129.7485,"999",11,5,5,0,3,00,0,11*37fa9cc4
$GNGGA,024014.20,3039.11497060,N,12047.31540151,E,1,08,1.8,23.6573,M,9.8179,M,,*79
$GNRMC,024014.20,A,3039.11497060,N,12047.31540151,E,0.022,24.8,150120,5.8,W,A*0F
#HEADINGA,COM2,0,76.0,FINE,2088,268832.200,434602,19,18;SOL_COMPUTED,L1_FLOAT,17.5810,102.0061,64.9000,0.0000,40.9784,126.9374,"999",11,5,5,0,3,00,0,11*68752aee
$GNGGA,024014.30,3039.11497087,N,12047.31540023,E,1,08,1.8,23.6627,M,9.8179,M,,*77
$GNRMC,024014.30,A,3039.11497087,N,12047.31540023,E,0.008,0.5,150120,5.8,W,A*30
#HEADINGA,COM2,0,76.0,FINE,2088,268832.300,434702,18,18;SOL_COMPUTED,L1_FLOAT,17.6204,102.0398,65.1164,0.0000,41.2486,126.5487,"999",11,5,5,0,3,00,0,11*74cdbd07
$GNGGA,024014.40,3039.11497360,N,12047.31539955,E,1,08,1.8,23.6535,M,9.8179,M,,*7C
$GNRMC,024014.40,A,3039.11497360,N,12047.31539955,E,0.017,354.8,150120,5.8,W,A*3A
#HEADINGA,COM2,0,76.0,FINE,2088,268832.400,434802,18,18;SOL_COMPUTED,L1_FLOAT,17.6049,102.0798,64.9472,0.0000,41.0590,126.7470,"999",11,5,5,0,3,00,0,11*156fbfb7
$GNGGA,024014.50,3039.11497404,N,12047.31539837,E,1,08,1.8,23.6573,M,9.8179,M,,*7F
$GNRMC,024014.50,A,3039.11497404,N,12047.31539837,E,0.013,330.2,150120,5.8,W,A*37
#HEADINGA,COM2,0,76.0,FINE,2088,268832.500,434902,18,18;SOL_COMPUTED,L1_FLOAT,17.5734,101.9647,65.3239,0.0000,41.6241,126.7867,"999",11,5,5,0,3,00,0,11*316d364d
$GNGGA,024014.60,3039.11497679,N,12047.31540044,E,1,08,1.8,23.6437,M,9.8179,M,,*77
$GNRMC,024014.60,A,3039.11497679,N,12047.31540044,E,0.023,13.2,150120,5.8,W,A*0F
#HEADINGA,COM2,0,76.0,FINE,2088,268832.600,435002,18,18;SOL_COMPUTED,L1_FLOAT,17.6287,102.0181,65.2596,0.0000,41.4376,126.4238,"999",11,5,5,0,3,00,0,11*ca58a5f3
$GNGGA,024014.70,3039.11497816,N,12047.31540163,E,1,08,1.8,23.6310,M,9.8179,M,,*77
$GNRMC,024014.70,A,3039.11497816,N,12047.31540163,E,0.023,23.3,150120,5.8,W,A*0F
#HEADINGA,COM2,0,76.0,FINE,2088,268832.700,435102,18,18;SOL_COMPUTED,L1_FLOAT,17.6188,102.0431,65.4092,0.0000,41.7196,126.4215,"999",11,5,5,0,3,00,0,11*ea94a16d
$GNGGA,024014.80,3039.11497951,N,12047.31539979,E,1,08,1.8,23.6215,M,9.8179,M,,*73
$GNRMC,024014.80,A,3039.11497951,N,12047.31539979,E,0.018,2.2,150120,5.8,W,A*35
#HEADINGA,COM2,0,76.0,FINE,2088,268832.800,435202,18,18;SOL_COMPUTED,L1_FLOAT,17.6307,102.0146,65.5919,0.0000,41.9608,126.2450,"999",11,5,5,0,3,00,0,11*035a97e9
$GNGGA,024014.90,3039.11497964,N,12047.31539955,E,1,08,1.8,23.6045,M,9.8179,M,,*7D
$GNRMC,024014.90,A,3039.11497964,N,12047.31539955,E,0.010,350.9,150120,5.8,W,A*3B
#HEADINGA,COM2,0,76.0,FINE,2088,268832.900,435302,18,18;SOL_COMPUTED,L1_FLOAT,17.6206,101.9459,65.8410,0.0000,42.3351,126.1907,"999",11,5,5,0,3,00,0,11*a42bfa2d
#REFSTATIONA,COM2,0,90.0,UNKNOWN,0,0.000,0,435406,0;00000001,0.000,0.000,0.000,0,NONE,""*917efa9c
$GNGGA,024015.00,3039.11497771,N,12047.31539840,E,1,08,1.8,23.6325,M,9.8179,M,,*7F
$GNRMC,024015.00,A,3039.11497771,N,12047.31539840,E,0.007,251.0,150120,5.8,W,A*33
#HEADINGA,COM2,0,76.0,FINE,2088,268833.000,435402,23,18;SOL_COMPUTED,L1_FLOAT,17.5472,101.9812,65.1127,0.0000,41.3738,127.0948,"999",11,5,5,0,3,00,0,11*adbe917a
$GNGGA,024015.10,3039.11498000,N,12047.31539571,E,1,08,1.8,23.6459,M,9.8179,M,,*73
$GNRMC,024015.10,A,3039.11498000,N,12047.31539571,E,0.018,310.2,150120,5.8,W,A*3B
#HEADINGA,COM2,0,76.0,FINE,2088,268833.100,435502,20,18;SOL_COMPUTED,L1_FLOAT,17.5575,101.9655,65.5719,0.0000,42.0656,126.7883,"999",11,5,5,0,3,00,0,11*f02acb84
$GNGGA,024015.20,3039.11498073,N,12047.31539813,E,1,08,1.8,23.6562,M,9.8179,M,,*74
$GNRMC,024015.20,A,3039.11498073,N,12047.31539813,E,0.015,354.9,150120,5.8,W,A*33
#HEADINGA,COM2,0,76.0,FINE,2088,268833.200,435602,19,18;SOL_COMPUTED,L1_FLOAT,17.7991,102.3598,65.5112,0.0000,41.4074,123.6117,"999",11,5,5,0,3,00,0,11*4a5dd3e0
$GNGGA,024015.30,3039.11498322,N,12047.31539526,E,1,08,1.8,23.6473,M,9.8179,M,,*78
$GNRMC,024015.30,A,3039.11498322,N,12047.31539526,E,0.023,322.1,150120,5.8,W,A*32
#HEADINGA,COM2,0,76.0,FINE,2088,268833.300,435702,19,18;SOL_COMPUTED,L1_FLOAT,17.7258,102.3443,65.3190,0.0000,41.2605,124.2213,"999",11,5,5,0,3,00,0,11*34f128e9
$GNGGA,024015.40,3039.11498626,N,12047.31539039,E,1,08,1.8,23.6332,M,9.8179,M,,*77
$GNRMC,024015.40,A,3039.11498626,N,12047.31539039,E,0.045,299.3,150120,5.8,W,A*3C
#HEADINGA,COM2,0,76.0,FINE,2088,268833.400,435802,18,18;SOL_COMPUTED,L1_FLOAT,17.7896,102.3137,65.9106,0.0000,42.0307,123.4812,"999",11,5,5,0,3,00,0,11*382bc2f0
$GNGGA,024015.50,3039.11498249,N,12047.31539180,E,1,08,1.8,23.6600,M,9.8179,M,,*7C
$GNRMC,024015.50,A,3039.11498249,N,12047.31539180,E,0.041,224.4,150120,5.8,W,A*36
#HEADINGA,COM2,0,76.0,FINE,2088,268833.500,435902,18,18;SOL_COMPUTED,L1_FLOAT,17.7716,102.3740,65.6758,0.0000,41.7515,123.7273,"999",11,5,5,0,3,00,0,11*cc6eeedf
$GNGGA,024015.60,3039.11498273,N,12047.31539344,E,1,08,1.8,23.6600,M,9.8179,M,,*7C
$GNRMC,024015.60,A,3039.11498273,N,12047.31539344,E,0.024,207.9,150120,5.8,W,A*39
#HEADINGA,COM2,0,76.0,FINE,2088,268833.600,436002,18,18;SOL_COMPUTED,L1_FLOAT,17.7631,102.3760,65.3878,0.0000,41.3156,123.9336,"999",11,5,5,0,3,00,0,11*7035456c
$GNGGA,024015.70,3039.11498606,N,12047.31539271,E,1,08,1.8,23.6405,M,9.8179,M,,*7B
$GNRMC,024015.70,A,3039.11498606,N,12047.31539271,E,0.014,306.0,150120,5.8,W,A*33
#HEADINGA,COM2,0,76.0,FINE,2088,268833.700,436102,18,18;SOL_COMPUTED,L1_FLOAT,17.8100,102.3087,65.7436,0.0000,41.7085,123.4316,"999",11,5,5,0,3,00,0,11*ca5a8ea5
$GNGGA,024015.80,3039.11498562,N,12047.31539467,E,1,08,1.8,23.6350,M,9.8179,M,,*73
$GNRMC,024015.80,A,3039.11498562,N,12047.31539467,E,0.002,197.6,150120,5.8,W,A*37
#HEADINGA,COM2,0,76.0,FINE,2088,268833.800,436201,19,18;SOL_COMPUTED,L1_FLOAT,17.7434,102.3639,65.5763,0.0000,41.6506,123.9812,"999",11,5,5,0,3,00,0,11*eb51d7aa
$GNGGA,024015.90,3039.11498544,N,12047.31539499,E,1,08,1.8,23.6405,M,9.8179,M,,*70
$GNRMC,024015.90,A,3039.11498544,N,12047.31539499,E,0.004,176.0,150120,5.8,W,A*3C
#HEADINGA,COM2,0,76.0,FINE,2088,268833.900,436302,19,18;SOL_COMPUTED,L1_FLOAT,17.7756,102.3828,65.5399,0.0000,41.5367,123.7775,"999",11,5,5,0,3,00,0,11*e9b91307
#REFSTATIONA,COM2,0,90.0,UNKNOWN,0,0.000,0,436406,0;00000001,0.000,0.000,0.000,0,NONE,""*584ae191
$GNGGA,024016.00,3039.11498083,N,12047.31539338,E,1,08,1.8,23.6698,M,9.8179,M,,*7E
$GNRMC,024016.00,A,3039.11498083,N,12047.31539338,E,0.061,198.5,150120,5.8,W,A*32
#HEADINGA,COM2,0,76.0,FINE,2088,268834.000,436402,23,18;SOL_COMPUTED,L1_FLOAT,17.7333,102.2947,65.1571,0.0000,40.9500,124.2651,"999",11,5,5,0,3,00,0,11*c99256ae
$GNGGA,024016.10,3039.11498208,N,12047.31539813,E,1,08,1.8,23.6767,M,9.8179,M,,*7D
$GNRMC,024016.10,A,3039.11498208,N,12047.31539813,E,0.032,92.9,150120,5.8,W,A*01
#HEADINGA,COM2,0,76.0,FINE,2088,268834.100,436502,20,18;SOL_COMPUTED,L1_FLOAT,17.7620,102.3112,65.3952,0.0000,41.2710,123.9491,"999",11,5,5,0,3,00,0,11*6efd6b26
$GNGGA,024016.20,3039.11498444,N,12047.31539980,E,1,08,1.8,23.6784,M,9.8179,M,,*76
$GNRMC,024016.20,A,3039.11498444,N,12047.31539980,E,0.044,61.4,150120,5.8,W,A*07
#HEADINGA,COM2,0,76.0,FINE,2088,268834.200,436602,19,18;SOL_COMPUTED,L1_FLOAT,17.8862,102.5650,65.4788,0.0000,41.0458,121.6328,"999",11,5,5,0,3,00,0,11*f67a0c98
$GNGGA,024016.30,3039.11498057,N,12047.31539780,E,1,08,1.8,23.7084,M,9.8179,M,,*79
$GNRMC,024016.30,A,3039.11498057,N,12047.31539780,E,0.055,182.9,150120,5.8,W,A*3F
#HEADINGA,COM2,0,76.0,FINE,2088,268834.300,436702,19,18;SOL_COMPUTED,L1_FLOAT,17.8645,102.4480,65.5096,0.0000,41.0236,121.7684,"999",11,5,5,0,3,00,0,11*cb26e9eb
$GNGGA,024016.40,3039.11497719,N,12047.31539698,E,1,08,1.8,23.7232,M,9.8179,M,,*7B
$GNRMC,024016.40,A,3039.11497719,N,12047.31539698,E,0.087,189.4,150120,5.8,W,A*3B
#HEADINGA,COM2,0,76.0,FINE,2088,268834.400,436802,19,18;SOL_COMPUTED,L1_FLOAT,17.8649,102.5472,65.8845,0.0000,41.7261,121.5813,"999",11,5,5,0,3,00,0,11*51733ba3
$GNGGA,024016.50,3039.11497513,N,12047.31539545,E,1,08,1.8,23.7333,M,9.8179,M,,*71
$GNRMC,024016.50,A,3039.11497513,N,12047.31539545,E,0.092,194.2,150120,5.8,W,A*3F
#HEADINGA,COM2,0,76.0,FINE,2088,268834.500,436902,19,18;SOL_COMPUTED,L1_FLOAT,17.8552,102.5301,65.3833,0.0000,40.9332,121.8981,"999",11,5,5,0,3,00,0,11*f0039efe
$GNGGA,024016.60,3039.11498004,N,12047.31539086,E,1,08,1.8,23.7051,M,9.8179,M,,*73
$GNRMC,024016.60,A,3039.11498004,N,12047.31539086,E,0.049,277.2,150120,5.8,W,A*32
#HEADINGA,COM2,0,76.0,FINE,2088,268834.600,437002,18,18;SOL_COMPUTED,L1_FLOAT,17.9092,102.5505,65.7962,0.0000,41.4853,121.3296,"999",11,5,5,0,3,00,0,11*c2365be7
$GNGGA,024016.70,3039.11498338,N,12047.31539207,E,1,08,1.8,23.6944,M,9.8179,M,,*79
$GNRMC,024016.70,A,3039.11498338,N,12047.31539207,E,0.057,339.0,150120,5.8,W,A*32
#HEADINGA,COM2,0,76.0,FINE,2088,268834.700,437102,18,18;SOL_COMPUTED,L1_FLOAT,17.8857,102.5285,65.7518,0.0000,41.4458,121.5137,"999",11,5,5,0,3,00,0,11*a4fc0b23
$GNGGA,024016.80,3039.11498388,N,12047.31538564,E,1,08,1.8,23.6977,M,9.8179,M,,*7E
$GNRMC,024016.80,A,3039.11498388,N,12047.31538564,E,0.086,281.6,150120,5.8,W,A*3D
#HEADINGA,COM2,0,76.0,FINE,2088,268834.800,437202,18,18;SOL_COMPUTED,L1_FLOAT,17.8829,102.5174,65.8338,0.0000,41.5736,121.4940,"999",11,5,5,0,3,00,0,11*9dd8e46d
$GNGGA,024016.90,3039.11498020,N,12047.31538779,E,1,08,1.8,23.7147,M,9.8179,M,,*7A
$GNRMC,024016.90,A,3039.11498020,N,12047.31538779,E,0.062,230.3,150120,5.8,W,A*36
#HEADINGA,COM2,0,76.0,FINE,2088,268834.900,437302,18,18;SOL_COMPUTED,L1_FLOAT,17.8377,102.5129,65.5506,0.0000,41.2213,121.9448,"999",11,5,5,0,3,00,0,11*b75fc121
#REFSTATIONA,COM2,0,90.0,UNKNOWN,0,0.000,0,437406,0;00000001,0.000,0.000,0.000,0,NONE,""*1f59176a
$GNGGA,024017.00,3039.11497919,N,12047.31538687,E,1,08,1.8,23.7274,M,9.8179,M,,*7D
$GNRMC,024017.00,A,3039.11497919,N,12047.31538687,E,0.059,230.6,150120,5.8,W,A*3F
#HEADINGA,COM2,0,76.0,FINE,2088,268835.000,437402,23,18;SOL_COMPUTED,L1_FLOAT,17.8308,102.5668,65.4574,0.0000,41.1473,122.0394,"999",11,5,5,0,3,00,0,11*92f4b088
$GNGGA,024017.10,3039.11498026,N,12047.31539077,E,1,08,1.8,23.7198,M,9.8179,M,,*7F
$GNRMC,024017.10,A,3039.11498026,N,12047.31539077,E,0.008,196.4,150120,5.8,W,A*35
#HEADINGA,COM2,0,76.0,FINE,2088,268835.100,437502,19,18;SOL_COMPUTED,L1_FLOAT,17.8463,102.5328,65.8127,0.0000,41.6431,121.7607,"999",11,5,5,0,3,00,0,11*1e2629c8
$GNGGA,024017.20,3039.11498367,N,12047.31539213,E,1,08,1.8,23.7138,M,9.8179,M,,*70
$GNRMC,024017.20,A,3039.11498367,N,12047.31539213,E,0.036,16.2,150120,5.8,W,A*02
#HEADINGA,COM2,0,76.0,FINE,2088,268835.200,437602,19,18;SOL_COMPUTED,L1_FLOAT,18.0717,102.5988,66.1484,0.0000,41.4171,118.7175,"999",11,5,5,0,3,00,0,11*95ee7393
$GNGGA,024017.30,3039.11498466,N,12047.31539079,E,1,08,1.8,23.7025,M,9.8179,M,,*74
$GNRMC,024017.30,A,3039.11498466,N,12047.31539079,E,0.024,345.3,150120,5.8,W,A*3C
#HEADINGA,COM2,0,76.0,FINE,2088,268835.300,437702,18,18;SOL_COMPUTED,L1_FLOAT,18.0472,102.7368,65.6831,0.0000,40.8780,119.1073,"999",11,5,5,0,3,00,0,11*91cc9631
$GNGGA,024017.40,3039.11498253,N,12047.31539036,E,1,08,1.8,23.7043,M,9.8179,M,,*78
$GNRMC,024017.40,A,3039.11498253,N,12047.31539036,E,0.019,236.7,150120,5.8,W,A*3F
#HEADINGA,COM2,0,76.0,FINE,2088,268835.400,437802,18,18;SOL_COMPUTED,L1_FLOAT,18.0538,102.6703,66.2209,0.0000,41.6575,118.8033,"999",11,5,5,0,3,00,0,11*f327d013
$GNGGA,024017.50,3039.11497878,N,12047.31538397,E,1,08,1.8,23.7156,M,9.8179,M,,*79
$GNRMC,024017.50,A,3039.11497878,N,12047.31538397,E,0.130,223.2,150120,5.8,W,A*30
#HEADINGA,COM2,0,76.0,FINE,2088,268835.500,437902,18,18;SOL_COMPUTED,L1_FLOAT,18.0574,102.6673,65.6419,0.0000,40.7148,119.0651,"999",11,5,5,0,3,00,0,11*3f4ce68b
$GNGGA,024017.60,3039.11497934,N,12047.31538624,E,1,08,1.8,23.7262,M,9.8179,M,,*7A
$GNRMC,024017.60,A,3039.11497934,N,12047.31538624,E,0.036,244.9,150120,5.8,W,A*3A
#HEADINGA,COM2,0,76.0,FINE,2088,268835.600,438002,18,18;SOL_COMPUTED,L1_FLOAT,18.0847,102.6882,65.9377,0.0000,41.1466,118.7440,"999",11,5,5,0,3,00,0,11*3a22153a
$GNGGA,024017.70,3039.11498106,N,12047.31538808,E,1,08,1.8,23.7324,M,9.8179,M,,*7E
$GNRMC,024017.70,A,3039.11498106,N,12047.31538808,E,0.021,332.8,150120,5.8,W,A*3A
#HEADINGA,COM2,0,76.0,FINE,2088,268835.700,438102,18,18;SOL_COMPUTED,L1_FLOAT,18.0258,102.7034,65.9969,0.0000,41.3942,119.1045,"999",11,5,5,0,3,00,0,11*af95416c
$GNGGA,024017.80,3039.11498070,N,12047.31539262,E,1,08,1.8,23.7249,M,9.8179,M,,*7C
$GNRMC,024017.80,A,3039.11498070,N,12047.31539262,E,0.018,79.8,150120,5.8,W,A*04
#HEADINGA,COM2,0,76.0,FINE,2088,268835.800,438202,18,18;SOL_COMPUTED,L1_FLOAT,18.0864,102.6395,65.9380,0.0000,41.0912,118.7375,"999",11,5,5,0,3,00,0,11*cfbe209f
$GNGGA,024017.90,3039.11498169,N,12047.31539220,E,1,08,1.8,23.7274,M,9.8179,M,,*7C
$GNRMC,024017.90,A,3039.11498169,N,12047.31539220,E,0.012,44.4,150120,5.8,W,A*02
#HEADINGA,COM2,0,76.0,FINE,2088,268835.900,438302,18,18;SOL_COMPUTED,L1_FLOAT,18.0631,102.5872,66.4865,0.0000,41.9907,118.6212,"999",11,5,5,0,3,00,0,11*d434f330
#REFSTATIONA,COM2,0,90.0,UNKNOWN,0,0.000,0,438406,0;00000001,0.000,0.000,0.000,0,NONE,""*445f6cd1
$GNGGA,024018.00,3039.11498195,N,12047.31539529,E,1,08,1.8,23.7193,M,9.8179,M,,*7D
$GNRMC,024018.00,A,3039.11498195,N,12047.31539529,E,0.020,74.9,150120,5.8,W,A*06
#HEADINGA,COM2,0,76.0,FINE,2088,268836.000,438402,23,18;SOL_COMPUTED,L1_FLOAT,18.0625,102.6829,66.2510,0.0000,41.7052,118.7439,"999",11,5,5,0,3,00,0,11*9798dc25
$GNGGA,024018.10,3039.11498415,N,12047.31539535,E,1,08,1.8,23.7155,M,9.8179,M,,*76
$GNRMC,024018.10,A,3039.11498415,N,12047.31539535,E,0.024,39.2,150120,5.8,W,A*01
#HEADINGA,COM2,0,76.0,FINE,2088,268836.100,438502,19,18;SOL_COMPUTED,L1_FLOAT,18.0452,102.6888,65.8187,0.0000,41.0498,119.0728,"999",11,5,5,0,3,00,0,11*497c241d
