
$GNGGA,064841.10,3039.10579488,N,12047.28096059,E,4,32,0.6,4.5353,M,9.8161,M,12,0*70
$GNRMC,064841.10,A,3039.10579488,N,12047.28096059,E,0.026,303.0,170120,5.8,W,D*30
#HEADINGA,COM2,0,31.0,FINE,2088,456539.100,2601486,17,18;SOL_COMPUTED,NARROW_INT,0.4343,161.0492,-16.1700,0.0000,0.5366,1.1926,"999",35,32,32,20,3,01,3,f3*f1b21a8f
$GNGGA,064841.20,3039.10579369,N,12047.28096040,E,4,32,0.6,4.5309,M,9.8161,M,12,0*7C
$GNRMC,064841.20,A,3039.10579369,N,12047.28096040,E,0.043,188.1,170120,5.8,W,D*30
#HEADINGA,COM2,0,31.0,FINE,2088,456539.200,2601587,18,18;SOL_COMPUTED,NARROW_INT,0.4350,160.5975,-15.4601,0.0000,0.5352,1.1911,"999",35,32,32,20,3,01,3,f3*a5de4169
$GNGGA,064841.30,3039.10579376,N,12047.28096144,E,4,32,0.6,4.5322,M,9.8161,M,11,0*7C
$GNRMC,064841.30,A,3039.10579376,N,12047.28096144,E,0.032,85.5,170120,5.8,W,D*04
#HEADINGA,COM2,0,31.0,FINE,2088,456539.300,2601686,17,18;SOL_COMPUTED,NARROW_INT,0.4324,161.0882,-16.0674,0.0000,0.5405,1.1991,"999",35,32,32,20,3,01,3,f3*0f5efd92
$GNGGA,064841.40,3039.10579422,N,12047.28096139,E,4,32,0.6,4.5309,M,9.8161,M,11,0*7E
$GNRMC,064841.40,A,3039.10579422,N,12047.28096139,E,0.017,355.3,170120,5.8,W,D*30
#HEADINGA,COM2,0,31.0,FINE,2088,456539.400,2601786,17,18;SOL_COMPUTED,NARROW_INT,0.4345,161.0137,-15.8558,0.0000,0.5375,1.1939,"999",35,32,32,20,3,01,3,f3*6306a398
$GNGGA,064841.50,3039.10579384,N,12047.28096118,E,4,32,0.6,4.5314,M,9.8161,M,11,0*7B
$GNRMC,064841.50,A,3039.10579384,N,12047.28096118,E,0.015,205.1,170120,5.8,W,D*3D
#HEADINGA,COM2,0,31.0,FINE,2088,456539.500,2601885,18,18;SOL_COMPUTED,NARROW_INT,0.4352,160.6549,-15.7683,0.0000,0.5369,1.1912,"999",35,32,32,20,3,01,3,f3*ecbdeb48
$GNGGA,064841.60,3039.10579385,N,12047.28096113,E,4,32,0.6,4.5285,M,9.8161,M,11,0*7B
$GNRMC,064841.60,A,3039.10579385,N,12047.28096113,E,0.002,287.6,170120,5.8,W,D*3F
#HEADINGA,COM2,0,31.0,FINE,2088,456539.600,2601985,20,18;SOL_COMPUTED,NARROW_INT,0.4390,160.9102,-15.1222,0.0000,0.5298,1.1808,"999",35,32,32,20,3,01,3,f3*22c29243
$GNGGA,064841.70,3039.10579405,N,12047.28096166,E,4,32,0.6,4.5267,M,9.8161,M,11,0*7B
$GNRMC,064841.70,A,3039.10579405,N,12047.28096166,E,0.018,66.7,170120,5.8,W,D*04
#HEADINGA,COM2,0,31.0,FINE,2088,456539.700,2602085,17,18;SOL_COMPUTED,NARROW_INT,0.4385,161.0619,-14.6334,0.0000,0.5290,1.1821,"999",35,32,32,20,3,01,3,f3*5cd72ad5
$GNGGA,064841.80,3039.10579335,N,12047.28096320,E,4,32,0.6,4.5310,M,9.8161,M,11,0*71
$GNRMC,064841.80,A,3039.10579335,N,12047.28096320,E,0.054,117.9,170120,5.8,W,D*3E
#HEADINGA,COM2,0,31.0,FINE,2088,456539.800,2602185,17,18;SOL_COMPUTED,NARROW_INT,0.4365,161.3202,-14.6397,0.0000,0.5312,1.1925,"999",35,32,32,20,3,01,3,f3*5621a629
$GNGGA,064841.90,3039.10579391,N,12047.28096132,E,4,32,0.6,4.5196,M,9.8161,M,11,0*73
$GNRMC,064841.90,A,3039.10579391,N,12047.28096132,E,0.062,289.1,170120,5.8,W,D*39
#HEADINGA,COM2,0,31.0,FINE,2088,456539.900,2602285,17,18;SOL_COMPUTED,NARROW_INT,0.4366,161.3476,-13.7152,0.0000,0.5284,1.1915,"999",35,32,32,20,3,01,3,f3*5fa415c1
#REFSTATIONA,COM2,0,31.0,FINE,2088,456515.000,2601587,803,18;00000000,-2811044.342,4717820.352,3232735.546,0,RTCMV3,"0000"*ff1f119b
$GNGGA,064842.00,3039.10579333,N,12047.28095854,E,4,32,0.6,4.5208,M,9.8161,M,12,0*7C
$GNRMC,064842.00,A,3039.10579333,N,12047.28095854,E,0.089,256.6,170120,5.8,W,D*31
#HEADINGA,COM2,0,31.0,FINE,2088,456540.000,2602386,22,18;SOL_COMPUTED,NARROW_INT,0.4358,161.1307,-15.8341,0.0000,0.5348,1.1948,"999",35,32,32,20,3,01,3,f3*5bedd66e
$GNGGA,064842.10,3039.10579331,N,12047.28095934,E,4,32,0.6,4.5247,M,9.8161,M,12,0*73
$GNRMC,064842.10,A,3039.10579331,N,12047.28095934,E,0.025,92.0,170120,5.8,W,D*0F
#HEADINGA,COM2,0,31.0,FINE,2088,456540.100,2602486,17,18;SOL_COMPUTED,NARROW_INT,0.4382,161.1673,-15.5964,0.0000,0.5313,1.1835,"999",35,32,32,20,3,01,3,f3*1a01821a
$GNGGA,064842.20,3039.10579312,N,12047.28095902,E,4,32,0.6,4.5218,M,9.8161,M,12,0*7E
$GNRMC,064842.20,A,3039.10579312,N,12047.28095902,E,0.012,235.2,170120,5.8,W,D*31
#HEADINGA,COM2,0,31.0,FINE,2088,456540.200,2602587,18,18;SOL_COMPUTED,NARROW_INT,0.4372,161.0929,-15.2538,0.0000,0.5321,1.1878,"999",35,32,32,20,3,01,3,f3*17a99e24
$GNGGA,064842.30,3039.10579391,N,12047.28095916,E,4,32,0.6,4.5140,M,9.8161,M,12,0*7F
$GNRMC,064842.30,A,3039.10579391,N,12047.28095916,E,0.029,8.4,170120,5.8,W,D*3C
#HEADINGA,COM2,0,31.0,FINE,2088,456540.300,2602686,17,18;SOL_COMPUTED,NARROW_INT,0.4359,161.6617,-14.8451,0.0000,0.5315,1.1908,"999",35,32,32,20,3,01,3,f3*a4214d69
$GNGGA,064842.40,3039.10579247,N,12047.28095788,E,4,32,0.6,4.5238,M,9.8161,M,12,0*77
$GNRMC,064842.40,A,3039.10579247,N,12047.28095788,E,0.065,217.6,170120,5.8,W,D*3E
#HEADINGA,COM2,0,31.0,FINE,2088,456540.400,2602786,17,18;SOL_COMPUTED,NARROW_INT,0.4363,161.2934,-15.0479,0.0000,0.5323,1.1901,"999",35,32,32,20,3,01,3,f3*3abc79e6
$GNGGA,064842.50,3039.10579327,N,12047.28095844,E,4,32,0.6,4.5192,M,9.8161,M,12,0*7D
$GNRMC,064842.50,A,3039.10579327,N,12047.28095844,E,0.033,31.7,170120,5.8,W,D*03
#HEADINGA,COM2,0,31.0,FINE,2088,456540.500,2602886,18,18;SOL_COMPUTED,NARROW_INT,0.4374,161.4536,-15.1255,0.0000,0.5312,1.1875,"999",35,32,32,20,3,01,3,f3*87c0e144
$GNGGA,064842.60,3039.10579450,N,12047.28095985,E,4,32,0.6,4.5253,M,9.8161,M,12,0*7B
$GNRMC,064842.60,A,3039.10579450,N,12047.28095985,E,0.062,44.8,170120,5.8,W,D*02
#HEADINGA,COM2,0,36.0,FINE,2088,456540.600,2602986,20,18;SOL_COMPUTED,NARROW_INT,0.4384,161.2771,-14.7154,0.0000,0.5291,1.1846,"999",35,32,32,20,3,01,3,f3*faf64ee8
$GNGGA,064842.70,3039.10579428,N,12047.28096059,E,4,33,0.6,4.5327,M,9.8161,M,12,0*7D
$GNRMC,064842.70,A,3039.10579428,N,12047.28096059,E,0.024,108.8,170120,5.8,W,D*3C
#HEADINGA,COM2,0,36.0,FINE,2088,456540.700,2603085,17,18;SOL_COMPUTED,NARROW_INT,0.4388,161.3776,-14.9981,0.0000,0.5292,1.1836,"999",35,32,32,20,3,01,3,f3*2e9313e0
$GNGGA,064842.80,3039.10579439,N,12047.28096055,E,4,33,0.6,4.5327,M,9.8161,M,12,0*7E
$GNRMC,064842.80,A,3039.10579439,N,12047.28096055,E,0.004,345.4,170120,5.8,W,D*3A
#HEADINGA,COM2,0,36.0,FINE,2088,456540.800,2603186,16,18;SOL_COMPUTED,NARROW_INT,0.4387,161.0569,-15.6268,0.0000,0.5311,1.1849,"999",35,32,32,20,3,01,3,f3*602c8e3a
$GNGGA,064842.90,3039.10579461,N,12047.28095974,E,4,33,0.6,4.5337,M,9.8161,M,12,0*7A
$GNRMC,064842.90,A,3039.10579461,N,12047.28095974,E,0.027,287.3,170120,5.8,W,D*36
#HEADINGA,COM2,0,36.0,FINE,2088,456540.900,2603285,17,18;SOL_COMPUTED,NARROW_INT,0.4395,161.1439,-15.2366,0.0000,0.5289,1.1820,"999",35,32,32,20,3,01,3,f3*9c55be89
#REFSTATIONA,COM2,0,31.0,FINE,2088,456515.000,2601587,1803,18;00000000,-2811044.342,4717820.352,3232735.546,0,RTCMV3,"0000"*e88134ab
$GNGGA,064843.00,3039.10579348,N,12047.28096110,E,4,33,0.6,4.5291,M,9.8161,M,13,0*7B
$GNRMC,064843.00,A,3039.10579348,N,12047.28096110,E,0.059,133.8,170120,5.8,W,D*35
#HEADINGA,COM2,0,36.0,FINE,2088,456541.000,2603386,22,18;SOL_COMPUTED,NARROW_INT,0.4331,161.9050,-15.2638,0.0000,0.5361,1.2003,"999",35,32,32,20,3,01,3,f3*fa47353f
$GNGGA,064843.10,3039.10579430,N,12047.28096035,E,4,33,0.6,4.5285,M,9.8161,M,13,0*71
$GNRMC,064843.10,A,3039.10579430,N,12047.28096035,E,0.038,322.0,170120,5.8,W,D*37
#HEADINGA,COM2,0,36.0,FINE,2088,456541.100,2603485,18,18;SOL_COMPUTED,NARROW_INT,0.4415,161.0916,-15.0332,0.0000,0.5269,1.1771,"999",35,32,32,20,3,01,3,f3*c7299b16
$GNGGA,064843.20,3039.10579388,N,12047.28095927,E,4,33,0.6,4.5268,M,9.8161,M,13,0*7C
$GNRMC,064843.20,A,3039.10579388,N,12047.28095927,E,0.037,245.9,170120,5.8,W,D*3F
#HEADINGA,COM2,0,36.0,FINE,2088,456541.200,2603587,18,18;SOL_COMPUTED,NARROW_INT,0.4377,161.6640,-15.5464,0.0000,0.5317,1.1872,"999",35,32,32,20,3,01,3,f3*bdc19faa
$GNGGA,064843.30,3039.10579353,N,12047.28095984,E,4,33,0.6,4.5314,M,9.8161,M,12,0*79
$GNRMC,064843.30,A,3039.10579353,N,12047.28095984,E,0.022,126.2,170120,5.8,W,D*38
#HEADINGA,COM2,0,36.0,FINE,2088,456541.300,2603686,18,18;SOL_COMPUTED,NARROW_INT,0.4351,162.1818,-13.8727,0.0000,0.4886,1.1329,"999",35,33,33,20,3,01,3,f3*a0cddedb
$GNGGA,064843.40,3039.10579222,N,12047.28096119,E,4,33,0.6,4.5363,M,9.8161,M,12,0*76
$GNRMC,064843.40,A,3039.10579222,N,12047.28096119,E,0.063,138.2,170120,5.8,W,D*3D
#HEADINGA,COM2,0,36.0,FINE,2088,456541.400,2603786,18,18;SOL_COMPUTED,NARROW_INT,0.4344,162.0180,-13.7266,0.0000,0.4889,1.1346,"999",35,33,33,20,3,01,3,f3*5b48895e
$GNGGA,064843.50,3039.10579360,N,12047.28095841,E,4,33,0.6,4.5329,M,9.8161,M,12,0*79
$GNRMC,064843.50,A,3039.10579360,N,12047.28095841,E,0.100,300.0,170120,5.8,W,D*33
#HEADINGA,COM2,0,36.0,FINE,2088,456541.500,2603885,18,18;SOL_COMPUTED,NARROW_INT,0.4363,162.3237,-14.0834,0.0000,0.4872,1.1294,"999",35,33,33,20,3,01,3,f3*636a7161
$GNGGA,064843.60,3039.10579268,N,12047.28095827,E,4,33,0.6,4.5345,M,9.8161,M,12,0*79
$GNRMC,064843.60,A,3039.10579268,N,12047.28095827,E,0.034,187.6,170120,5.8,W,D*34
#HEADINGA,COM2,0,36.0,FINE,2088,456541.600,2603985,20,18;SOL_COMPUTED,NARROW_INT,0.4341,162.2963,-14.5521,0.0000,0.4907,1.1347,"999",35,33,33,20,3,01,3,f3*7eb5df30
$GNGGA,064843.70,3039.10579506,N,12047.28096048,E,4,33,0.6,4.5280,M,9.8161,M,12,0*7D
$GNRMC,064843.70,A,3039.10579506,N,12047.28096048,E,0.110,38.8,170120,5.8,W,D*04
#HEADINGA,COM2,0,36.0,FINE,2088,456541.700,2604085,17,18;SOL_COMPUTED,NARROW_INT,0.4370,162.5322,-13.6303,0.0000,0.4850,1.1263,"999",35,33,33,20,3,01,3,f3*d5f753d2
$GNGGA,064843.80,3039.10579424,N,12047.28095976,E,4,33,0.6,4.5339,M,9.8161,M,12,0*77
$GNRMC,064843.80,A,3039.10579424,N,12047.28095976,E,0.037,217.6,170120,5.8,W,D*38
#HEADINGA,COM2,0,36.0,FINE,2088,456541.800,2604185,17,18;SOL_COMPUTED,NARROW_INT,0.4376,162.1819,-14.1297,0.0000,0.4861,1.1259,"999",35,33,33,20,3,01,3,f3*4eac2d6c
$GNGGA,064843.90,3039.10579368,N,12047.28095959,E,4,33,0.6,4.5322,M,9.8161,M,12,0*7E
$GNRMC,064843.90,A,3039.10579368,N,12047.28095959,E,0.021,194.1,170120,5.8,W,D*33
#HEADINGA,COM2,0,36.0,FINE,2088,456541.900,2604285,16,18;SOL_COMPUTED,NARROW_INT,0.4385,162.5241,-14.0359,0.0000,0.4841,1.1225,"999",35,33,33,20,3,01,3,f3*979e56a7
#REFSTATIONA,COM2,0,36.0,FINE,2088,456515.000,2603587,803,18;00000000,-2811044.342,4717820.352,3232735.546,0,RTCMV3,"0000"*d564f3f9
$GNGGA,064844.00,3039.10579378,N,12047.28095936,E,4,33,0.6,4.5312,M,9.8161,M,13,0*7A
$GNRMC,064844.00,A,3039.10579378,N,12047.28095936,E,0.008,298.8,170120,5.8,W,D*38
#HEADINGA,COM2,0,36.0,FINE,2088,456542.000,2604386,23,18;SOL_COMPUTED,NARROW_INT,0.4365,161.9360,-13.4075,0.0000,0.4861,1.1285,"999",35,33,33,20,3,01,3,f3*d0208cec
$GNGGA,064844.10,3039.10579513,N,12047.28096039,E,4,33,0.6,4.5321,M,9.8161,M,13,0*75
$GNRMC,064844.10,A,3039.10579513,N,12047.28096039,E,0.058,33.6,170120,5.8,W,D*0F
#HEADINGA,COM2,0,36.0,FINE,2088,456542.100,2604486,17,18;SOL_COMPUTED,NARROW_INT,0.4380,162.7957,-13.2058,0.0000,0.4832,1.1246,"999",35,33,33,20,3,01,3,f3*ffbbcd77
$GNGGA,064844.20,3039.10579289,N,12047.28096081,E,4,33,0.6,4.5402,M,9.8161,M,13,0*77
$GNRMC,064844.20,A,3039.10579289,N,12047.28096081,E,0.081,170.8,170120,5.8,W,D*37
#HEADINGA,COM2,0,36.0,FINE,2088,456542.200,2604587,18,18;SOL_COMPUTED,NARROW_INT,0.4381,162.3736,-14.0237,0.0000,0.4850,1.1246,"999",35,33,33,20,3,01,3,f3*c25a557c
$GNGGA,064844.30,3039.10579428,N,12047.28095987,E,4,33,0.6,4.5256,M,9.8161,M,11,0*72
$GNRMC,064844.30,A,3039.10579428,N,12047.28095987,E,0.058,329.7,170120,5.8,W,D*32
#HEADINGA,COM2,0,36.0,FINE,2088,456542.300,2604685,17,18;SOL_COMPUTED,NARROW_INT,0.4365,162.2883,-12.8850,0.0000,0.4846,1.1275,"999",35,33,33,20,3,01,3,f3*2dee924f
$GNGGA,064844.40,3039.10579444,N,12047.28096005,E,4,33,0.6,4.5284,M,9.8161,M,11,0*70
$GNRMC,064844.40,A,3039.10579444,N,12047.28096005,E,0.008,45.8,170120,5.8,W,D*0C
#HEADINGA,COM2,0,36.0,FINE,2088,456542.400,2604785,18,18;SOL_COMPUTED,NARROW_INT,0.4357,162.0729,-13.6866,0.0000,0.4873,1.1297,"999",35,33,33,20,3,01,3,f3*c73ea207
$GNGGA,064844.50,3039.10579326,N,12047.28095967,E,4,33,0.6,4.5287,M,9.8161,M,11,0*7F
$GNRMC,064844.50,A,3039.10579326,N,12047.28095967,E,0.044,195.5,170120,5.8,W,D*39
#HEADINGA,COM2,0,36.0,FINE,2088,456542.500,2604885,18,18;SOL_COMPUTED,NARROW_INT,0.4368,162.2215,-13.2637,0.0000,0.4850,1.1268,"999",35,33,33,20,3,01,3,f3*23309dfd
$GNGGA,064844.60,3039.10579343,N,12047.28095929,E,4,33,0.6,4.5339,M,9.8161,M,11,0*71
$GNRMC,064844.60,A,3039.10579343,N,12047.28095929,E,0.013,296.3,170120,5.8,W,D*37
#HEADINGA,COM2,0,36.0,FINE,2088,456542.600,2604985,18,18;SOL_COMPUTED,NARROW_INT,0.4359,162.1950,-14.2898,0.0000,0.4882,1.1292,"999",35,33,33,20,3,01,3,f3*d3a288b1
$GNGGA,064844.70,3039.10579354,N,12047.28096164,E,4,33,0.6,4.5314,M,9.8161,M,11,0*7B
$GNRMC,064844.70,A,3039.10579354,N,12047.28096164,E,0.073,86.9,170120,5.8,W,D*0D
#HEADINGA,COM2,0,36.0,FINE,2088,456542.700,2605085,20,18;SOL_COMPUTED,NARROW_INT,0.4356,161.9455,-13.5758,0.0000,0.4872,1.1297,"999",35,33,33,20,3,01,3,f3*aee0eba2
$GNGGA,064844.80,3039.10579380,N,12047.28095942,E,4,33,0.6,4.5206,M,9.8161,M,11,0*70
$GNRMC,064844.80,A,3039.10579380,N,12047.28095942,E,0.070,277.9,170120,5.8,W,D*3B
#HEADINGA,COM2,0,36.0,FINE,2088,456542.800,2605185,17,18;SOL_COMPUTED,NARROW_INT,0.4359,161.8837,-13.4373,0.0000,0.4864,1.1287,"999",35,33,33,20,3,01,3,f3*09671584
$GNGGA,064844.90,3039.10579183,N,12047.28096088,E,4,33,0.6,4.5279,M,9.8161,M,11,0*74
$GNRMC,064844.90,A,3039.10579183,N,12047.28096088,E,0.084,147.4,170120,5.8,W,D*31
#HEADINGA,COM2,0,36.0,FINE,2088,456542.900,2605285,16,18;SOL_COMPUTED,NARROW_INT,0.4350,161.8451,-14.2259,0.0000,0.4892,1.1312,"999",35,33,33,20,3,01,3,f3*e4f6e737
#REFSTATIONA,COM2,0,36.0,FINE,2088,456515.000,2604587,803,18;00000000,-2811044.342,4717820.352,3232735.546,0,RTCMV3,"0000"*7f926d10
$GNGGA,064845.00,3039.10579296,N,12047.28095965,E,4,33,0.6,4.5251,M,9.8161,M,12,0*7B
$GNRMC,064845.00,A,3039.10579296,N,12047.28095965,E,0.056,316.7,170120,5.8,W,D*3D
#HEADINGA,COM2,0,36.0,FINE,2088,456543.000,2605385,23,18;SOL_COMPUTED,NARROW_INT,0.4383,162.1033,-14.5437,0.0000,0.4854,1.1259,"999",35,33,33,19,3,01,3,f3*ce89516b
$GNGGA,064845.10,3039.10579307,N,12047.28096203,E,4,33,0.6,4.5303,M,9.8161,M,12,0*7D
$GNRMC,064845.10,A,3039.10579307,N,12047.28096203,E,0.074,86.8,170120,5.8,W,D*08
#HEADINGA,COM2,0,36.0,FINE,2088,456543.100,2605485,17,18;SOL_COMPUTED,NARROW_INT,0.4379,162.1348,-14.9232,0.0000,0.4866,1.1267,"999",35,33,33,19,3,01,3,f3*1852d6eb
$GNGGA,064845.20,3039.10579403,N,12047.28096213,E,4,33,0.6,4.5234,M,9.8161,M,12,0*79
$GNRMC,064845.20,A,3039.10579403,N,12047.28096213,E,0.035,5.2,170120,5.8,W,D*3D
#HEADINGA,COM2,0,36.0,FINE,2088,456543.200,2605587,17,18;SOL_COMPUTED,NARROW_INT,0.4389,162.7801,-14.0093,0.0000,0.4843,1.1258,"999",35,33,33,19,3,01,3,f3*dfcf3477
$GNGGA,064845.30,3039.10579369,N,12047.28096080,E,4,33,0.6,4.5206,M,9.8161,M,12,0*7A
$GNRMC,064845.30,A,3039.10579369,N,12047.28096080,E,0.043,253.6,170120,5.8,W,D*3B
#HEADINGA,COM2,0,36.0,FINE,2088,456543.300,2605686,17,18;SOL_COMPUTED,NARROW_INT,0.4395,162.0696,-13.9370,0.0000,0.4839,1.1241,"999",35,33,33,19,3,01,3,f3*163c8e8b
$GNGGA,064845.40,3039.10579350,N,12047.28096141,E,4,33,0.6,4.5249,M,9.8161,M,12,0*70
$GNRMC,064845.40,A,3039.10579350,N,12047.28096141,E,0.020,109.4,170120,5.8,W,D*31
#HEADINGA,COM2,0,36.0,FINE,2088,456543.400,2605786,17,18;SOL_COMPUTED,NARROW_INT,0.4388,161.9243,-14.5779,0.0000,0.4866,1.1302,"999",35,33,33,19,3,01,3,f3*f61c8a71
$GNGGA,064845.50,3039.10579333,N,12047.28096295,E,4,33,0.6,4.5310,M,9.8161,M,12,0*73
$GNRMC,064845.50,A,3039.10579333,N,12047.28096295,E,0.048,97.4,170120,5.8,W,D*07
#HEADINGA,COM2,0,36.0,FINE,2088,456543.500,2605885,20,18;SOL_COMPUTED,NARROW_INT,0.4392,162.5711,-13.9234,0.0000,0.4840,1.1288,"999",35,33,33,19,3,01,3,f3*a6e466bf
$GNGGA,064845.60,3039.10579391,N,12047.28096182,E,4,33,0.6,4.5316,M,9.8161,M,12,0*7B
$GNRMC,064845.60,A,3039.10579391,N,12047.28096182,E,0.041,300.7,170120,5.8,W,D*3E
#HEADINGA,COM2,0,36.0,FINE,2088,456543.600,2605985,17,18;SOL_COMPUTED,NARROW_INT,0.4369,162.1067,-14.8247,0.0000,0.4887,1.1348,"999",35,33,33,19,3,01,3,f3*bd9d596b
$GNGGA,064845.70,3039.10579246,N,12047.28096308,E,4,33,0.6,4.5331,M,9.8161,M,12,0*74
$GNRMC,064845.70,A,3039.10579246,N,12047.28096308,E,0.065,143.1,170120,5.8,W,D*31
#HEADINGA,COM2,0,37.0,FINE,2088,456543.700,2606085,16,18;SOL_COMPUTED,NARROW_INT,0.4364,162.2063,-14.9449,0.0000,0.4894,1.1359,"999",35,33,33,19,3,01,3,f3*09f901d9
$GNGGA,064845.80,3039.10579387,N,12047.28096283,E,4,33,0.6,4.5298,M,9.8161,M,12,0*77
$GNRMC,064845.80,A,3039.10579387,N,12047.28096283,E,0.051,351.4,170120,5.8,W,D*33
#HEADINGA,COM2,0,37.0,FINE,2088,456543.800,2606185,17,18;SOL_COMPUTED,NARROW_INT,0.4388,161.9887,-14.3158,0.0000,0.4855,1.1304,"999",35,33,33,19,3,01,3,f3*bb0c08a4
$GNGGA,064845.90,3039.10579310,N,12047.28096330,E,4,33,0.6,4.5337,M,9.8161,M,12,0*75
$GNRMC,064845.90,A,3039.10579310,N,12047.28096330,E,0.031,152.4,170120,5.8,W,D*32
#HEADINGA,COM2,0,37.0,FINE,2088,456543.900,2606285,17,18;SOL_COMPUTED,NARROW_INT,0.4398,162.1247,-14.0688,0.0000,0.4838,1.1282,"999",35,33,33,19,3,01,3,f3*fbadb36d
#REFSTATIONA,COM2,0,36.0,FINE,2088,456515.000,2604587,1803,18;00000000,-2811044.342,4717820.352,3232735.546,0,RTCMV3,"0000"*926be37f
$GNGGA,064846.00,3039.10579315,N,12047.28096229,E,4,33,0.6,4.5291,M,9.8161,M,13,0*7F
$GNRMC,064846.00,A,3039.10579315,N,12047.28096229,E,0.031,272.9,170120,5.8,W,D*38
#HEADINGA,COM2,0,37.0,FINE,2088,456544.000,2606386,22,18;SOL_COMPUTED,NARROW_INT,0.4378,162.7056,-13.7478,0.0000,0.4841,1.1317,"999",35,33,33,19,3,01,3,f3*8e1434bc
$GNGGA,064846.10,3039.10579313,N,12047.28096385,E,4,33,0.6,4.5285,M,9.8161,M,13,0*7A
$GNRMC,064846.10,A,3039.10579313,N,12047.28096385,E,0.048,90.9,170120,5.8,W,D*08
#HEADINGA,COM2,0,37.0,FINE,2088,456544.100,2606486,17,18;SOL_COMPUTED,NARROW_INT,0.4356,162.4713,-14.7746,0.0000,0.4896,1.1379,"999",35,33,33,19,3,01,3,f3*ca227839
$GNGGA,064846.20,3039.10579292,N,12047.28096122,E,4,33,0.6,4.5262,M,9.8161,M,13,0*77
$GNRMC,064846.20,A,3039.10579292,N,12047.28096122,E,0.082,264.8,170120,5.8,W,D*32
#HEADINGA,COM2,0,37.0,FINE,2088,456544.200,2606587,18,18;SOL_COMPUTED,NARROW_INT,0.4364,162.3236,-14.7921,0.0000,0.4889,1.1369,"999",35,33,33,19,3,01,3,f3*789477d8
$GNGGA,064846.30,3039.10579239,N,12047.28096262,E,4,33,0.6,4.5294,M,9.8161,M,12,0*78
$GNRMC,064846.30,A,3039.10579239,N,12047.28096262,E,0.048,113.5,170120,5.8,W,D*3D
#HEADINGA,COM2,0,37.0,FINE,2088,456544.300,2606686,17,18;SOL_COMPUTED,NARROW_INT,0.4358,162.1861,-14.4617,0.0000,0.4889,1.1387,"999",35,33,33,20,3,01,3,f3*c8e9a7e4
$GNGGA,064846.40,3039.10579267,N,12047.28096170,E,4,33,0.6,4.5338,M,9.8161,M,12,0*73
$GNRMC,064846.40,A,3039.10579267,N,12047.28096170,E,0.030,289.1,170120,5.8,W,D*3A
#HEADINGA,COM2,0,37.0,FINE,2088,456544.400,2606786,17,18;SOL_COMPUTED,NARROW_INT,0.4373,162.1402,-14.3069,0.0000,0.4872,1.1356,"999",35,33,33,20,3,01,3,f3*e8912225
$GNGGA,064846.50,3039.10579029,N,12047.28096193,E,4,33,0.6,4.5419,M,9.8161,M,12,0*73
$GNRMC,064846.50,A,3039.10579029,N,12047.28096193,E,0.086,175.1,170120,5.8,W,D*33
#HEADINGA,COM2,0,37.0,FINE,2088,456544.500,2606885,20,18;SOL_COMPUTED,NARROW_INT,0.4335,162.2390,-13.6676,0.0000,0.4898,1.1458,"999",35,33,33,20,3,01,3,f3*27d9cc44
$GNGGA,064846.60,3039.10579107,N,12047.28096218,E,4,33,0.6,4.5455,M,9.8161,M,12,0*75
$GNRMC,064846.60,A,3039.10579107,N,12047.28096218,E,0.029,15.6,170120,5.8,W,D*08
#HEADINGA,COM2,0,37.0,FINE,2088,456544.600,2606985,17,18;SOL_COMPUTED,NARROW_INT,0.4353,162.5646,-13.4509,0.0000,0.4870,1.1407,"999",35,33,33,20,3,01,3,f3*e6b295af
$GNGGA,064846.70,3039.10579077,N,12047.28096085,E,4,33,0.6,4.5362,M,9.8161,M,12,0*77
$GNRMC,064846.70,A,3039.10579077,N,12047.28096085,E,0.043,255.1,170120,5.8,W,D*34
#HEADINGA,COM2,0,37.0,FINE,2088,456544.700,2607085,16,18;SOL_COMPUTED,NARROW_INT,0.4353,161.9868,-13.5358,0.0000,0.4878,1.1407,"999",35,33,33,20,3,01,3,f3*61712faf
$GNGGA,064846.80,3039.10579086,N,12047.28096186,E,4,33,0.6,4.5422,M,9.8161,M,12,0*77
$GNRMC,064846.80,A,3039.10579086,N,12047.28096186,E,0.031,83.7,170120,5.8,W,D*0D
#HEADINGA,COM2,0,37.0,FINE,2088,456544.800,2607185,17,18;SOL_COMPUTED,NARROW_INT,0.4358,162.4485,-14.2626,0.0000,0.4882,1.1349,"999",35,33,33,20,3,01,3,f3*0bb1f118
$GNGGA,064846.90,3039.10579130,N,12047.28096032,E,4,33,0.6,4.5386,M,9.8161,M,12,0*7D
$GNRMC,064846.90,A,3039.10579130,N,12047.28096032,E,0.050,288.3,170120,5.8,W,D*34
#HEADINGA,COM2,0,37.0,FINE,2088,456544.900,2607285,16,18;SOL_COMPUTED,NARROW_INT,0.4371,161.8076,-13.7480,0.0000,0.4860,1.1322,"999",35,33,33,20,3,01,3,f3*e057674f
#REFSTATIONA,COM2,0,37.0,FINE,2088,456515.000,2606587,802,18;00000000,-2811044.342,4717820.352,3232735.546,0,RTCMV3,"0000"*8c590e6d
$GNGGA,064847.00,3039.10579119,N,12047.28096077,E,4,33,0.6,4.5371,M,9.8161,M,13,0*76
$GNRMC,064847.00,A,3039.10579119,N,12047.28096077,E,0.015,106.1,170120,5.8,W,D*30
#HEADINGA,COM2,0,37.0,FINE,2088,456545.000,2607385,22,18;SOL_COMPUTED,NARROW_INT,0.4348,161.8224,-13.9017,0.0000,0.4889,1.1382,"999",35,33,33,20,3,01,3,f3*9a049a96
$GNGGA,064847.10,3039.10579008,N,12047.28096097,E,4,33,0.6,4.5442,M,9.8161,M,13,0*7F
$GNRMC,064847.10,A,3039.10579008,N,12047.28096097,E,0.040,171.1,170120,5.8,W,D*3E
#HEADINGA,COM2,0,37.0,FINE,2088,456545.100,2607485,18,18;SOL_COMPUTED,NARROW_INT,0.4327,162.1532,-14.2504,0.0000,0.4917,1.1436,"999",35,33,33,20,3,01,3,f3*6a70701c
$GNGGA,064847.20,3039.10578921,N,12047.28096091,E,4,33,0.6,4.5476,M,9.8161,M,13,0*7E
$GNRMC,064847.20,A,3039.10578921,N,12047.28096091,E,0.031,183.6,170120,5.8,W,D*34
#HEADINGA,COM2,0,37.0,FINE,2088,456545.200,2607586,19,18;SOL_COMPUTED,NARROW_INT,0.4382,161.8209,-14.8398,0.0000,0.4870,1.1290,"999",35,33,33,20,3,01,3,f3*ad0714e8
$GNGGA,064847.30,3039.10579117,N,12047.28096156,E,4,33,0.6,4.5438,M,9.8161,M,11,0*71
$GNRMC,064847.30,A,3039.10579117,N,12047.28096156,E,0.073,16.1,170120,5.8,W,D*0F
#HEADINGA,COM2,0,37.0,FINE,2088,456545.300,2607685,17,18;SOL_COMPUTED,NARROW_INT,0.4369,162.3102,-14.3525,0.0000,0.4870,1.1325,"999",35,33,33,20,3,01,3,f3*e7c7db4a
$GNGGA,064847.40,3039.10578992,N,12047.28096158,E,4,33,0.6,4.5443,M,9.8161,M,11,0*70
$GNRMC,064847.40,A,3039.10578992,N,12047.28096158,E,0.045,179.4,170120,5.8,W,D*3A
#HEADINGA,COM2,0,37.0,FINE,2088,456545.400,2607785,18,18;SOL_COMPUTED,NARROW_INT,0.4365,162.0905,-13.9152,0.0000,0.4867,1.1335,"999",35,33,33,20,3,01,3,f3*00c97242
$GNGGA,064847.50,3039.10578934,N,12047.28096038,E,4,33,0.6,4.5410,M,9.8161,M,11,0*7C
$GNRMC,064847.50,A,3039.10578934,N,12047.28096038,E,0.043,240.7,170120,5.8,W,D*3C
#HEADINGA,COM2,0,37.0,FINE,2088,456545.500,2607885,18,18;SOL_COMPUTED,NARROW_INT,0.4368,161.9881,-13.8108,0.0000,0.4862,1.1287,"999",35,33,33,20,3,01,3,f3*174af0f3
$GNGGA,064847.60,3039.10579053,N,12047.28096008,E,4,33,0.6,4.5350,M,9.8161,M,11,0*76
$GNRMC,064847.60,A,3039.10579053,N,12047.28096008,E,0.044,347.6,170120,5.8,W,D*35
#HEADINGA,COM2,0,37.0,FINE,2088,456545.600,2607985,18,18;SOL_COMPUTED,NARROW_INT,0.4383,161.8113,-13.2051,0.0000,0.4833,1.1285,"999",35,33,33,20,3,01,3,f3*0133b32f
$GNGGA,064847.70,3039.10578978,N,12047.28096364,E,4,33,0.6,4.5413,M,9.8161,M,11,0*7F
$GNRMC,064847.70,A,3039.10578978,N,12047.28096364,E,0.114,103.6,170120,5.8,W,D*3A
#HEADINGA,COM2,0,37.0,FINE,2088,456545.700,2608085,20,18;SOL_COMPUTED,NARROW_INT,0.4382,162.1802,-14.5480,0.0000,0.4860,1.1251,"999",35,33,33,20,3,01,3,f3*cc1ac15f
$GNGGA,064847.80,3039.10579011,N,12047.28096346,E,4,33,0.6,4.5409,M,9.8161,M,11,0*7C
$GNRMC,064847.80,A,3039.10579011,N,12047.28096346,E,0.013,334.2,170120,5.8,W,D*36
#HEADINGA,COM2,0,37.0,FINE,2088,456545.800,2608185,16,18;SOL_COMPUTED,NARROW_INT,0.4369,161.9180,-14.1557,0.0000,0.4864,1.1322,"999",35,33,33,20,3,01,3,f3*529f116f
$GNGGA,064847.90,3039.10579124,N,12047.28096371,E,4,33,0.6,4.5367,M,9.8161,M,11,0*71
$GNRMC,064847.90,A,3039.10579124,N,12047.28096371,E,0.041,10.9,170120,5.8,W,D*0D
#HEADINGA,COM2,0,37.0,FINE,2088,456545.900,2608285,16,18;SOL_COMPUTED,NARROW_INT,0.4362,161.6956,-14.0114,0.0000,0.4871,1.1333,"999",35,33,33,20,3,01,3,f3*15d39c89
#REFSTATIONA,COM2,0,37.0,FINE,2088,456515.000,2607586,803,18;00000000,-2811044.342,4717820.352,3232735.546,0,RTCMV3,"0000"*6b1ac717
$GNGGA,064848.00,3039.10579021,N,12047.28096229,E,4,33,0.6,4.5387,M,9.8161,M,12,0*72
$GNRMC,064848.00,A,3039.10579021,N,12047.28096229,E,0.058,229.8,170120,5.8,W,D*32
#HEADINGA,COM2,0,37.0,FINE,2088,456546.000,2608385,22,18;SOL_COMPUTED,NARROW_INT,0.4371,161.7253,-14.1165,0.0000,0.4862,1.1309,"999",35,33,33,20,3,01,3,f3*ce87281a
$GNGGA,064848.10,3039.10578975,N,12047.28096202,E,4,33,0.6,4.5359,M,9.8161,M,12,0*70
$GNRMC,064848.10,A,3039.10578975,N,12047.28096202,E,0.018,207.5,170120,5.8,W,D*36
#HEADINGA,COM2,0,37.0,FINE,2088,456546.100,2608485,18,18;SOL_COMPUTED,NARROW_INT,0.4350,161.5889,-12.1689,0.0000,0.4849,1.1362,"999",35,33,33,20,3,01,3,f3*f2db8e61
$GNGGA,064848.20,3039.10578977,N,12047.28096257,E,4,33,0.6,4.5461,M,9.8161,M,12,0*7D
$GNRMC,064848.20,A,3039.10578977,N,12047.28096257,E,0.017,87.9,170120,5.8,W,D*0E
#HEADINGA,COM2,0,37.0,FINE,2088,456546.200,2608586,19,18;SOL_COMPUTED,NARROW_INT,0.4355,161.8854,-13.9561,0.0000,0.4876,1.1353,"999",35,33,33,20,3,01,3,f3*ffe945da
$GNGGA,064848.30,3039.10578974,N,12047.28096291,E,4,33,0.6,4.5407,M,9.8161,M,11,0*76
$GNRMC,064848.30,A,3039.10578974,N,12047.28096291,E,0.011,95.7,170120,5.8,W,D*0D
#HEADINGA,COM2,0,37.0,FINE,2088,456546.300,2608685,18,18;SOL_COMPUTED,NARROW_INT,0.4332,162.0638,-13.3710,0.0000,0.4888,1.1418,"999",35,33,33,20,3,01,3,f3*5d90afaf
$GNGGA,064848.40,3039.10579087,N,12047.28096260,E,4,33,0.6,4.5395,M,9.8161,M,11,0*77
$GNRMC,064848.40,A,3039.10579087,N,12047.28096260,E,0.042,346.7,170120,5.8,W,D*3B
#HEADINGA,COM2,0,37.0,FINE,2088,456546.400,2608785,18,18;SOL_COMPUTED,NARROW_INT,0.4365,161.4436,-13.1721,0.0000,0.4853,1.1331,"999",35,33,33,20,3,01,3,f3*cde53274
$GNGGA,064848.50,3039.10579094,N,12047.28096282,E,4,33,0.6,4.5408,M,9.8161,M,11,0*7B
$GNRMC,064848.50,A,3039.10579094,N,12047.28096282,E,0.007,68.2,170120,5.8,W,D*0F
#HEADINGA,COM2,0,37.0,FINE,2088,456546.500,2608885,18,18;SOL_COMPUTED,NARROW_INT,0.4350,162.0161,-14.0962,0.0000,0.4884,1.1368,"999",35,33,33,20,3,01,3,f3*08d8f106
$GNGGA,064848.60,3039.10579013,N,12047.28096244,E,4,33,0.6,4.5399,M,9.8161,M,11,0*72
$GNRMC,064848.60,A,3039.10579013,N,12047.28096244,E,0.031,202.0,170120,5.8,W,D*30
#HEADINGA,COM2,0,37.0,FINE,2088,456546.600,2608985,17,18;SOL_COMPUTED,NARROW_INT,0.4357,161.8724,-13.6486,0.0000,0.4868,1.1347,"999",35,33,33,20,3,01,3,f3*5cc5d670
$GNGGA,064848.70,3039.10579052,N,12047.28096363,E,4,33,0.6,4.5389,M,9.8161,M,11,0*73
$GNRMC,064848.70,A,3039.10579052,N,12047.28096363,E,0.040,69.1,170120,5.8,W,D*08
#HEADINGA,COM2,0,33.0,FINE,2088,456546.700,2609085,20,18;SOL_COMPUTED,NARROW_INT,0.4359,162.3844,-13.9342,0.0000,0.4867,1.1341,"999",35,33,33,20,3,01,3,f3*cc15bcc0
$GNGGA,064848.80,3039.10578965,N,12047.28096249,E,4,33,0.6,4.5385,M,9.8161,M,11,0*75
$GNRMC,064848.80,A,3039.10578965,N,12047.28096249,E,0.047,228.5,170120,5.8,W,D*36
#HEADINGA,COM2,0,33.0,FINE,2088,456546.800,2609185,16,18;SOL_COMPUTED,NARROW_INT,0.4354,161.7869,-13.5727,0.0000,0.4882,1.1371,"999",35,33,33,20,3,01,3,f3*ae151222
$GNGGA,064848.90,3039.10578900,N,12047.28096336,E,4,33,0.6,4.5475,M,9.8161,M,11,0*76
$GNRMC,064848.90,A,3039.10578900,N,12047.28096336,E,0.036,130.6,170120,5.8,W,D*32
#HEADINGA,COM2,0,33.0,FINE,2088,456546.900,2609285,16,18;SOL_COMPUTED,NARROW_INT,0.4339,161.8537,-13.3140,0.0000,0.4892,1.1406,"999",35,33,33,20,3,01,3,f3*6d071257
#REFSTATIONA,COM2,0,37.0,FINE,2088,456515.000,2608586,803,18;00000000,-2811044.342,4717820.352,3232735.546,0,RTCMV3,"0000"*124aa08a
$GNGGA,064849.00,3039.10578926,N,12047.28096238,E,4,33,0.6,4.5480,M,9.8161,M,12,0*7C
$GNRMC,064849.00,A,3039.10578926,N,12047.28096238,E,0.032,287.3,170120,5.8,W,D*3F
#HEADINGA,COM2,0,33.0,FINE,2088,456547.000,2609385,22,18;SOL_COMPUTED,NARROW_INT,0.4366,161.5655,-13.9599,0.0000,0.4878,1.1336,"999",35,33,33,20,3,01,3,f3*e92282f2
$GNGGA,064849.10,3039.10579055,N,12047.28096300,E,4,33,0.6,4.5476,M,9.8161,M,12,0*72
$GNRMC,064849.10,A,3039.10579055,N,12047.28096300,E,0.050,22.6,170120,5.8,W,D*04
#HEADINGA,COM2,0,33.0,FINE,2088,456547.100,2609485,17,18;SOL_COMPUTED,NARROW_INT,0.4367,161.9054,-13.0943,0.0000,0.4844,1.1272,"999",35,33,33,20,3,01,3,f3*fe1f5067
$GNGGA,064849.20,3039.10579036,N,12047.28096330,E,4,33,0.6,4.5444,M,9.8161,M,12,0*76
$GNRMC,064849.20,A,3039.10579036,N,12047.28096330,E,0.012,126.4,170120,5.8,W,D*30
#HEADINGA,COM2,0,33.0,FINE,2088,456547.200,2609586,18,18;SOL_COMPUTED,NARROW_INT,0.4384,162.1373,-14.8389,0.0000,0.4860,1.1232,"999",35,33,33,20,3,01,3,f3*d78da55b
$GNGGA,064849.30,3039.10579035,N,12047.28096177,E,4,33,0.6,4.5441,M,9.8161,M,12,0*70
$GNRMC,064849.30,A,3039.10579035,N,12047.28096177,E,0.047,269.8,170120,5.8,W,D*37
#HEADINGA,COM2,0,33.0,FINE,2088,456547.300,2609685,17,18;SOL_COMPUTED,NARROW_INT,0.4377,162.0139,-13.5964,0.0000,0.4845,1.1293,"999",35,33,33,20,3,01,3,f3*5473bd32
$GNGGA,064849.40,3039.10578975,N,12047.28096356,E,4,33,0.6,4.5451,M,9.8161,M,12,0*7B
$GNRMC,064849.40,A,3039.10578975,N,12047.28096356,E,0.060,111.1,170120,5.8,W,D*3D
#HEADINGA,COM2,0,33.0,FINE,2088,456547.400,2609786,17,18;SOL_COMPUTED,NARROW_INT,0.4359,162.4504,-13.9653,0.0000,0.4868,1.1303,"999",35,33,33,20,3,01,3,f3*d96e261b
$GNGGA,064849.50,3039.10579033,N,12047.28096377,E,4,33,0.6,4.5431,M,9.8161,M,12,0*75
$GNRMC,064849.50,A,3039.10579033,N,12047.28096377,E,0.022,16.8,170120,5.8,W,D*0C
#HEADINGA,COM2,0,33.0,FINE,2088,456547.500,2609885,20,18;SOL_COMPUTED,NARROW_INT,0.4373,161.9530,-14.6412,0.0000,0.4872,1.1266,"999",35,33,33,20,3,01,3,f3*88413b3b
$GNGGA,064849.60,3039.10579122,N,12047.28096528,E,4,33,0.6,4.5434,M,9.8161,M,12,0*7E
$GNRMC,064849.60,A,3039.10579122,N,12047.28096528,E,0.057,55.8,170120,5.8,W,D*07
#HEADINGA,COM2,0,33.0,FINE,2088,456547.600,2609985,17,18;SOL_COMPUTED,NARROW_INT,0.4357,162.2887,-14.2668,0.0000,0.4879,1.1352,"999",35,33,33,20,3,01,3,f3*01bf8265
$GNGGA,064849.70,3039.10579002,N,12047.28096570,E,4,33,0.6,4.5448,M,9.8161,M,12,0*7A
$GNRMC,064849.70,A,3039.10579002,N,12047.28096570,E,0.045,163.1,170120,5.8,W,D*36
#HEADINGA,COM2,0,33.0,FINE,2088,456547.700,2610085,16,18;SOL_COMPUTED,NARROW_INT,0.4346,162.2376,-13.4669,0.0000,0.4885,1.1391,"999",35,33,33,20,3,01,3,f3*edfc98d7
$GNGGA,064849.80,3039.10579080,N,12047.28096333,E,4,33,0.6,4.5341,M,9.8161,M,12,0*70
$GNRMC,064849.80,A,3039.10579080,N,12047.28096333,E,0.079,290.7,170120,5.8,W,D*34
#HEADINGA,COM2,0,33.0,FINE,2088,456547.800,2610185,17,18;SOL_COMPUTED,NARROW_INT,0.4350,162.2968,-13.2591,0.0000,0.4875,1.1341,"999",35,33,33,20,3,01,3,f3*6f657c4b
$GNGGA,064849.90,3039.10579127,N,12047.28096123,E,4,33,0.6,4.5345,M,9.8161,M,12,0*7A
$GNRMC,064849.90,A,3039.10579127,N,12047.28096123,E,0.068,284.7,170120,5.8,W,D*3F
#HEADINGA,COM2,0,33.0,FINE,2088,456547.900,2610285,17,18;SOL_COMPUTED,NARROW_INT,0.4350,161.9630,-13.6530,0.0000,0.4884,1.1348,"999",35,33,33,20,3,01,3,f3*f897612d
#REFSTATIONA,COM2,0,33.0,FINE,2088,456515.000,2609586,804,18;00000000,-2811044.342,4717820.352,3232735.546,0,RTCMV3,"0000"*95d573a7
$GNGGA,064850.00,3039.10579035,N,12047.28096261,E,4,33,0.6,4.5381,M,9.8161,M,13,0*75
$GNRMC,064850.00,A,3039.10579035,N,12047.28096261,E,0.054,127.8,170120,5.8,W,D*33
#HEADINGA,COM2,0,33.0,FINE,2088,456548.000,2610385,23,18;SOL_COMPUTED,NARROW_INT,0.4362,161.8961,-13.9687,0.0000,0.4879,1.1328,"999",35,33,33,20,3,01,3,f3*1604d1bb
$GNGGA,064850.10,3039.10579083,N,12047.28096174,E,4,33,0.6,4.5338,M,9.8161,M,13,0*7C
$GNRMC,064850.10,A,3039.10579083,N,12047.28096174,E,0.032,302.2,170120,5.8,W,D*37
#HEADINGA,COM2,0,33.0,FINE,2088,456548.100,2610486,17,18;SOL_COMPUTED,NARROW_INT,0.4376,161.4093,-14.2670,0.0000,0.4865,1.1314,"999",35,33,33,20,3,01,3,f3*5439c7ba
$GNGGA,064850.20,3039.10579047,N,12047.28096141,E,4,33,0.6,4.5468,M,9.8161,M,13,0*73
$GNRMC,064850.20,A,3039.10579047,N,12047.28096141,E,0.016,218.8,170120,5.8,W,D*3C
#HEADINGA,COM2,0,33.0,FINE,2088,456548.200,2610587,18,18;SOL_COMPUTED,NARROW_INT,0.4344,161.3990,-13.7121,0.0000,0.4889,1.1385,"999",35,33,33,20,3,01,3,f3*adb7d21d
$GNGGA,064850.30,3039.10579045,N,12047.28096433,E,4,33,0.6,4.5438,M,9.8161,M,12,0*74
$GNRMC,064850.30,A,3039.10579045,N,12047.28096433,E,0.091,90.6,170120,5.8,W,D*0C
#HEADINGA,COM2,0,33.0,FINE,2088,456548.300,2610685,18,18;SOL_COMPUTED,NARROW_INT,0.4342,162.0837,-14.1430,0.0000,0.4893,1.1396,"999",35,33,33,20,3,01,3,f3*6a3d99a3
$GNGGA,064850.40,3039.10578962,N,12047.28096424,E,4,33,0.6,4.5511,M,9.8161,M,12,0*72
$GNRMC,064850.40,A,3039.10578962,N,12047.28096424,E,0.030,185.2,170120,5.8,W,D*3A
#HEADINGA,COM2,0,33.0,FINE,2088,456548.400,2610785,18,18;SOL_COMPUTED,NARROW_INT,0.4367,161.5599,-15.1724,0.0000,0.4893,1.1328,"999",35,33,33,20,3,01,3,f3*b7ca5186
$GNGGA,064850.50,3039.10578938,N,12047.28096441,E,4,33,0.6,4.5470,M,9.8161,M,12,0*79
$GNRMC,064850.50,A,3039.10578938,N,12047.28096441,E,0.010,148.1,170120,5.8,W,D*37
#HEADINGA,COM2,0,33.0,FINE,2088,456548.500,2610885,20,18;SOL_COMPUTED,NARROW_INT,0.4364,161.1650,-15.2187,0.0000,0.4911,1.1309,"999",35,33,33,20,3,01,3,f3*12c4741a
$GNGGA,064850.60,3039.10578981,N,12047.28096327,E,4,33,0.6,4.5476,M,9.8161,M,12,0*79
$GNRMC,064850.60,A,3039.10578981,N,12047.28096327,E,0.039,293.4,170120,5.8,W,D*3A
#HEADINGA,COM2,0,33.0,FINE,2088,456548.600,2610985,17,18;SOL_COMPUTED,NARROW_INT,0.4391,161.3117,-14.6937,0.0000,0.4867,1.1239,"999",35,33,33,20,3,01,3,f3*abe95dcd
$GNGGA,064850.70,3039.10578872,N,12047.28096434,E,4,33,0.6,4.5464,M,9.8161,M,12,0*73
$GNRMC,064850.70,A,3039.10578872,N,12047.28096434,E,0.052,139.5,170120,5.8,W,D*3C
#HEADINGA,COM2,0,33.0,FINE,2088,456548.700,2611085,17,18;SOL_COMPUTED,NARROW_INT,0.4329,161.9993,-14.5998,0.0000,0.4927,1.1397,"999",35,33,33,20,3,01,3,f3*b8fcff4f
$GNGGA,064850.80,3039.10578926,N,12047.28096365,E,4,33,0.6,4.5508,M,9.8161,M,12,0*74
$GNRMC,064850.80,A,3039.10578926,N,12047.28096365,E,0.029,312.4,170120,5.8,W,D*36
#HEADINGA,COM2,0,33.0,FINE,2088,456548.800,2611185,17,18;SOL_COMPUTED,NARROW_INT,0.4367,161.1022,-14.3705,0.0000,0.4887,1.1296,"999",35,33,33,20,3,01,3,f3*bb6077a9
$GNGGA,064850.90,3039.10578879,N,12047.28096379,E,4,33,0.6,4.5510,M,9.8161,M,12,0*7A
$GNRMC,064850.90,A,3039.10578879,N,12047.28096379,E,0.018,165.6,170120,5.8,W,D*33
#HEADINGA,COM2,0,33.0,FINE,2088,456548.900,2611285,17,18;SOL_COMPUTED,NARROW_INT,0.4329,161.9754,-14.5334,0.0000,0.4925,1.1394,"999",35,33,33,20,3,01,3,f3*77967adf