X005008.90,3039.10574073,N,12047.28103704,E,2,25,0.6,1.5228,M,9.8161,M,01,0*7F
$GNRMC,005008.90,A,3039.10574073,N,12047.28103704,E,0.006,270.2,170120,5.9,W,D*31
#HEADINGA,COM2,0,43.0,FINE,2088,435026.900,1820657,28,18;SOL_COMPUTED,NARROW_INT,0.4340,157.6506,-15.2357,0.0000,0.4904,1.4089,"999",35,34,34,24,3,01,3,f3*1276d8c8
#REFSTATIONA,COM2,0,43.0,FINE,2088,435025.000,1820057,705,18;00000000,-2811070.336,4717827.830,3232698.852,0,RTCMV3,"0000"*d14abe61
$GNGGA,005009.00,3039.10574221,N,12047.28103714,E,2,25,0.6,1.5330,M,9.8161,M,02,0*78
$GNRMC,005009.00,A,3039.10574221,N,12047.28103714,E,0.005,310.8,170120,5.9,W,D*33
#HEADINGA,COM2,0,43.0,FINE,2088,435027.000,1820757,35,18;SOL_COMPUTED,NARROW_INT,0.4344,157.8693,-15.0980,0.0000,0.4900,1.4100,"999",35,34,34,24,3,01,3,f3*b9251f47
$GNGGA,005009.10,3039.10574340,N,12047.28103691,E,2,25,0.6,1.5450,M,9.8161,M,02,0*72
$GNRMC,005009.10,A,3039.10574340,N,12047.28103691,E,0.012,250.6,170120,5.8,W,D*34
#HEADINGA,COM2,0,43.0,FINE,2088,435027.100,1820857,30,18;SOL_COMPUTED,NARROW_INT,0.4349,157.4736,-17.6582,0.0000,0.4953,1.3943,"999",35,34,34,24,3,01,3,f3*05630988
$GNGGA,005009.20,3039.10574438,N,12047.28103670,E,2,25,0.6,1.5559,M,9.8161,M,02,0*7E
$GNRMC,005009.20,A,3039.10574438,N,12047.28103670,E,0.017,217.1,170120,5.8,W,D*31
#HEADINGA,COM2,0,43.0,FINE,2088,435027.200,1820959,29,18;SOL_COMPUTED,NARROW_INT,0.4325,157.6096,-14.5369,0.0000,0.4903,1.4159,"999",35,34,34,24,3,01,3,f3*3234d1ac
$GNGGA,005009.30,3039.10574569,N,12047.28103653,E,2,25,0.6,1.5671,M,9.8161,M,02,0*72
$GNRMC,005009.30,A,3039.10574569,N,12047.28103653,E,0.011,259.0,170120,5.8,W,D*39
#HEADINGA,COM2,0,43.0,FINE,2088,435027.300,1821057,29,18;SOL_COMPUTED,NARROW_INT,0.4339,157.4677,-15.3800,0.0000,0.4884,1.4075,"999",35,34,34,24,3,01,3,f3*eafc679f
$GNGGA,005009.40,3039.10574700,N,12047.28103679,E,2,25,0.6,1.5784,M,9.8161,M,01,0*78
$GNRMC,005009.40,A,3039.10574700,N,12047.28103679,E,0.001,104.4,170120,5.8,W,D*35
#HEADINGA,COM2,0,43.0,FINE,2088,435027.400,1821157,32,18;SOL_COMPUTED,NARROW_INT,0.4346,157.6558,-14.9322,0.0000,0.4859,1.4026,"999",35,34,34,24,3,01,3,f3*b8d2c6ef
$GNGGA,005009.50,3039.10574807,N,12047.28103682,E,2,25,0.6,1.5894,M,9.8161,M,01,0*7B
$GNRMC,005009.50,A,3039.10574807,N,12047.28103682,E,0.007,208.1,170120,5.8,W,D*34
#HEADINGA,COM2,0,42.0,FINE,2088,435027.500,1821257,29,18;SOL_COMPUTED,NARROW_INT,0.4357,157.7473,-16.2971,0.0000,0.4879,1.3930,"999",35,34,34,24,3,01,3,f3*dacf2f8b
$GNGGA,005009.60,3039.10574941,N,12047.28103708,E,2,25,0.6,1.6005,M,9.8161,M,01,0*7B
$GNRMC,005009.60,A,3039.10574941,N,12047.28103708,E,0.003,30.3,170120,5.8,W,D*08
#HEADINGA,COM2,0,42.0,FINE,2088,435027.600,1821357,29,18;SOL_COMPUTED,NARROW_INT,0.4372,157.6806,-15.7745,0.0000,0.4849,1.3895,"999",35,34,34,24,3,01,3,f3*79f09c9a
$GNGGA,005009.70,3039.10575055,N,12047.28103712,E,2,25,0.6,1.6093,M,9.8161,M,01,0*73
$GNRMC,005009.70,A,3039.10575055,N,12047.28103712,E,0.003,248.9,170120,5.8,W,D*38
#HEADINGA,COM2,0,42.0,FINE,2088,435027.700,1821457,28,18;SOL_COMPUTED,NARROW_INT,0.4345,157.8854,-15.2320,0.0000,0.4868,1.4005,"999",35,34,34,24,3,01,3,f3*78fc85fd
$GNGGA,005009.80,3039.10575178,N,12047.28103734,E,2,25,0.6,1.6197,M,9.8161,M,01,0*73
$GNRMC,005009.80,A,3039.10575178,N,12047.28103734,E,0.002,50.0,170120,5.8,W,D*0E
#HEADINGA,COM2,0,42.0,FINE,2088,435027.800,1821557,28,18;SOL_COMPUTED,NARROW_INT,0.4355,157.7159,-14.6732,0.0000,0.4842,1.3991,"999",35,34,34,24,3,01,3,f3*e8d2f566
$GNGGA,005009.90,3039.10575298,N,12047.28103784,E,2,25,0.6,1.6302,M,9.8161,M,01,0*7A
$GNRMC,005009.90,A,3039.10575298,N,12047.28103784,E,0.011,88.0,170120,5.8,W,D*0E
#HEADINGA,COM2,0,42.0,FINE,2088,435027.900,1821657,29,18;SOL_COMPUTED,NARROW_INT,0.4350,157.8692,-16.1553,0.0000,0.4881,1.3941,"999",35,34,34,24,3,01,3,f3*2b1577ce
#REFSTATIONA,COM2,0,43.0,FINE,2088,435026.000,1821057,705,18;00000000,-2811070.336,4717827.830,3232698.852,0,RTCMV3,"0000"*a655c7e1
$GNGGA,005010.00,3039.10575410,N,12047.28103809,E,2,25,0.6,1.6408,M,9.8161,M,02,0*79
$GNRMC,005010.00,A,3039.10575410,N,12047.28103809,E,0.005,88.1,170120,5.8,W,D*07
#HEADINGA,COM2,0,42.0,FINE,2088,435028.000,1821757,35,18;SOL_COMPUTED,NARROW_INT,0.4343,157.6274,-15.5816,0.0000,0.4869,1.3985,"999",35,34,34,24,3,01,3,f3*eb4feb4a
$GNGGA,005010.10,3039.10575507,N,12047.28103762,E,2,25,0.6,1.6506,M,9.8161,M,02,0*72
$GNRMC,005010.10,A,3039.10575507,N,12047.28103762,E,0.018,258.0,170120,5.8,W,D*31
#HEADINGA,COM2,0,42.0,FINE,2088,435028.100,1821858,29,18;SOL_COMPUTED,NARROW_INT,0.4336,157.9202,-14.9686,0.0000,0.4839,1.3958,"999",35,34,34,23,3,01,3,f3*8f9b4a50
$GNGGA,005010.20,3039.10575594,N,12047.28103737,E,2,25,0.6,1.6603,M,9.8161,M,02,0*7D
$GNRMC,005010.20,A,3039.10575594,N,12047.28103737,E,0.014,234.1,170120,5.8,W,D*3F
#HEADINGA,COM2,0,42.0,FINE,2088,435028.200,1821959,29,18;SOL_COMPUTED,NARROW_INT,0.4333,157.8272,-15.2261,0.0000,0.4847,1.3955,"999",35,34,34,23,3,01,3,f3*c1cf440e
$GNGGA,005010.30,3039.10575671,N,12047.28103717,E,2,25,0.6,1.6704,M,9.8161,M,02,0*70
$GNRMC,005010.30,A,3039.10575671,N,12047.28103717,E,0.014,219.1,170120,5.8,W,D*3B
#HEADINGA,COM2,0,42.0,FINE,2088,435028.300,1822057,29,18;SOL_COMPUTED,NARROW_INT,0.4334,157.7300,-15.0619,0.0000,0.4839,1.3958,"999",35,34,34,23,3,01,3,f3*c49c324f
$GNGGA,005010.40,3039.10575767,N,12047.28103718,E,2,25,0.6,1.6789,M,9.8161,M,01,0*78
$GNRMC,005010.40,A,3039.10575767,N,12047.28103718,E,0.007,235.6,170120,5.8,W,D*3E
#HEADINGA,COM2,0,42.0,FINE,2088,435028.400,1822157,33,18;SOL_COMPUTED,NARROW_INT,0.4367,157.6173,-16.0709,0.0000,0.4822,1.3779,"999",35,34,34,23,3,01,3,f3*f55f596c
$GNGGA,005010.50,3039.10575885,N,12047.28103699,E,2,25,0.6,1.6891,M,9.8161,M,01,0*74
$GNRMC,005010.50,A,3039.10575885,N,12047.28103699,E,0.012,300.7,170120,5.8,W,D*36
#HEADINGA,COM2,0,42.0,FINE,2088,435028.500,1822257,29,18;SOL_COMPUTED,NARROW_INT,0.4333,157.5936,-15.1841,0.0000,0.4839,1.3926,"999",35,34,34,23,3,01,3,f3*c87638d5
$GNGGA,005010.60,3039.10575984,N,12047.28103693,E,2,25,0.6,1.6994,M,9.8161,M,01,0*79
$GNRMC,005010.60,A,3039.10575984,N,12047.28103693,E,0.005,267.3,170120,5.8,W,D*3D
#HEADINGA,COM2,0,42.0,FINE,2088,435028.600,1822357,28,18;SOL_COMPUTED,NARROW_INT,0.4314,157.5023,-16.0775,0.0000,0.4880,1.3943,"999",35,34,34,23,3,01,3,f3*948966a3
$GNGGA,005010.70,3039.10576008,N,12047.28103659,E,2,26,0.6,1.7071,M,9.8161,M,01,0*70
$GNRMC,005010.70,A,3039.10576008,N,12047.28103659,E,0.010,199.0,170120,5.8,W,D*31
#HEADINGA,COM2,0,42.0,FINE,2088,435028.700,1822457,28,18;SOL_COMPUTED,NARROW_INT,0.4350,157.8188,-15.5483,0.0000,0.4826,1.3834,"999",35,34,34,23,3,01,3,f3*0238df07
$GNGGA,005010.80,3039.10576099,N,12047.28103718,E,2,25,0.6,1.7172,M,9.8161,M,01,0*72
$GNRMC,005010.80,A,3039.10576099,N,12047.28103718,E,0.011,178.7,170120,5.8,W,D*3B
#HEADINGA,COM2,0,42.0,FINE,2088,435028.800,1822557,29,18;SOL_COMPUTED,NARROW_INT,0.4332,157.9221,-15.0037,0.0000,0.4835,1.3914,"999",35,34,34,23,3,01,3,f3*68e1ab65
$GNGGA,005010.90,3039.10576211,N,12047.28103753,E,2,25,0.6,1.7285,M,9.8161,M,01,0*75
$GNRMC,005010.90,A,3039.10576211,N,12047.28103753,E,0.006,241.9,170120,5.8,W,D*36
#HEADINGA,COM2,0,42.0,FINE,2088,435028.900,1822657,28,18;SOL_COMPUTED,NARROW_INT,0.4324,157.6489,-14.8523,0.0000,0.4838,1.3949,"999",35,34,34,23,3,01,3,f3*cc5354cd
#REFSTATIONA,COM2,0,42.0,FINE,2088,435027.000,1822057,705,18;00000000,-2811070.336,4717827.830,3232698.852,0,RTCMV3,"0000"*22dab4c8
$GNGGA,005011.00,3039.10576321,N,12047.28103753,E,2,25,0.6,1.7393,M,9.8161,M,02,0*7A
$GNRMC,005011.00,A,3039.10576321,N,12047.28103753,E,0.016,259.6,170120,5.8,W,D*3B
#HEADINGA,COM2,0,42.0,FINE,2088,435029.000,1822757,35,18;SOL_COMPUTED,NARROW_INT,0.4361,157.8624,-15.2884,0.0000,0.4811,1.3815,"999",35,34,34,23,3,01,3,f3*9c75cdba
$GNGGA,005011.10,3039.10576418,N,12047.28103772,E,2,25,0.6,1.7468,M,9.8161,M,02,0*76
$GNRMC,005011.10,A,3039.10576418,N,12047.28103772,E,0.012,233.0,170120,5.8,W,D*3A
#HEADINGA,COM2,0,42.0,FINE,2088,435029.100,1822857,30,18;SOL_COMPUTED,NARROW_INT,0.4341,157.7259,-14.8478,0.0000,0.4822,1.3893,"999",35,34,34,23,3,01,3,f3*d7bbf15b
$GNGGA,005011.20,3039.10576544,N,12047.28103814,E,2,25,0.6,1.7563,M,9.8161,M,02,0*78
$GNRMC,005011.20,A,3039.10576544,N,12047.28103814,E,0.005,313.6,170120,5.8,W,D*3D
#HEADINGA,COM2,0,42.0,FINE,2088,435029.200,1822959,29,18;SOL_COMPUTED,NARROW_INT,0.4327,157.8477,-14.7742,0.0000,0.4841,1.3976,"999",35,34,34,23,3,01,3,f3*c1810e70
$GNGGA,005011.30,3039.10576651,N,12047.28103823,E,2,25,0.6,1.7672,M,9.8161,M,02,0*79
$GNRMC,005011.30,A,3039.10576651,N,12047.28103823,E,0.011,266.2,170120,5.8,W,D*3D
#HEADINGA,COM2,0,42.0,FINE,2088,435029.300,1823057,29,18;SOL_COMPUTED,NARROW_INT,0.4342,157.7275,-14.9686,0.0000,0.4826,1.3904,"999",35,34,34,23,3,01,3,f3*65f0f809
$GNGGA,005011.40,3039.10576764,N,12047.28103893,E,2,24,0.6,1.7746,M,9.8161,M,00,0*77
$GNRMC,005011.40,A,3039.10576764,N,12047.28103893,E,0.012,221.2,170120,5.8,W,D*36
#HEADINGA,COM2,0,42.0,FINE,2088,435029.400,1823157,33,18;SOL_COMPUTED,NARROW_INT,0.4312,157.8749,-14.2133,0.0000,0.4925,1.4246,"999",35,34,34,24,3,01,3,f3*e9122c21
$GNGGA,005011.50,3039.10576890,N,12047.28103968,E,2,24,0.6,1.7812,M,9.8161,M,00,0*79
$GNRMC,005011.50,A,3039.10576890,N,12047.28103968,E,0.008,235.9,170120,5.8,W,D*33
#HEADINGA,COM2,0,42.0,FINE,2088,435029.500,1823257,29,18;SOL_COMPUTED,NARROW_INT,0.4345,157.7150,-14.9367,0.0000,0.4905,1.4125,"999",35,34,34,24,3,01,3,f3*eec8da4b
$GNGGA,005011.60,3039.10576966,N,12047.28104015,E,2,24,0.6,1.7857,M,9.8161,M,00,0*77
$GNRMC,005011.60,A,3039.10576966,N,12047.28104015,E,0.013,177.1,170120,5.8,W,D*3B
#HEADINGA,COM2,0,42.0,FINE,2088,435029.600,1823357,29,18;SOL_COMPUTED,NARROW_INT,0.4358,157.7374,-15.6668,0.0000,0.4909,1.4061,"999",35,34,34,24,3,01,3,f3*22a469b5
$GNGGA,005011.70,3039.10577087,N,12047.28104092,E,2,24,0.6,1.7903,M,9.8161,M,00,0*7E
$GNRMC,005011.70,A,3039.10577087,N,12047.28104092,E,0.001,232.9,170120,5.8,W,D*3B
#HEADINGA,COM2,0,42.0,FINE,2088,435029.700,1823457,28,18;SOL_COMPUTED,NARROW_INT,0.4323,157.6237,-15.1800,0.0000,0.4936,1.4195,"999",35,34,34,24,3,01,3,f3*38394245
$GNGGA,005011.80,3039.10577245,N,12047.28104170,E,2,24,0.6,1.7964,M,9.8161,M,00,0*71
$GNRMC,005011.80,A,3039.10577245,N,12047.28104170,E,0.010,342.0,170120,5.8,W,D*3A
#HEADINGA,COM2,0,42.0,FINE,2088,435029.800,1823557,28,18;SOL_COMPUTED,NARROW_INT,0.4350,157.6979,-15.3274,0.0000,0.4912,1.4101,"999",35,34,34,24,3,01,3,f3*e295f174
$GNGGA,005011.90,3039.10577347,N,12047.28104219,E,2,24,0.6,1.8003,M,9.8161,M,00,0*78
$GNRMC,005011.90,A,3039.10577347,N,12047.28104219,E,0.007,229.4,170120,5.8,W,D*3A
#HEADINGA,COM2,0,42.0,FINE,2088,435029.900,1823657,28,18;SOL_COMPUTED,NARROW_INT,0.4326,157.5025,-15.4198,0.0000,0.4940,1.4164,"999",35,34,34,24,3,01,3,f3*53e1b789
#REFSTATIONA,COM2,0,42.0,FINE,2088,435029.000,1823057,705,18;00000000,-2811070.336,4717827.830,3232698.852,0,RTCMV3,"0000"*f27bb0f6
$GNGGA,005012.00,3039.10577425,N,12047.28104274,E,2,24,0.6,1.8078,M,9.8161,M,01,0*77
$GNRMC,005012.00,A,3039.10577425,N,12047.28104274,E,0.014,192.1,170120,5.8,W,D*3C
#HEADINGA,COM2,0,42.0,FINE,2088,435030.000,1823757,35,18;SOL_COMPUTED,NARROW_INT,0.4341,157.4438,-16.0627,0.0000,0.4942,1.4108,"999",35,34,34,24,3,01,3,f3*0d236868
$GNGGA,005012.10,3039.10577514,N,12047.28104371,E,2,24,0.6,1.8136,M,9.8161,M,01,0*7A
$GNRMC,005012.10,A,3039.10577514,N,12047.28104371,E,0.013,138.7,170120,5.8,W,D*3B
#HEADINGA,COM2,0,42.0,FINE,2088,435030.100,1823858,29,18;SOL_COMPUTED,NARROW_INT,0.4359,157.6613,-15.3222,0.0000,0.4905,1.4078,"999",35,34,34,24,3,01,3,f3*c20817c3
$GNGGA,005012.20,3039.10577619,N,12047.28104431,E,2,24,0.6,1.8191,M,9.8161,M,01,0*79
$GNRMC,005012.20,A,3039.10577619,N,12047.28104431,E,0.002,201.6,170120,5.8,W,D*3D
#HEADINGA,COM2,0,42.0,FINE,2088,435030.200,1823959,29,18;SOL_COMPUTED,NARROW_INT,0.4354,157.6180,-16.7183,0.0000,0.4934,1.3999,"999",35,34,34,24,3,01,3,f3*1d45851e
$GNGGA,005012.30,3039.10577704,N,12047.28104477,E,2,24,0.6,1.8250,M,9.8161,M,01,0*79
$GNRMC,005012.30,A,3039.10577704,N,12047.28104477,E,0.009,207.1,170120,5.8,W,D*39
#HEADINGA,COM2,0,42.0,FINE,2088,435030.300,1824057,29,18;SOL_COMPUTED,NARROW_INT,0.4344,157.8693,-15.0915,0.0000,0.4908,1.4097,"999",35,34,34,24,3,01,3,f3*7cdb9b4c
$GNGGA,005012.40,3039.10577819,N,12047.28104580,E,2,24,0.6,1.8291,M,9.8161,M,00,0*78
$GNRMC,005012.40,A,3039.10577819,N,12047.28104580,E,0.006,201.6,170120,5.8,W,D*3A
#HEADINGA,COM2,0,42.0,FINE,2088,435030.400,1824158,32,18;SOL_COMPUTED,NARROW_INT,0.4348,157.7664,-15.5352,0.0000,0.4910,1.4056,"999",35,34,34,24,3,01,3,f3*d361fde7
$GNGGA,005012.50,3039.10577943,N,12047.28104684,E,2,24,0.6,1.8362,M,9.8161,M,00,0*7D
$GNRMC,005012.50,A,3039.10577943,N,12047.28104684,E,0.001,172.3,170120,5.8,W,D*37
#HEADINGA,COM2,0,42.0,FINE,2088,435030.500,1824257,29,18;SOL_COMPUTED,NARROW_INT,0.4345,157.8120,-15.3501,0.0000,0.4907,1.4055,"999",35,34,34,24,3,01,3,f3*22138739
$GNGGA,005012.60,3039.10578093,N,12047.28104818,E,2,24,0.6,1.8401,M,9.8161,M,00,0*7C
$GNRMC,005012.60,A,3039.10578093,N,12047.28104818,E,0.012,51.2,170120,5.8,W,D*07
#HEADINGA,COM2,0,39.0,FINE,2088,435030.600,1824357,29,18;SOL_COMPUTED,NARROW_INT,0.4342,157.8311,-15.7447,0.0000,0.4916,1.4046,"999",35,34,34,24,3,01,3,f3*669caf57
$GNGGA,005012.70,3039.10578235,N,12047.28104896,E,2,24,0.6,1.8418,M,9.8161,M,00,0*7D
$GNRMC,005012.70,A,3039.10578235,N,12047.28104896,E,0.017,25.3,170120,5.8,W,D*09
#HEADINGA,COM2,0,39.0,FINE,2088,435030.700,1824457,28,18;SOL_COMPUTED,NARROW_INT,0.4302,157.5779,-14.0654,0.0000,0.4923,1.4259,"999",35,34,34,24,3,01,3,f3*8dd1e336
$GNGGA,005012.80,3039.10578335,N,12047.28104921,E,2,24,0.6,1.8453,M,9.8161,M,00,0*71
$GNRMC,005012.80,A,3039.10578335,N,12047.28104921,E,0.006,306.8,170120,5.8,W,D*33
#HEADINGA,COM2,0,39.0,FINE,2088,435030.800,1824557,28,18;SOL_COMPUTED,NARROW_INT,0.4368,157.9699,-16.0250,0.0000,0.4870,1.3730,"999",35,34,34,23,3,01,3,f3*83775220
$GNGGA,005012.90,3039.10578442,N,12047.28104971,E,2,24,0.6,1.8508,M,9.8161,M,00,0*7D
$GNRMC,005012.90,A,3039.10578442,N,12047.28104971,E,0.011,256.9,170120,5.8,W,D*33
#HEADINGA,COM2,0,39.0,FINE,2088,435030.900,1824657,28,18;SOL_COMPUTED,NARROW_INT,0.4344,157.9283,-14.5259,0.0000,0.4864,1.3873,"999",35,34,34,23,3,01,3,f3*b4c4c5b7
#REFSTATIONA,COM2,0,42.0,FINE,2088,435030.000,1824057,705,18;00000000,-2811070.336,4717827.830,3232698.852,0,RTCMV3,"0000"*6a290ec9
$GNGGA,005013.00,3039.10578553,N,12047.28105024,E,2,24,0.6,1.8579,M,9.8161,M,01,0*7B
$GNRMC,005013.00,A,3039.10578553,N,12047.28105024,E,0.004,343.6,170120,5.8,W,D*3C
#HEADINGA,COM2,0,39.0,FINE,2088,435031.000,1824757,35,18;SOL_COMPUTED,NARROW_INT,0.4356,157.6146,-16.6038,0.0000,0.4903,1.3777,"999",35,34,34,23,3,01,3,f3*0e622f6a
$GNGGA,005013.10,3039.10578628,N,12047.28105031,E,2,24,0.6,1.8650,M,9.8161,M,01,0*79
$GNRMC,005013.10,A,3039.10578628,N,12047.28105031,E,0.013,241.1,170120,5.8,W,D*34
#HEADINGA,COM2,0,39.0,FINE,2088,435031.100,1824858,29,18;SOL_COMPUTED,NARROW_INT,0.4305,157.5066,-15.3326,0.0000,0.4925,1.3993,"999",35,34,34,23,3,01,3,f3*35a96b37
$GNGGA,005013.20,3039.10578729,N,12047.28105068,E,2,24,0.6,1.8706,M,9.8161,M,01,0*74
$GNRMC,005013.20,A,3039.10578729,N,12047.28105068,E,0.006,286.4,170120,5.8,W,D*31
#HEADINGA,COM2,0,39.0,FINE,2088,435031.200,1824958,29,18;SOL_COMPUTED,NARROW_INT,0.4331,157.7444,-16.1252,0.0000,0.4918,1.3877,"999",35,34,34,23,3,01,3,f3*a1647b9c
$GNGGA,005013.30,3039.10578849,N,12047.28105147,E,2,24,0.6,1.8806,M,9.8161,M,00,0*7E
$GNRMC,005013.30,A,3039.10578849,N,12047.28105147,E,0.011,37.1,170120,5.8,W,D*0E
#HEADINGA,COM2,0,39.0,FINE,2088,435031.300,1825057,33,18;SOL_COMPUTED,NARROW_INT,0.4357,157.7560,-15.5148,0.0000,0.4864,1.3769,"999",35,34,34,23,3,01,3,f3*e87e80b1
$GNGGA,005013.40,3039.10578972,N,12047.28105205,E,2,24,0.6,1.8870,M,9.8161,M,00,0*74
$GNRMC,005013.40,A,3039.10578972,N,12047.28105205,E,0.013,10.1,170120,5.8,W,D*02
#HEADINGA,COM2,0,39.0,FINE,2088,435031.400,1825157,29,18;SOL_COMPUTED,NARROW_INT,0.4327,157.3561,-16.6046,0.0000,0.4922,1.3818,"999",35,34,34,23,3,01,3,f3*54de43a1
$GNGGA,005013.50,3039.10579079,N,12047.28105218,E,2,24,0.6,1.8929,M,9.8161,M,00,0*77
$GNRMC,005013.50,A,3039.10579079,N,12047.28105218,E,0.013,313.3,170120,5.8,W,D*3E
#HEADINGA,COM2,0,39.0,FINE,2088,435031.500,1825257,29,18;SOL_COMPUTED,NARROW_INT,0.4348,157.6653,-15.9868,0.0000,0.4884,1.3774,"999",35,34,34,23,3,01,3,f3*e9b1eca0
$GNGGA,005013.60,3039.10579209,N,12047.28105272,E,2,24,0.6,1.8990,M,9.8161,M,00,0*7F
$GNRMC,005013.60,A,3039.10579209,N,12047.28105272,E,0.019,352.9,170120,5.8,W,D*31
#HEADINGA,COM2,0,39.0,FINE,2088,435031.600,1825357,28,18;SOL_COMPUTED,NARROW_INT,0.4341,157.7077,-14.7148,0.0000,0.4866,1.3861,"999",35,34,34,23,3,01,3,f3*d8afb687
$GNGGA,005013.70,3039.10579221,N,12047.28105360,E,2,25,0.6,1.8969,M,9.8161,M,00,0*71
$GNRMC,005013.70,A,3039.10579221,N,12047.28105360,E,0.003,47.7,170120,5.8,W,D*0A
#HEADINGA,COM2,0,39.0,FINE,2088,435031.700,1825457,29,18;SOL_COMPUTED,NARROW_INT,0.4323,157.6060,-15.4675,0.0000,0.4903,1.3893,"999",35,34,34,23,3,01,3,f3*fa72eb66
$GNGGA,005013.80,3039.10579275,N,12047.28105466,E,2,24,0.6,1.8999,M,9.8161,M,00,0*70
$GNRMC,005013.80,A,3039.10579275,N,12047.28105466,E,0.021,134.7,170120,5.8,W,D*30
#HEADINGA,COM2,0,39.0,FINE,2088,435031.800,1825557,29,18;SOL_COMPUTED,NARROW_INT,0.4347,157.6652,-15.3149,0.0000,0.4872,1.3827,"999",35,34,34,23,3,01,3,f3*e6cc1e9b
$GNGGA,005013.90,3039.10579268,N,12047.28105623,E,2,25,0.6,1.8997,M,9.8161,M,00,0*71
$GNRMC,005013.90,A,3039.10579268,N,12047.28105623,E,0.017,115.5,170120,5.8,W,D*3A
#HEADINGA,COM2,0,39.0,FINE,2088,435031.900,1825658,28,18;SOL_COMPUTED,NARROW_INT,0.4367,157.5304,-15.3432,0.0000,0.4845,1.3764,"999",35,34,34,23,3,01,3,f3*9a70f334
#REFSTATIONA,COM2,0,39.0,FINE,2088,435031.000,1824958,804,18;00000000,-2811070.336,4717827.830,3232698.852,0,RTCMV3,"0000"*eba04689
$GNGGA,005014.00,3039.10579322,N,12047.28105595,E,2,25,0.6,1.9078,M,9.8161,M,01,0*76
$GNRMC,005014.00,A,3039.10579322,N,12047.28105595,E,0.009,356.8,170120,5.8,W,D*32
#HEADINGA,COM2,0,39.0,FINE,2088,435032.000,1825757,36,18;SOL_COMPUTED,NARROW_INT,0.4353,157.8075,-15.0985,0.0000,0.4857,1.3798,"999",35,34,34,23,3,01,3,f3*c75687b9
$GNGGA,005014.10,3039.10579448,N,12047.28105608,E,2,24,0.6,1.9170,M,9.8161,M,01,0*73
$GNRMC,005014.10,A,3039.10579448,N,12047.28105608,E,0.021,317.3,170120,5.8,W,D*3B
#HEADINGA,COM2,0,39.0,FINE,2088,435032.100,1825858,30,18;SOL_COMPUTED,NARROW_INT,0.4384,157.7131,-15.7712,0.0000,0.4842,1.3666,"999",35,34,34,23,3,01,3,f3*d679dfd6
$GNGGA,005014.20,3039.10579495,N,12047.28105713,E,2,25,0.6,1.9167,M,9.8161,M,01,0*7C
$GNRMC,005014.20,A,3039.10579495,N,12047.28105713,E,0.009,38.0,170120,5.8,W,D*04
#HEADINGA,COM2,0,39.0,FINE,2088,435032.200,1825959,29,18;SOL_COMPUTED,NARROW_INT,0.4344,157.9184,-15.8277,0.0000,0.4891,1.3818,"999",35,34,34,23,3,01,3,f3*ec03b8ce
$GNGGA,005014.30,3039.10579604,N,12047.28105767,E,2,24,0.6,1.9223,M,9.8161,M,01,0*76
$GNRMC,005014.30,A,3039.10579604,N,12047.28105767,E,0.007,54.6,170120,5.8,W,D*0E
#HEADINGA,COM2,0,39.0,FINE,2088,435032.300,1826057,29,18;SOL_COMPUTED,NARROW_INT,0.4313,157.5190,-15.6385,0.0000,0.4958,1.4291,"999",35,34,34,24,3,01,3,f3*a56d9c57
$GNGGA,005014.40,3039.10579702,N,12047.28105806,E,2,24,0.6,1.9266,M,9.8161,M,01,0*7F
$GNRMC,005014.40,A,3039.10579702,N,12047.28105806,E,0.003,23.7,170120,5.8,W,D*03
#HEADINGA,COM2,0,39.0,FINE,2088,435032.400,1826157,28,18;SOL_COMPUTED,NARROW_INT,0.4312,157.6636,-16.1213,0.0000,0.4976,1.4271,"999",35,34,34,24,3,01,3,f3*7690e061
$GNGGA,005014.50,3039.10579791,N,12047.28105829,E,2,24,0.6,1.9328,M,9.8161,M,01,0*72
$GNRMC,005014.50,A,3039.10579791,N,12047.28105829,E,0.003,262.5,170120,5.8,W,D*30
#HEADINGA,COM2,0,39.0,FINE,2088,435032.500,1826257,29,18;SOL_COMPUTED,NARROW_INT,0.4310,157.6450,-15.6307,0.0000,0.4967,1.4302,"999",35,34,34,24,3,01,3,f3*179022bf
$GNGGA,005014.60,3039.10579818,N,12047.28105871,E,2,25,0.6,1.9343,M,9.8161,M,01,0*7E
$GNRMC,005014.60,A,3039.10579818,N,12047.28105871,E,0.004,191.3,170120,5.8,W,D*3E
#HEADINGA,COM2,0,39.0,FINE,2088,435032.600,1826357,29,18;SOL_COMPUTED,NARROW_INT,0.4301,157.6579,-15.2348,0.0000,0.4967,1.4350,"999",35,34,34,24,3,01,3,f3*e761cd33
$GNGGA,005014.70,3039.10579861,N,12047.28105911,E,2,25,0.6,1.9361,M,9.8161,M,01,0*76
$GNRMC,005014.70,A,3039.10579861,N,12047.28105911,E,0.002,307.5,170120,5.8,W,D*3B
#HEADINGA,COM2,0,39.0,FINE,2088,435032.700,1826457,28,18;SOL_COMPUTED,NARROW_INT,0.4328,157.6593,-16.8615,0.0000,0.4977,1.4184,"999",35,34,34,24,3,01,3,f3*2b964b45
$GNGGA,005014.80,3039.10579911,N,12047.28105955,E,2,25,0.6,1.9355,M,9.8161,M,01,0*78
$GNRMC,005014.80,A,3039.10579911,N,12047.28105955,E,0.004,0.5,170120,5.8,W,D*30
#HEADINGA,COM2,0,39.0,FINE,2088,435032.800,1826557,29,18;SOL_COMPUTED,NARROW_INT,0.4304,157.7990,-15.2744,0.0000,0.4969,1.4352,"999",35,34,34,24,3,01,3,f3*464f707f
$GNGGA,005014.90,3039.10579952,N,12047.28106037,E,2,25,0.6,1.9327,M,9.8161,M,01,0*75
$GNRMC,005014.90,A,3039.10579952,N,12047.28106037,E,0.009,37.6,170120,5.8,W,D*02
#HEADINGA,COM2,0,39.0,FINE,2088,435032.900,1826657,29,18;SOL_COMPUTED,NARROW_INT,0.4338,157.7526,-14.8931,0.0000,0.4914,1.4224,"999",35,34,34,24,3,01,3,f3*ee2dc471
#REFSTATIONA,COM2,0,39.0,FINE,2088,435031.000,1825959,803,18;00000000,-2811070.336,4717827.830,3232698.852,0,RTCMV3,"0000"*63e767f0
$GNGGA,005015.00,3039.10580041,N,12047.28106084,E,2,25,0.6,1.9349,M,9.8161,M,02,0*73
$GNRMC,005015.00,A,3039.10580041,N,12047.28106084,E,0.030,345.2,170120,5.8,W,D*37
#HEADINGA,COM2,0,39.0,FINE,2088,435033.000,1826757,35,18;SOL_COMPUTED,NARROW_INT,0.4328,157.6947,-14.2287,0.0000,0.4911,1.4321,"999",35,34,34,24,3,01,3,f3*301c3efb
$GNGGA,005015.10,3039.10580193,N,12047.28106023,E,2,24,0.6,1.9459,M,9.8161,M,02,0*76
$GNRMC,005015.10,A,3039.10580193,N,12047.28106023,E,0.045,313.9,170120,5.8,W,D*3F
#HEADINGA,COM2,0,39.0,FINE,2088,435033.100,1826857,30,18;SOL_COMPUTED,NARROW_INT,0.4310,157.5858,-15.2629,0.0000,0.4957,1.4336,"999",35,34,34,24,3,01,3,f3*58e2b6dd
$GNGGA,005015.20,3039.10580348,N,12047.28105977,E,2,24,0.6,1.9585,M,9.8161,M,02,0*7A
$GNRMC,005015.20,A,3039.10580348,N,12047.28105977,E,0.041,319.1,170120,5.8,W,D*35
#HEADINGA,COM2,0,39.0,FINE,2088,435033.200,1826959,29,18;SOL_COMPUTED,NARROW_INT,0.4317,157.6153,-14.0704,0.0000,0.4875,1.3938,"999",35,34,34,23,3,01,3,f3*20923b6e
$GNGGA,005015.30,3039.10580432,N,12047.28106045,E,2,24,0.6,1.9648,M,9.8161,M,00,0*7A
$GNRMC,005015.30,A,3039.10580432,N,12047.28106045,E,0.004,226.5,170120,5.8,W,D*3D
#HEADINGA,COM2,0,39.0,FINE,2088,435033.300,1827057,33,18;SOL_COMPUTED,NARROW_INT,0.4381,157.7455,-16.0481,0.0000,0.4896,1.4121,"999",35,33,33,23,3,01,3,f3*cc5bbc34
$GNGGA,005015.40,3039.10580408,N,12047.28106167,E,2,24,0.6,1.9648,M,9.8161,M,00,0*75
$GNRMC,005015.40,A,3039.10580408,N,12047.28106167,E,0.044,162.5,170120,5.8,W,D*35
#HEADINGA,COM2,0,39.0,FINE,2088,435033.400,1827158,29,18;SOL_COMPUTED,NARROW_INT,0.4315,157.7346,-13.6694,0.0000,0.4921,1.4489,"999",35,33,33,23,3,01,3,f3*e22fcea9
$GNGGA,005015.50,3039.10580341,N,12047.28106288,E,2,24,0.6,1.9610,M,9.8161,M,00,0*71
$GNRMC,005015.50,A,3039.10580341,N,12047.28106288,E,0.047,169.0,170120,5.8,W,D*31
#HEADINGA,COM2,0,39.0,FINE,2088,435033.500,1827257,29,18;SOL_COMPUTED,NARROW_INT,0.4319,157.8540,-14.8880,0.0000,0.4942,1.4422,"999",35,33,33,23,3,01,3,f3*fbd750b4
$GNGGA,005015.60,3039.10580368,N,12047.28106369,E,2,24,0.6,1.9628,M,9.8161,M,00,0*7C
$GNRMC,005015.60,A,3039.10580368,N,12047.28106369,E,0.009,282.5,170120,5.8,W,D*3E
#HEADINGA,COM2,0,43.0,FINE,2088,435033.600,1827357,29,18;SOL_COMPUTED,NARROW_INT,0.4338,157.7057,-14.6855,0.0000,0.4913,1.4351,"999",35,33,33,23,3,01,3,f3*59096964
$GNGGA,005015.70,3039.10580464,N,12047.28106421,E,2,24,0.6,1.9682,M,9.8161,M,00,0*7D
$GNRMC,005015.70,A,3039.10580464,N,12047.28106421,E,0.015,316.7,170120,5.8,W,D*3C
#HEADINGA,COM2,0,43.0,FINE,2088,435033.700,1827457,29,18;SOL_COMPUTED,NARROW_INT,0.4365,157.8183,-15.5274,0.0000,0.4904,1.4239,"999",35,33,33,23,3,01,3,f3*95e7eb16
$GNGGA,005015.80,3039.10580552,N,12047.28106487,E,2,24,0.6,1.9733,M,9.8161,M,00,0*71
$GNRMC,005015.80,A,3039.10580552,N,12047.28106487,E,0.010,327.4,170120,5.8,W,D*3F
#HEADINGA,COM2,0,43.0,FINE,2088,435033.800,1827557,28,18;SOL_COMPUTED,NARROW_INT,0.4374,157.6648,-17.5633,0.0000,0.4944,1.4145,"999",35,33,33,23,3,01,3,f3*2d24acb8
$GNGGA,005015.90,3039.10580643,N,12047.28106574,E,2,24,0.6,1.9796,M,9.8161,M,00,0*71
$GNRMC,005015.90,A,3039.10580643,N,12047.28106574,E,0.010,15.4,170120,5.8,W,D*02
#HEADINGA,COM2,0,43.0,FINE,2088,435033.900,1827657,29,18;SOL_COMPUTED,NARROW_INT,0.4380,157.7789,-15.3915,0.0000,0.4876,1.4592,"999",35,32,32,23,3,01,3,f3*9cbc50bc
#REFSTATIONA,COM2,0,39.0,FINE,2088,435033.000,1826959,804,18;00000000,-2811070.336,4717827.830,3232698.852,0,RTCMV3,"0000"*cf9d0474
$GNGGA,005016.00,3039.10580717,N,12047.28106679,E,2,24,0.6,1.9840,M,9.8161,M,01,0*70
$GNRMC,005016.00,A,3039.10580717,N,12047.28106679,E,0.010,69.1,170120,5.8,W,D*08
#HEADINGA,COM2,0,43.0,FINE,2088,435034.000,1827758,35,18;SOL_COMPUTED,NARROW_INT,0.4309,157.8823,-13.4240,0.0000,0.4916,1.4951,"999",35,32,32,23,3,01,3,f3*2720cff3
$GNGGA,005016.10,3039.10580810,N,12047.28106751,E,2,24,0.6,1.9884,M,9.8161,M,01,0*7A
$GNRMC,005016.10,A,3039.10580810,N,12047.28106751,E,0.012,359.8,170120,5.8,W,D*31
#HEADINGA,COM2,0,43.0,FINE,2088,435034.100,1827858,29,18;SOL_COMPUTED,NARROW_INT,0.4366,157.6756,-16.4637,0.0000,0.4920,1.4638,"999",35,32,32,23,3,01,3,f3*f4461d85
$GNGGA,005016.20,3039.10580909,N,12047.28106818,E,2,24,0.6,1.9958,M,9.8161,M,01,0*72
$GNRMC,005016.20,A,3039.10580909,N,12047.28106818,E,0.014,1.4,170120,5.8,W,D*3D
#HEADINGA,COM2,0,43.0,FINE,2088,435034.200,1827959,29,18;SOL_COMPUTED,NARROW_INT,0.4370,157.6370,-16.2061,0.0000,0.4908,1.4623,"999",35,32,32,23,3,01,3,f3*22fd08cb
$GNGGA,005016.30,3039.10580992,N,12047.28106847,E,2,24,0.6,2.0016,M,9.8161,M,01,0*72
$GNRMC,005016.30,A,3039.10580992,N,12047.28106847,E,0.015,316.2,170120,5.8,W,D*36
#HEADINGA,COM2,0,43.0,FINE,2088,435034.300,1828057,29,18;SOL_COMPUTED,NARROW_INT,0.4346,157.7073,-15.0161,0.0000,0.4907,1.4753,"999",35,32,32,23,3,01,3,f3*e6b74606
$GNGGA,005016.40,3039.10581091,N,12047.28106909,E,2,25,0.6,2.0041,M,9.8161,M,01,0*76
$GNRMC,005016.40,A,3039.10581091,N,12047.28106909,E,0.015,355.1,170120,5.8,W,D*35
#HEADINGA,COM2,0,43.0,FINE,2088,435034.400,1828157,29,18;SOL_COMPUTED,NARROW_INT,0.4302,157.3609,-14.5399,0.0000,0.4889,1.4341,"999",35,33,33,23,3,01,3,f3*d0d889df
$GNGGA,005016.50,3039.10581138,N,12047.28107004,E,2,25,0.6,2.0070,M,9.8161,M,01,0*72
$GNRMC,005016.50,A,3039.10581138,N,12047.28107004,E,0.012,102.9,170120,5.8,W,D*3C
#HEADINGA,COM2,0,43.0,FINE,2088,435034.500,1828257,28,18;SOL_COMPUTED,NARROW_INT,0.4327,157.4850,-15.2204,0.0000,0.4875,1.4181,"999",35,33,33,23,3,01,3,f3*ffd489d8
$GNGGA,005016.60,3039.10581156,N,12047.28107117,E,2,25,0.6,2.0083,M,9.8161,M,01,0*76
$GNRMC,005016.60,A,3039.10581156,N,12047.28107117,E,0.022,126.2,170120,5.8,W,D*3A
#HEADINGA,COM2,0,43.0,FINE,2088,435034.600,1828357,29,18;SOL_COMPUTED,NARROW_INT,0.4319,157.6951,-14.8463,0.0000,0.4876,1.4220,"999",35,33,33,23,3,01,3,f3*4800b2ea
$GNGGA,005016.70,3039.10581208,N,12047.28107156,E,2,24,0.6,2.0129,M,9.8161,M,01,0*7A
$GNRMC,005016.70,A,3039.10581208,N,12047.28107156,E,0.008,292.4,170120,5.8,W,D*34
#HEADINGA,COM2,0,43.0,FINE,2088,435034.700,1828457,28,18;SOL_COMPUTED,NARROW_INT,0.4340,157.8583,-15.0153,0.0000,0.4858,1.4144,"999",35,33,33,23,3,01,3,f3*865dd65a
$GNGGA,005016.80,3039.10581246,N,12047.28107192,E,2,24,0.6,2.0184,M,9.8161,M,01,0*70
$GNRMC,005016.80,A,3039.10581246,N,12047.28107192,E,0.007,224.4,170120,5.8,W,D*3B
#HEADINGA,COM2,0,43.0,FINE,2088,435034.800,1828557,29,18;SOL_COMPUTED,NARROW_INT,0.4313,157.9124,-13.9846,0.0000,0.4864,1.4270,"999",35,33,33,23,3,01,3,f3*3a86f07b
$GNGGA,005016.90,3039.10581290,N,12047.28107246,E,2,24,0.6,2.0241,M,9.8161,M,01,0*7A
$GNRMC,005016.90,A,3039.10581290,N,12047.28107246,E,0.004,153.7,170120,5.8,W,D*38
#HEADINGA,COM2,0,43.0,FINE,2088,435034.900,1828658,28,18;SOL_COMPUTED,NARROW_INT,0.4313,157.8446,-15.9531,0.0000,0.4911,1.4223,"999",35,33,33,23,3,01,3,f3*b8956b9b
#REFSTATIONA,COM2,0,43.0,FINE,2088,435033.000,1828057,706,18;00000000,-2811070.336,4717827.830,3232698.852,0,RTCMV3,"0000"*047e2997
$GNGGA,005017.00,3039.10581384,N,12047.28107316,E,2,24,0.6,2.0281,M,9.8161,M,02,0*7D
$GNRMC,005017.00,A,3039.10581384,N,12047.28107316,E,0.015,22.1,170120,5.8,W,D*01
#HEADINGA,COM2,0,43.0,FINE,2088,435035.000,1828758,35,18;SOL_COMPUTED,NARROW_INT,0.4360,157.8847,-14.3601,0.0000,0.4819,1.4117,"999",35,33,33,23,3,01,3,f3*700678b3
$GNGGA,005017.10,3039.10581448,N,12047.28107367,E,2,24,0.6,2.0338,M,9.8161,M,02,0*7E
$GNRMC,005017.10,A,3039.10581448,N,12047.28107367,E,0.007,28.4,170120,5.8,W,D*0D
#HEADINGA,COM2,0,43.0,FINE,2088,435035.100,1828858,29,18;SOL_COMPUTED,NARROW_INT,0.4341,157.5599,-15.6536,0.0000,0.4867,1.4139,"999",35,33,33,23,3,01,3,f3*845e1827
$GNGGA,005017.20,3039.10581489,N,12047.28107461,E,2,24,0.6,2.0393,M,9.8161,M,02,0*70
$GNRMC,005017.20,A,3039.10581489,N,12047.28107461,E,0.016,102.1,170120,5.8,W,D*3E
#HEADINGA,COM2,0,43.0,FINE,2088,435035.200,1828960,28,18;SOL_COMPUTED,NARROW_INT,0.4306,157.8325,-14.6442,0.0000,0.4885,1.4291,"999",35,33,33,23,3,01,3,f3*aa2b9b72
$GNGGA,005017.30,3039.10581483,N,12047.28107547,E,2,24,0.6,2.0416,M,9.8161,M,01,0*77
$GNRMC,005017.30,A,3039.10581483,N,12047.28107547,E,0.023,141.1,170120,5.8,W,D*31
#HEADINGA,COM2,0,43.0,FINE,2088,435035.300,1829058,32,18;SOL_COMPUTED,NARROW_INT,0.4313,157.7434,-13.7916,0.0000,0.4853,1.4265,"999",35,33,33,23,3,01,3,f3*68c38d32
$GNGGA,005017.40,3039.10581485,N,12047.28107567,E,2,24,0.6,2.0447,M,9.8161,M,01,0*70
$GNRMC,005017.40,A,3039.10581485,N,12047.28107567,E,0.015,200.4,170120,5.8,W,D*34
#HEADINGA,COM2,0,43.0,FINE,2088,435035.400,1829157,29,18;SOL_COMPUTED,NARROW_INT,0.4381,157.5327,-15.4216,0.0000,0.4812,1.3984,"999",35,33,33,23,3,01,3,f3*2145c49a
$GNGGA,005017.50,3039.10581506,N,12047.28107625,E,2,24,0.6,2.0507,M,9.8161,M,01,0*7B
$GNRMC,005017.50,A,3039.10581506,N,12047.28107625,E,0.011,155.5,170120,5.8,W,D*3C
#HEADINGA,COM2,0,43.0,FINE,2088,435035.500,1829257,28,18;SOL_COMPUTED,NARROW_INT,0.4372,157.9945,-16.4746,0.0000,0.4851,1.3954,"999",35,33,33,23,3,01,3,f3*96cf0992
$GNGGA,005017.60,3039.10581558,N,12047.28107687,E,2,24,0.6,2.0552,M,9.8161,M,01,0*7B
$GNRMC,005017.60,A,3039.10581558,N,12047.28107687,E,0.007,73.8,170120,5.8,W,D*03
#HEADINGA,COM2,0,43.0,FINE,2088,435035.600,1829357,28,18;SOL_COMPUTED,NARROW_INT,0.4347,157.6448,-15.7697,0.0000,0.4858,1.4067,"999",35,33,33,23,3,01,3,f3*034c18da
$GNGGA,005017.70,3039.10581612,N,12047.28107755,E,2,24,0.6,2.0584,M,9.8161,M,01,0*72
$GNRMC,005017.70,A,3039.10581612,N,12047.28107755,E,0.010,71.0,170120,5.8,W,D*0D
#HEADINGA,COM2,0,43.0,FINE,2088,435035.700,1829457,28,18;SOL_COMPUTED,NARROW_INT,0.4339,157.8574,-15.2439,0.0000,0.4860,1.4148,"999",35,33,33,23,3,01,3,f3*ad8c96cf
$GNGGA,005017.80,3039.10581647,N,12047.28107786,E,2,24,0.6,2.0616,M,9.8161,M,01,0*7B
$GNRMC,005017.80,A,3039.10581647,N,12047.28107786,E,0.002,163.0,170120,5.8,W,D*3D
#HEADINGA,COM2,0,43.0,FINE,2088,435035.800,1829557,28,18;SOL_COMPUTED,NARROW_INT,0.4347,157.5397,-16.0818,0.0000,0.4867,1.4086,"999",35,33,33,23,3,01,3,f3*4cb20d31
$GNGGA,005017.90,3039.10581679,N,12047.28107791,E,2,24,0.6,2.0654,M,9.8161,M,01,0*77
$GNRMC,005017.90,A,3039.10581679,N,12047.28107791,E,0.008,242.7,170120,5.8,W,D*3A
#HEADINGA,COM2,0,43.0,FINE,2088,435035.900,1829657,28,18;SOL_COMPUTED,NARROW_INT,0.4347,157.5272,-14.7811,0.0000,0.4830,1.4116,"999",35,33,33,23,3,01,3,f3*bd1d27e1
#REFSTATIONA,COM2,0,43.0,FINE,2088,435034.000,1828960,802,18;00000000,-2811070.336,4717827.830,3232698.852,0,RTCMV3,"0000"*aaae2255
$GNGGA,005018.00,3039.10581709,N,12047.28107823,E,2,24,0.6,2.0700,M,9.8161,M,02,0*72
$GNRMC,005018.00,A,3039.10581709,N,12047.28107823,E,0.005,180.1,170120,5.8,W,D*3A
#HEADINGA,COM2,0,43.0,FINE,2088,435036.000,1829757,35,18;SOL_COMPUTED,NARROW_INT,0.4339,157.8440,-15.5261,0.0000,0.4858,1.4119,"999",35,33,33,23,3,01,3,f3*4326977e
$GNGGA,005018.10,3039.10581738,N,12047.28107818,E,2,24,0.6,2.0741,M,9.8161,M,02,0*7C
$GNRMC,005018.10,A,3039.10581738,N,12047.28107818,E,0.011,243.9,170120,5.8,W,D*30
#HEADINGA,COM2,0,43.0,FINE,2088,435036.100,1829858,29,18;SOL_COMPUTED,NARROW_INT,0.4323,157.4301,-15.5178,0.0000,0.4872,1.4156,"999",35,33,33,23,3,01,3,f3*49ae0ece
$GNGGA,005018.20,3039.10581761,N,12047.28107835,E,2,24,0.6,2.0781,M,9.8161,M,02,0*70
$GNRMC,005018.20,A,3039.10581761,N,12047.28107835,E,0.008,203.9,170120,5.8,W,D*3C
#HEADINGA,COM2,0,43.0,FINE,2088,435036.200,1829959,29,18;SOL_COMPUTED,NARROW_INT,0.4356,157.6702,-15.3633,0.0000,0.4835,1.4056,"999",35,33,33,23,3,01,3,f3*4cf99151
$GNGGA,005018.30,3039.10581797,N,12047.28107873,E,2,24,0.6,2.0841,M,9.8161,M,01,0*7A
$GNRMC,005018.30,A,3039.10581797,N,12047.28107873,E,0.004,128.2,170120,5.8,W,D*3B
#HEADINGA,COM2,0,43.0,FINE,2088,435036.300,1830057,32,18;SOL_COMPUTED,NARROW_INT,0.4326,157.6808,-14.1659,0.0000,0.4851,1.4227,"999",35,33,33,23,3,01,3,f3*3fbdc79e
$GNGGA,005018.40,3039.10581840,N,12047.28107883,E,2,24,0.6,2.0892,M,9.8161,M,01,0*79
$GNRMC,005018.40,A,3039.10581840,N,12047.28107883,E,0.004,284.8,170120,5.8,W,D*39
#HEADINGA,COM2,0,43.0,FINE,2088,435036.400,1830157,29,18;SOL_COMPUTED,NARROW_INT,0.4330,157.6033,-15.4993,0.0000,0.4869,1.4150,"999",35,33,33,23,3,01,3,f3*73020c08
$GNGGA,005018.50,3039.10581880,N,12047.28107870,E,2,24,0.6,2.0959,M,9.8161,M,01,0*7E
$GNRMC,005018.50,A,3039.10581880,N,12047.28107870,E,0.010,272.9,170120,5.8,W,D*35
#HEADINGA,COM2,0,43.0,FINE,2088,435036.500,1830257,28,18;SOL_COMPUTED,NARROW_INT,0.4362,158.0143,-15.1012,0.0000,0.4827,1.4071,"999",35,33,33,23,3,01,3,f3*0084a7f3
$GNGGA,005018.60,3039.10581883,N,12047.28107859,E,2,24,0.6,2.1019,M,9.8161,M,01,0*79
$GNRMC,005018.60,A,3039.10581883,N,12047.28107859,E,0.016,214.3,170120,5.8,W,D*32
#HEADINGA,COM2,0,39.0,FINE,2088,435036.600,1830357,28,18;SOL_COMPUTED,NARROW_INT,0.4356,157.8031,-14.9233,0.0000,0.4825,1.4065,"999",35,33,33,23,3,01,3,f3*cc473ec0
$GNGGA,005018.70,3039.10581907,N,12047.28107884,E,2,24,0.6,2.1062,M,9.8161,M,01,0*79
$GNRMC,005018.70,A,3039.10581907,N,12047.28107884,E,0.008,175.8,170120,5.8,W,D*3E
#HEADINGA,COM2,0,39.0,FINE,2088,435036.700,1830457,28,18;SOL_COMPUTED,NARROW_INT,0.4358,157.7015,-15.6118,0.0000,0.4838,1.4032,"999",35,33,33,23,3,01,3,f3*535cb9a0
$GNGGA,005018.80,3039.10581961,N,12047.28107902,E,2,24,0.6,2.1101,M,9.8161,M,01,0*7D
$GNRMC,005018.80,A,3039.10581961,N,12047.28107902,E,0.004,18.3,170120,5.8,W,D*03
#HEADINGA,COM2,0,39.0,FINE,2088,435036.800,1830557,28,18;SOL_COMPUTED,NARROW_INT,0.4348,157.7058,-15.8205,0.0000,0.4854,1.4055,"999",35,33,33,23,3,01,3,f3*b8699fae
$GNGGA,005018.90,3039.10582015,N,12047.28107904,E,2,24,0.6,2.1124,M,9.8161,M,01,0*74
$GNRMC,005018.90,A,3039.10582015,N,12047.28107904,E,0.005,335.1,170120,5.8,W,D*32
#HEADINGA,COM2,0,39.0,FINE,2088,435036.900,1830657,28,18;SOL_COMPUTED,NARROW_INT,0.4355,157.8628,-15.0632,0.0000,0.4825,1.4061,"999",35,33,33,23,3,01,3,f3*ba154741
#REFSTATIONA,COM2,0,43.0,FINE,2088,435035.000,1829959,803,18;00000000,-2811070.336,4717827.830,3232698.852,0,RTCMV3,"0000"*9715a688
$GNGGA,005019.00,3039.10582070,N,12047.28107891,E,2,24,0.6,2.1176,M,9.8161,M,02,0*76
$GNRMC,005019.00,A,3039.10582070,N,12047.28107891,E,0.009,315.3,170120,5.8,W,D*38
#HEADINGA,COM2,0,39.0,FINE,2088,435037.000,1830758,34,18;SOL_COMPUTED,NARROW_INT,0.4331,157.6395,-14.0687,0.0000,0.4831,1.4198,"999",35,33,33,23,3,01,3,f3*a5486f24
$GNGGA,005019.10,3039.10582100,N,12047.28107863,E,2,24,0.6,2.1223,M,9.8161,M,02,0*7F
$GNRMC,005019.10,A,3039.10582100,N,12047.28107863,E,0.010,255.4,170120,5.8,W,D*38
#HEADINGA,COM2,0,39.0,FINE,2088,435037.100,1830857,30,18;SOL_COMPUTED,NARROW_INT,0.4343,157.7684,-14.6006,0.0000,0.4831,1.4123,"999",35,33,33,23,3,01,3,f3*9d6671ff
$GNGGA,005019.20,3039.10582141,N,12047.28107877,E,2,24,0.6,2.1261,M,9.8161,M,02,0*7A
$GNRMC,005019.20,A,3039.10582141,N,12047.28107877,E,0.001,131.9,170120,5.8,W,D*37
#HEADINGA,COM2,0,39.0,FINE,2088,435037.200,1830958,29,18;SOL_COMPUTED,NARROW_INT,0.4366,157.8521,-16.1648,0.0000,0.4843,1.3987,"999",35,33,33,23,3,01,3,f3*df37b7ce
$GNGGA,005019.30,3039.10582168,N,12047.28107887,E,2,24,0.6,2.1304,M,9.8161,M,01,0*7E
$GNRMC,005019.30,A,3039.10582168,N,12047.28107887,E,0.003,207.4,170120,5.8,W,D*3B
#HEADINGA,COM2,0,39.0,FINE,2088,435037.300,1831057,32,18;SOL_COMPUTED,NARROW_INT,0.4327,157.6950,-14.5030,0.0000,0.4842,1.4167,"999",35,33,33,23,3,01,3,f3*39445d33
$GNGGA,005019.40,3039.10582184,N,12047.28107856,E,2,24,0.6,2.1357,M,9.8161,M,01,0*71
$GNRMC,005019.40,A,3039.10582184,N,12047.28107856,E,0.014,247.9,170120,5.8,W,D*3D
#HEADINGA,COM2,0,39.0,FINE,2088,435037.400,1831157,29,18;SOL_COMPUTED,NARROW_INT,0.4355,157.6968,-15.1598,0.0000,0.4826,1.4053,"999",35,33,33,23,3,01,3,f3*f279b482
$GNGGA,005019.50,3039.10582198,N,12047.28107828,E,2,24,0.6,2.1413,M,9.8161,M,01,0*73
$GNRMC,005019.50,A,3039.10582198,N,12047.28107828,E,0.015,245.3,170120,5.8,W,D*31
#HEADINGA,COM2,0,39.0,FINE,2088,435037.500,1831257,28,18;SOL_COMPUTED,NARROW_INT,0.4343,157.7860,-15.7269,0.0000,0.4853,1.4068,"999",35,33,33,23,3,01,3,f3*1f8a77cc
$GNGGA,005019.60,3039.10582257,N,12047.28107822,E,2,24,0.6,2.1449,M,9.8161,M,01,0*75
$GNRMC,005019.60,A,3039.10582257,N,12047.28107822,E,0.011,311.4,170120,5.8,W,D*3B
#HEADINGA,COM2,0,39.0,FINE,2088,435037.600,1831357,28,18;SOL_COMPUTED,NARROW_INT,0.4343,157.8308,-14.3160,0.0000,0.4816,1.4106,"999",35,33,33,23,3,01,3,f3*d41490aa
$GNGGA,005019.70,3039.10582301,N,12047.28107798,E,2,24,0.6,2.1512,M,9.8161,M,01,0*77
$GNRMC,005019.70,A,3039.10582301,N,12047.28107798,E,0.012,294.2,170120,5.8,W,D*3F
#HEADINGA,COM2,0,39.0,FINE,2088,435037.700,1831457,28,18;SOL_COMPUTED,NARROW_INT,0.4341,157.6649,-14.5358,0.0000,0.4826,1.4141,"999",35,33,33,23,3,01,3,f3*6b3e42ba
$GNGGA,005019.80,3039.10582323,N,12047.28107782,E,2,24,0.6,2.1557,M,9.8161,M,01,0*72
$GNRMC,005019.80,A,3039.10582323,N,12047.28107782,E,0.009,256.6,170120,5.8,W,D*3B
#HEADINGA,COM2,0,39.0,FINE,2088,435037.800,1831557,28,18;SOL_COMPUTED,NARROW_INT,0.4364,157.4436,-15.8775,0.0000,0.4825,1.3975,"999",35,33,33,23,3,01,3,f3*c952e5ec
$GNGGA,005019.90,3039.10582318,N,12047.28107725,E,2,24,0.6,2.1580,M,9.8161,M,01,0*7C
$GNRMC,005019.90,A,3039.10582318,N,12047.28107725,E,0.022,245.4,170120,5.8,W,D*36
#HEADINGA,COM2,0,39.0,FINE,2088,435037.900,1831657,28,18;SOL_COMPUTED,NARROW_INT,0.4323,157.8389,-14.1636,0.0000,0.4835,1.4178,"999",35,33,33,23,3,01,3,f3*d9e038e8
#REFSTATIONA,COM2,0,39.0,FINE,2088,435036.000,1830958,804,18;00000000,-2811070.336,4717827.830,3232698.852,0,RTCMV3,"0000"*768a7770
$GNGGA,005020.00,3039.10582312,N,12047.28107712,E,2,24,0.6,2.1606,M,9.8161,M,02,0*7F
$GNRMC,005020.00,A,3039.10582312,N,12047.28107712,E,0.015,219.5,170120,5.8,W,D*37
#HEADINGA,COM2,0,39.0,FINE,2088,435038.000,1831757,35,18;SOL_COMPUTED,NARROW_INT,0.4325,157.8963,-15.2156,0.0000,0.4859,1.4146,"999",35,33,33,23,3,01,3,f3*9430a798
$GNGGA,005020.10,3039.10582314,N,12047.28107694,E,2,24,0.6,2.1657,M,9.8161,M,02,0*73
$GNRMC,005020.10,A,3039.10582314,N,12047.28107694,E,0.013,227.6,170120,5.8,W,D*37
#HEADINGA,COM2,0,39.0,FINE,2088,435038.100,1831858,29,18;SOL_COMPUTED,NARROW_INT,0.4339,157.8362,-14.7239,0.0000,0.4832,1.4121,"999",35,33,33,23,3,01,3,f3*6e0412b5
$GNGGA,005020.20,3039.10582348,N,12047.28107731,E,2,24,0.6,2.1708,M,9.8161,M,02,0*7C
$GNRMC,005020.20,A,3039.10582348,N,12047.28107731,E,0.006,78.5,170120,5.8,W,D*0C
#HEADINGA,COM2,0,39.0,FINE,2088,435038.200,1831959,29,18;SOL_COMPUTED,NARROW_INT,0.4324,157.7816,-14.6201,0.0000,0.4851,1.4196,"999",35,33,33,23,3,01,3,f3*b1eab728
$GNGGA,005020.30,3039.10582379,N,12047.28107733,E,2,24,0.6,2.1764,M,9.8161,M,00,0*75
$GNRMC,005020.30,A,3039.10582379,N,12047.28107733,E,0.007,314.2,170120,5.8,W,D*32
#HEADINGA,COM2,0,39.0,FINE,2088,435038.300,1832057,33,18;SOL_COMPUTED,NARROW_INT,0.4348,157.5553,-16.1619,0.0000,0.4852,1.4038,"999",35,33,33,23,3,01,3,f3*5116028e
$GNGGA,005020.40,3039.10582442,N,12047.28107775,E,2,24,0.6,2.1808,M,9.8161,M,00,0*7A
$GNRMC,005020.40,A,3039.10582442,N,12047.28107775,E,0.009,314.2,170120,5.8,W,D*36
#HEADINGA,COM2,0,39.0,FINE,2088,435038.400,1832157,29,18;SOL_COMPUTED,NARROW_INT,0.4362,158.0345,-15.5880,0.0000,0.4831,1.4022,"999",35,33,33,23,3,01,3,f3*e5928860
$GNGGA,005020.50,3039.10582456,N,12047.28107763,E,2,24,0.6,2.1850,M,9.8161,M,00,0*74
$GNRMC,005020.50,A,3039.10582456,N,12047.28107763,E,0.008,257.8,170120,5.8,W,D*38
#HEADINGA,COM2,0,39.0,FINE,2088,435038.500,1832257,29,18;SOL_COMPUTED,NARROW_INT,0.4336,157.8662,-14.8460,0.0000,0.4841,1.4136,"999",35,33,33,23,3,01,3,f3*18dbb141
$GNGGA,005020.60,3039.10582460,N,12047.28107785,E,2,24,0.6,2.1894,M,9.8161,M,00,0*72
$GNRMC,005020.60,A,3039.10582460,N,12047.28107785,E,0.006,163.4,170120,5.8,W,D*30
#HEADINGA,COM2,0,39.0,FINE,2088,435038.600,1832357,28,18;SOL_COMPUTED,NARROW_INT,0.4345,157.9444,-14.5597,0.0000,0.4821,1.4113,"999",35,33,33,23,3,01,3,f3*3205d706
$GNGGA,005020.70,3039.10582467,N,12047.28107792,E,2,24,0.6,2.1924,M,9.8161,M,00,0*78
$GNRMC,005020.70,A,3039.10582467,N,12047.28107792,E,0.005,203.2,170120,5.8,W,D*30
#HEADINGA,COM2,0,39.0,FINE,2088,435038.700,1832457,28,18;SOL_COMPUTED,NARROW_INT,0.4348,157.6767,-15.4019,0.0000,0.4838,1.4073,"999",35,33,33,23,3,01,3,f3*a29c9d5a
$GNGGA,005020.80,3039.10582486,N,12047.28107815,E,2,24,0.6,2.1950,M,9.8161,M,00,0*7B
$GNRMC,005020.80,A,3039.10582486,N,12047.28107815,E,0.003,108.8,170120,5.8,W,D*34
#HEADINGA,COM2,0,39.0,FINE,2088,435038.800,1832557,28,18;SOL_COMPUTED,NARROW_INT,0.4309,157.6796,-14.4037,0.0000,0.4859,1.4241,"999",35,33,33,23,3,01,3,f3*138ff6a5
$GNGGA,005020.90,3039.10582515,N,12047.28107866,E,2,24,0.6,2.1984,M,9.8161,M,00,0*7C
$GNRMC,005020.90,A,3039.10582515,N,12047.28107866,E,0.005,179.9,170120,5.8,W,D*3B
#HEADINGA,COM2,0,39.0,FINE,2088,435038.900,1832657,28,18;SOL_COMPUTED,NARROW_INT,0.4338,157.7903,-15.5854,0.0000,0.4855,1.4099,"999",35,33,33,23,3,01,3,f3*7355ac92
#REFSTATIONA,COM2,0,39.0,FINE,2088,435038.000,1831959,803,18;00000000,-2811070.336,4717827.830,3232698.852,0,RTCMV3,"0000"*d9a00e39
$GNGGA,005021.00,3039.10582549,N,12047.28107926,E,2,24,0.6,2.2013,M,9.8161,M,01,0*7D
$GNRMC,005021.00,A,3039.10582549,N,12047.28107926,E,0.004,153.8,170120,5.8,W,D*37
#HEADINGA,COM2,0,39.0,FINE,2088,435039.000,1832757,35,18;SOL_COMPUTED,NARROW_INT,0.4351,157.8393,-14.7121,0.0000,0.4821,1.4090,"999",35,33,33,23,3,01,3,f3*9bc5f8ff
$GNGGA,005021.10,3039.10582572,N,12047.28107922,E,2,24,0.6,2.2067,M,9.8161,M,01,0*73
$GNRMC,005021.10,A,3039.10582572,N,12047.28107922,E,0.016,246.5,170120,5.8,W,D*33
#HEADINGA,COM2,0,39.0,FINE,2088,435039.100,1832857,30,18;SOL_COMPUTED,NARROW_INT,0.4356,157.6447,-15.4209,0.0000,0.4829,1.4041,"999",35,33,33,23,3,01,3,f3*f537f941
$GNGGA,005021.20,3039.10582648,N,12047.28107969,E,2,24,0.6,2.2083,M,9.8161,M,01,0*7F
$GNRMC,005021.20,A,3039.10582648,N,12047.28107969,E,0.013,295.7,170120,5.8,W,D*3C
#HEADINGA,COM2,0,39.0,FINE,2088,435039.200,1832958,29,18;SOL_COMPUTED,NARROW_INT,0.4362,157.9320,-15.0414,0.0000,0.4816,1.4030,"999",35,33,33,23,3,01,3,f3*fde9e14c
$GNGGA,005021.30,3039.10582716,N,12047.28108074,E,2,24,0.6,2.2120,M,9.8161,M,00,0*77
$GNRMC,005021.30,A,3039.10582716,N,12047.28108074,E,0.006,41.7,170120,5.8,W,D*02
#HEADINGA,COM2,0,39.0,FINE,2088,435039.300,1833057,33,18;SOL_COMPUTED,NARROW_INT,0.4371,157.6989,-15.7958,0.0000,0.4820,1.3972,"999",36,33,33,23,3,01,3,f3*261616a5
$GNGGA,005021.40,3039.10582774,N,12047.28108150,E,2,24,0.6,2.2161,M,9.8161,M,00,0*76
$GNRMC,005021.40,A,3039.10582774,N,12047.28108150,E,0.004,332.6,170120,5.8,W,D*32
#HEADINGA,COM2,0,39.0,FINE,2088,435039.400,1833158,28,18;SOL_COMPUTED,NARROW_INT,0.4353,157.9647,-15.6656,0.0000,0.4839,1.4024,"999",36,33,33,23,3,01,3,f3*762376e4
$GNGGA,005021.50,3039.10582829,N,12047.28108261,E,2,24,0.6,2.2207,M,9.8161,M,00,0*72
$GNRMC,005021.50,A,3039.10582829,N,12047.28108261,E,0.008,81.4,170120,5.8,W,D*00
#HEADINGA,COM2,0,39.0,FINE,2088,435039.500,1833257,29,18;SOL_COMPUTED,NARROW_INT,0.4362,158.0598,-15.7611,0.0000,0.4835,1.4022,"999",36,33,33,23,3,01,3,f3*1b68f8af
$GNGGA,005021.60,3039.10582873,N,12047.28108389,E,2,24,0.6,2.2206,M,9.8161,M,00,0*78
$GNRMC,005021.60,A,3039.10582873,N,12047.28108389,E,0.015,98.0,170120,5.8,W,D*0B
#HEADINGA,COM2,0,38.0,FINE,2088,435039.600,1833357,29,18;SOL_COMPUTED,NARROW_INT,0.4330,157.7773,-15.5365,0.0000,0.4862,1.4135,"999",36,33,33,23,3,01,3,f3*24e80722
$GNGGA,005021.70,3039.10582901,N,12047.28108440,E,2,24,0.6,2.2223,M,9.8161,M,00,0*78
$GNRMC,005021.70,A,3039.10582901,N,12047.28108440,E,0.008,228.9,170120,5.8,W,D*30
#HEADINGA,COM2,0,38.0,FINE,2088,435039.700,1833457,28,18;SOL_COMPUTED,NARROW_INT,0.4342,157.5728,-14.3835,0.0000,0.4819,1.4122,"999",36,33,33,23,3,01,3,f3*f496a77e
$GNGGA,005021.80,3039.10582971,N,12047.28108482,E,2,24,0.6,2.2258,M,9.8161,M,00,0*72
$GNRMC,005021.80,A,3039.10582971,N,12047.28108482,E,0.014,309.1,170120,5.8,W,D*31
#HEADINGA,COM2,0,38.0,FINE,2088,435039.800,1833557,28,18;SOL_COMPUTED,NARROW_INT,0.4351,157.9645,-15.3450,0.0000,0.4836,1.4077,"999",36,33,33,23,3,01,3,f3*60e13813
$GNGGA,005021.90,3039.10583042,N,12047.28108543,E,2,24,0.6,2.2308,M,9.8161,M,00,0*73
$GNRMC,005021.90,A,3039.10583042,N,12047.28108543,E,0.009,339.6,170120,5.8,W,D*3C
#HEADINGA,COM2,0,38.0,FINE,2088,435039.900,1833657,29,18;SOL_COMPUTED,NARROW_INT,0.4346,157.7531,-15.1592,0.0000,0.4835,1.4091,"999",36,33,33,23,3,01,3,f3*43fcb3a4
#REFSTATIONA,COM2,0,39.0,FINE,2088,435039.000,1832958,804,18;00000000,-2811070.336,4717827.830,3232698.852,0,RTCMV3,"0000"*ac6f7058
$GNGGA,005022.00,3039.10583068,N,12047.28108623,E,2,24,0.6,2.2337,M,9.8161,M,01,0*79
$GNRMC,005022.00,A,3039.10583068,N,12047.28108623,E,0.008,149.4,170120,5.8,W,D*3D
#HEADINGA,COM2,0,38.0,FINE,2088,435040.000,1833758,35,18;SOL_COMPUTED,NARROW_INT,0.4316,157.8490,-13.4224,0.0000,0.4830,1.4244,"999",36,33,33,23,3,01,3,f3*2aa98c0e
$GNGGA,005022.10,3039.10583095,N,12047.28108721,E,2,24,0.6,2.2366,M,9.8161,M,01,0*7D
$GNRMC,005022.10,A,3039.10583095,N,12047.28108721,E,0.011,123.9,170120,5.8,W,D*34
#HEADINGA,COM2,0,38.0,FINE,2088,435040.100,1833858,29,18;SOL_COMPUTED,NARROW_INT,0.4348,157.6799,-15.9491,0.0000,0.4849,1.4041,"999",36,33,33,23,3,01,3,f3*a6e7060b
$GNGGA,005022.20,3039.10583123,N,12047.28108799,E,2,24,0.6,2.2398,M,9.8161,M,01,0*70
$GNRMC,005022.20,A,3039.10583123,N,12047.28108799,E,0.007,139.7,170120,5.8,W,D*3A
#HEADINGA,COM2,0,38.0,FINE,2088,435040.200,1833959,28,18;SOL_COMPUTED,NARROW_INT,0.4319,157.6484,-14.9076,0.0000,0.4856,1.4177,"999",36,33,33,23,3,01,3,f3*8df9b36a
$GNGGA,005022.30,3039.10583138,N,12047.28108901,E,2,24,0.6,2.2439,M,9.8161,M,00,0*79
$GNRMC,005022.30,A,3039.10583138,N,12047.28108901,E,0.011,136.2,170120,5.8,W,D*33
#HEADINGA,COM2,0,38.0,FINE,2088,435040.300,1834057,32,18;SOL_COMPUTED,NARROW_INT,0.4353,157.9546,-15.6838,0.0000,0.4841,1.4030,"999",36,33,33,23,3,01,3,f3*489cd721
$GNGGA,005022.40,3039.10583190,N,12047.28108971,E,2,24,0.6,2.2475,M,9.8161,M,00,0*73
$GNRMC,005022.40,A,3039.10583190,N,12047.28108971,E,0.005,354.2,170120,5.8,W,D*32
#HEADINGA,COM2,0,38.0,FINE,2088,435040.400,1834157,29,18;SOL_COMPUTED,NARROW_INT,0.4351,157.6648,-14.2062,0.0000,0.4803,1.4093,"999",36,33,33,23,3,01,3,f3*463de774
$GNGGA,005022.50,3039.10583216,N,12047.28109000,E,2,24,0.6,2.2540,M,9.8161,M,00,0*76
$GNRMC,005022.50,A,3039.10583216,N,12047.28109000,E,0.010,256.6,170120,5.8,W,D*33
#HEADINGA,COM2,0,38.0,FINE,2088,435040.500,1834257,29,18;SOL_COMPUTED,NARROW_INT,0.4377,157.7560,-15.0690,0.0000,0.4797,1.3998,"999",36,33,33,23,3,01,3,f3*e92bfcdc
$GNGGA,005022.60,3039.10583224,N,12047.28109070,E,2,24,0.6,2.2587,M,9.8161,M,00,0*78
$GNRMC,005022.60,A,3039.10583224,N,12047.28109070,E,0.011,175.4,170120,5.8,W,D*37
#HEADINGA,COM2,0,38.0,FINE,2088,435040.600,1834357,29,18;SOL_COMPUTED,NARROW_INT,0.4336,157.7173,-15.5349,0.0000,0.4854,1.4094,"999",36,33,33,23,3,01,3,f3*79ef836d
$GNGGA,005022.70,3039.10583272,N,12047.28109165,E,2,24,0.6,2.2603,M,9.8161,M,00,0*70
$GNRMC,005022.70,A,3039.10583272,N,12047.28109165,E,0.008,76.6,170120,5.8,W,D*08
#HEADINGA,COM2,0,38.0,FINE,2088,435040.700,1834457,29,18;SOL_COMPUTED,NARROW_INT,0.4330,157.6145,-14.2501,0.0000,0.4830,1.4160,"999",36,33,33,23,3,01,3,f3*3aa7cdd6
$GNGGA,005022.80,3039.10583326,N,12047.28109261,E,2,24,0.6,2.2641,M,9.8161,M,00,0*7E
$GNRMC,005022.80,A,3039.10583326,N,12047.28109261,E,0.013,60.2,170120,5.8,W,D*09
#HEADINGA,COM2,0,38.0,FINE,2088,435040.800,1834557,29,18;SOL_COMPUTED,NARROW_INT,0.4330,157.5722,-16.0495,0.0000,0.4874,1.4110,"999",36,33,33,23,3,01,3,f3*b898ce32
$GNGGA,005022.90,3039.10583346,N,12047.28109320,E,2,24,0.6,2.2690,M,9.8161,M,00,0*71
$GNRMC,005022.90,A,3039.10583346,N,12047.28109320,E,0.005,148.3,170120,5.8,W,D*37
#HEADINGA,COM2,0,38.0,FINE,2088,435040.900,1834658,28,18;SOL_COMPUTED,NARROW_INT,0.4353,157.6591,-15.9128,0.0000,0.4869,1.4043,"999",36,33,33,23,3,01,3,f3*be92d2cd
#REFSTATIONA,COM2,0,38.0,FINE,2088,435040.000,1833959,804,18;00000000,-2811070.336,4717827.830,3232698.852,0,RTCMV3,"0000"*abaabed0
$GNGGA,005023.00,3039.10583408,N,12047.28109385,E,2,24,0.6,2.2713,M,9.8161,M,01,0*70
$GNRMC,005023.00,A,3039.10583408,N,12047.28109385,E,0.009,14.9,170120,5.8,W,D*03
#HEADINGA,COM2,0,38.0,FINE,2088,435041.000,1834758,35,18;SOL_COMPUTED,NARROW_INT,0.4356,157.8371,-14.3270,0.0000,0.4831,1.4097,"999",36,33,33,23,3,01,3,f3*14c721b4
$GNGGA,005023.10,3039.10583452,N,12047.28109444,E,2,24,0.6,2.2731,M,9.8161,M,01,0*74
$GNRMC,005023.10,A,3039.10583452,N,12047.28109444,E,0.004,35.0,170120,5.8,W,D*00
#HEADINGA,COM2,0,38.0,FINE,2088,435041.100,1834858,29,18;SOL_COMPUTED,NARROW_INT,0.4317,157.8775,-14.4318,0.0000,0.4874,1.4220,"999",36,33,33,23,3,01,3,f3*6e81ae6d
$GNGGA,005023.20,3039.10583504,N,12047.28109475,E,2,24,0.6,2.2778,M,9.8161,M,01,0*7A
$GNRMC,005023.20,A,3039.10583504,N,12047.28109475,E,0.008,326.1,170120,5.8,W,D*3F
#HEADINGA,COM2,0,38.0,FINE,2088,435041.200,1834959,29,18;SOL_COMPUTED,NARROW_INT,0.4361,157.7330,-16.2852,0.0000,0.4859,1.3992,"999",36,33,33,23,3,01,3,f3*5f34c75c
$GNGGA,005023.30,3039.10583518,N,12047.28109516,E,2,24,0.6,2.2802,M,9.8161,M,01,0*70
$GNRMC,005023.30,A,3039.10583518,N,12047.28109516,E,0.007,182.8,170120,5.8,W,D*3D
#HEADINGA,COM2,0,38.0,FINE,2088,435041.300,1835057,29,18;SOL_COMPUTED,NARROW_INT,0.4342,157.5904,-15.1476,0.0000,0.4949,1.4833,"999",36,32,32,23,3,01,3,f3*c9c92ea6
$GNGGA,005023.40,3039.10583554,N,12047.28109574,E,2,24,0.6,2.2821,M,9.8161,M,01,0*7A
$GNRMC,005023.40,A,3039.10583554,N,12047.28109574,E,0.003,106.2,170120,5.8,W,D*34
#HEADINGA,COM2,0,38.0,FINE,2088,435041.400,1835157,28,18;SOL_COMPUTED,NARROW_INT,0.4350,157.8227,-15.0746,0.0000,0.4914,1.4801,"999",35,32,32,23,3,01,3,f3*f379df98
$GNGGA,005023.50,3039.10583616,N,12047.28109603,E,2,24,0.6,2.2861,M,9.8161,M,01,0*79
$GNRMC,005023.50,A,3039.10583616,N,12047.28109603,E,0.011,340.6,170120,5.8,W,D*34
#HEADINGA,COM2,0,38.0,FINE,2088,435041.500,1835257,28,18;SOL_COMPUTED,NARROW_INT,0.4337,157.6160,-15.3409,0.0000,0.4956,1.4844,"999",35,32,32,23,3,01,3,f3*4883023f
$GNGGA,005023.60,3039.10583637,N,12047.28109593,E,2,24,0.6,2.2883,M,9.8161,M,01,0*7F
$GNRMC,005023.60,A,3039.10583637,N,12047.28109593,E,0.005,334.9,170120,5.8,W,D*37
#HEADINGA,COM2,0,38.0,FINE,2088,435041.600,1835357,28,18;SOL_COMPUTED,NARROW_INT,0.4333,157.7662,-14.5390,0.0000,0.4952,1.4897,"999",35,32,32,23,3,01,3,f3*482d45b7
$GNGGA,005023.70,3039.10583659,N,12047.28109592,E,2,24,0.6,2.2920,M,9.8161,M,01,0*7F
$GNRMC,005023.70,A,3039.10583659,N,12047.28109592,E,0.004,1.0,170120,5.8,W,D*32
#HEADINGA,COM2,0,38.0,FINE,2088,435041.700,1835457,28,18;SOL_COMPUTED,NARROW_INT,0.4333,157.7483,-14.0811,0.0000,0.4942,1.4914,"999",35,32,32,23,3,01,3,f3*cf80cd34
$GNGGA,005023.80,3039.10583713,N,12047.28109622,E,2,24,0.6,2.2955,M,9.8161,M,01,0*75
$GNRMC,005023.80,A,3039.10583713,N,12047.28109622,E,0.008,344.2,170120,5.8,W,D*36
#HEADINGA,COM2,0,38.0,FINE,2088,435041.800,1835557,28,18;SOL_COMPUTED,NARROW_INT,0.4356,157.4825,-15.0090,0.0000,0.4934,1.4805,"999",35,32,32,23,3,01,3,f3*35a55d78
$GNGGA,005023.90,3039.10583711,N,12047.28109624,E,2,24,0.6,2.2970,M,9.8161,M,01,0*77
$GNRMC,005023.90,A,3039.10583711,N,12047.28109624,E,0.007,158.2,170120,5.8,W,D*33
#HEADINGA,COM2,0,38.0,FINE,2088,435041.900,1835657,28,18;SOL_COMPUTED,NARROW_INT,0.4336,157.7476,-15.5398,0.0000,0.4972,1.4848,"999",35,32,32,23,3,01,3,f3*64ba93a1
#REFSTATIONA,COM2,0,38.0,FINE,2088,435040.000,1834959,803,18;00000000,-2811070.336,4717827.830,3232698.852,0,RTCMV3,"0000"*27b16525
$GNGGA,005024.00,3039.10583736,N,12047.28109633,E,2,24,0.6,2.2996,M,9.8161,M,02,0*71
$GNRMC,005024.00,A,3039.10583736,N,12047.28109633,E,0.004,65.4,170120,5.8,W,D*04
#HEADINGA,COM2,0,38.0,FINE,2088,435042.000,1835757,35,18;SOL_COMPUTED,NARROW_INT,0.4345,157.7199,-15.3541,0.0000,0.4957,1.4828,"999",35,32,32,23,3,01,3,f3*70f97a73
$GNGGA,005024.10,3039.10583737,N,12047.28109658,E,2,24,0.6,2.3017,M,9.8161,M,02,0*7D
$GNRMC,005024.10,A,3039.10583737,N,12047.28109658,E,0.011,122.2,170120,5.8,W,D*39
#HEADINGA,COM2,0,38.0,FINE,2088,435042.100,1835858,29,18;SOL_COMPUTED,NARROW_INT,0.4306,157.7307,-15.0348,0.0000,0.4994,1.4972,"999",35,32,32,23,3,01,3,f3*ba8f132a
$GNGGA,005024.20,3039.10583821,N,12047.28109812,E,2,23,0.7,2.2957,M,9.8161,M,02,0*7C
$GNRMC,005024.20,A,3039.10583821,N,12047.28109812,E,0.003,165.7,170120,5.8,W,D*37
#HEADINGA,COM2,0,38.0,FINE,2088,435042.200,1835959,29,18;SOL_COMPUTED,NARROW_INT,0.4339,157.7975,-14.7540,0.0000,0.4941,1.4862,"999",35,32,32,23,3,01,3,f3*2d25c654
$GNGGA,005024.30,3039.10583937,N,12047.28109969,E,2,23,0.7,2.2878,M,9.8161,M,01,0*79
$GNRMC,005024.30,A,3039.10583937,N,12047.28109969,E,0.009,1.1,170120,5.8,W,D*32
#HEADINGA,COM2,0,38.0,FINE,2088,435042.300,1836057,32,18;SOL_COMPUTED,NARROW_INT,0.4327,157.6065,-16.1949,0.0000,0.4986,1.4837,"999",35,32,32,23,3,01,3,f3*503886dc
$GNGGA,005024.40,3039.10584054,N,12047.28110117,E,2,23,0.7,2.2826,M,9.8161,M,01,0*77
$GNRMC,005024.40,A,3039.10584054,N,12047.28110117,E,0.010,4.3,170120,5.8,W,D*38
#HEADINGA,COM2,0,38.0,FINE,2088,435042.400,1836157,29,18;SOL_COMPUTED,NARROW_INT,0.4338,157.7747,-15.9371,0.0000,0.4968,1.4808,"999",35,32,32,23,3,01,3,f3*2a844839
$GNGGA,005024.50,3039.10584115,N,12047.28110254,E,2,23,0.7,2.2761,M,9.8161,M,01,0*7A
$GNRMC,005024.50,A,3039.10584115,N,12047.28110254,E,0.008,184.2,170120,5.8,W,D*38
#HEADINGA,COM2,0,38.0,FINE,2088,435042.500,1836257,29,18;SOL_COMPUTED,NARROW_INT,0.4333,157.7687,-14.9588,0.0000,0.4951,1.4868,"999",35,32,32,23,3,01,3,f3*aa65f0f2
$GNGGA,005024.60,3039.10584194,N,12047.28110387,E,2,23,0.7,2.2708,M,9.8161,M,01,0*70
$GNRMC,005024.60,A,3039.10584194,N,12047.28110387,E,0.003,206.3,170120,5.8,W,D*3E
#HEADINGA,COM2,0,38.0,FINE,2088,435042.600,1836357,28,18;SOL_COMPUTED,NARROW_INT,0.4365,158.1960,-14.0873,0.0000,0.4900,1.4808,"999",35,32,32,23,3,01,3,f3*e2237a0b
$GNGGA,005024.70,3039.10584273,N,12047.28110503,E,2,23,0.7,2.2653,M,9.8161,M,01,0*7E
$GNRMC,005024.70,A,3039.10584273,N,12047.28110503,E,0.006,261.1,170120,5.8,W,D*39
#HEADINGA,COM2,0,45.0,FINE,2088,435042.700,1836457,28,18;SOL_COMPUTED,NARROW_INT,0.4330,157.9971,-14.5084,0.0000,0.4946,1.4912,"999",35,32,32,23,3,01,3,f3*d5766ead
$GNGGA,005024.80,3039.10584302,N,12047.28110496,E,2,24,0.6,2.2664,M,9.8161,M,01,0*79
$GNRMC,005024.80,A,3039.10584302,N,12047.28110496,E,0.005,307.6,170120,5.8,W,D*39
#HEADINGA,COM2,0,45.0,FINE,2088,435042.800,1836558,28,18;SOL_COMPUTED,NARROW_INT,0.4343,157.4317,-15.5468,0.0000,0.4948,1.4821,"999",35,32,32,23,3,01,3,f3*fc1fb267
$GNGGA,005024.90,3039.10584334,N,12047.28110513,E,2,24,0.6,2.2667,M,9.8161,M,01,0*72
$GNRMC,005024.90,A,3039.10584334,N,12047.28110513,E,0.003,36.3,170120,5.8,W,D*03
#HEADINGA,COM2,0,45.0,FINE,2088,435042.900,1836658,28,18;SOL_COMPUTED,NARROW_INT,0.4308,157.7299,-14.1133,0.0000,0.4960,1.5025,"999",36,32,32,23,3,01,3,f3*5158af14
#REFSTATIONA,COM2,0,38.0,FINE,2088,435041.000,1835959,804,18;00000000,-2811070.336,4717827.830,3232698.852,0,RTCMV3,"0000"*3ff19d72
$GNGGA,005025.00,3039.10584349,N,12047.28110520,E,2,24,0.6,2.2678,M,9.8161,M,02,0*7D
$GNRMC,005025.00,A,3039.10584349,N,12047.28110520,E,0.003,179.1,170120,5.8,W,D*39
#HEADINGA,COM2,0,45.0,FINE,2088,435043.000,1836758,35,18;SOL_COMPUTED,NARROW_INT,0.4327,158.0127,-14.5324,0.0000,0.4970,1.5737,"999",36,31,31,23,3,01,3,f3*ef789a28
$GNGGA,005025.10,3039.10584383,N,12047.28110570,E,2,24,0.6,2.2679,M,9.8161,M,02,0*7E
$GNRMC,005025.10,A,3039.10584383,N,12047.28110570,E,0.011,84.8,170120,5.8,W,D*02
#HEADINGA,COM2,0,45.0,FINE,2088,435043.100,1836858,29,18;SOL_COMPUTED,NARROW_INT,0.4337,157.6287,-15.5446,0.0000,0.4978,1.5653,"999",36,31,31,23,3,01,3,f3*f1797dd2
$GNGGA,005025.20,3039.10584426,N,12047.28110575,E,2,24,0.6,2.2708,M,9.8161,M,02,0*77
$GNRMC,005025.20,A,3039.10584426,N,12047.28110575,E,0.007,356.0,170120,5.8,W,D*3F
#HEADINGA,COM2,0,45.0,FINE,2088,435043.200,1836960,29,18;SOL_COMPUTED,NARROW_INT,0.4347,157.9048,-14.6204,0.0000,0.4948,1.5641,"999",36,31,31,23,3,01,3,f3*be955305
$GNGGA,005025.30,3039.10584344,N,12047.28110388,E,2,24,0.6,2.2851,M,9.8161,M,00,0*70
$GNRMC,005025.30,A,3039.10584344,N,12047.28110388,E,0.006,230.8,170120,5.8,W,D*31
#HEADINGA,COM2,0,45.0,FINE,2088,435043.300,1837058,46,18;SOL_COMPUTED,NARROW_INT,0.4307,158.0254,-13.6220,0.0000,0.4919,1.5531,"999",36,31,31,23,3,01,3,f3*2e6a9b2f
$GNGGA,005025.40,3039.10584267,N,12047.28110211,E,2,24,0.6,2.2969,M,9.8161,M,00,0*7C
$GNRMC,005025.40,A,3039.10584267,N,12047.28110211,E,0.006,225.9,170120,5.8,W,D*32
#HEADINGA,COM2,0,45.0,FINE,2088,435043.400,1837158,29,18;SOL_COMPUTED,NARROW_INT,0.4314,157.5395,-13.5821,0.0000,0.4905,1.5509,"999",36,31,31,23,3,01,3,f3*eeaaa25a
$GNGGA,005025.50,3039.10584187,N,12047.28109998,E,2,24,0.6,2.3115,M,9.8161,M,00,0*70
$GNRMC,005025.50,A,3039.10584187,N,12047.28109998,E,0.016,253.3,170120,5.8,W,D*36
#HEADINGA,COM2,0,45.0,FINE,2088,435043.500,1837258,29,18;SOL_COMPUTED,NARROW_INT,0.4316,157.8341,-14.0062,0.0000,0.4897,1.5486,"999",36,31,31,23,3,01,3,f3*1c8f6589
$GNGGA,005025.60,3039.10584149,N,12047.28109849,E,2,24,0.6,2.3236,M,9.8161,M,00,0*7E
$GNRMC,005025.60,A,3039.10584149,N,12047.28109849,E,0.007,349.3,170120,5.8,W,D*30
#HEADINGA,COM2,0,45.0,FINE,2088,435043.600,1837358,29,18;SOL_COMPUTED,NARROW_INT,0.4332,158.1309,-12.8282,0.0000,0.4857,1.5465,"999",36,31,31,23,3,01,3,f3*b0202ddc
$GNGGA,005025.70,3039.10584088,N,12047.28109667,E,2,24,0.6,2.3362,M,9.8161,M,00,0*71
$GNRMC,005025.70,A,3039.10584088,N,12047.28109667,E,0.009,272.4,170120,5.8,W,D*3F
#HEADINGA,COM2,0,45.0,FINE,2088,435043.700,1837458,29,18;SOL_COMPUTED,NARROW_INT,0.4278,157.5921,-13.2693,0.0000,0.4923,1.5642,"999",36,31,31,23,3,01,3,f3*b2eba10a
$GNGGA,005025.80,3039.10584036,N,12047.28109553,E,2,24,0.6,2.3484,M,9.8161,M,00,0*70
$GNRMC,005025.80,A,3039.10584036,N,12047.28109553,E,0.008,92.9,170120,5.8,W,D*01
#HEADINGA,COM2,0,45.0,FINE,2088,435043.800,1837558,29,18;SOL_COMPUTED,NARROW_INT,0.4293,157.9718,-13.3358,0.0000,0.4911,1.5588,"999",36,31,31,23,3,01,3,f3*130560f4
$GNGGA,005025.90,3039.10583937,N,12047.28109399,E,2,24,0.6,2.3607,M,9.8161,M,00,0*77
$GNRMC,005025.90,A,3039.10583937,N,12047.28109399,E,0.015,188.1,170120,5.8,W,D*31
#HEADINGA,COM2,0,45.0,FINE,2088,435043.900,1837658,29,18;SOL_COMPUTED,NARROW_INT,0.4277,157.9478,-13.4402,0.0000,0.4928,1.5640,"999",36,31,31,23,3,01,3,f3*dec6fcc3
#REFSTATIONA,COM2,0,45.0,FINE,2088,435043.000,1836960,803,18;00000000,-2811070.336,4717827.830,3232698.852,0,RTCMV3,"0000"*1a04fb60
$GNGGA,005026.00,3039.10583839,N,12047.28109185,E,2,24,0.6,2.3757,M,9.8161,M,01,0*78
$GNRMC,005026.00,A,3039.10583839,N,12047.28109185,E,0.012,225.5,170120,5.8,W,D*3C
#HEADINGA,COM2,0,45.0,FINE,2088,435044.000,1837758,35,18;SOL_COMPUTED,NARROW_INT,0.4327,158.0348,-13.5423,0.0000,0.4873,1.5452,"999",36,31,31,23,3,01,3,f3*8316e738
$GNGGA,005026.10,3039.10583791,N,12047.28109061,E,2,24,0.6,2.3854,M,9.8161,M,01,0*73
$GNRMC,005026.10,A,3039.10583791,N,12047.28109061,E,0.001,160.3,170120,5.8,W,D*3D
#HEADINGA,COM2,0,45.0,FINE,2088,435044.100,1837858,30,18;SOL_COMPUTED,NARROW_INT,0.4311,157.9265,-13.1179,0.0000,0.4885,1.5529,"999",36,31,31,23,3,01,3,f3*0b9d28a6
$GNGGA,005026.20,3039.10583733,N,12047.28108865,E,2,24,0.6,2.4004,M,9.8161,M,01,0*7F
$GNRMC,005026.20,A,3039.10583733,N,12047.28108865,E,0.006,309.5,170120,5.8,W,D*37
#HEADINGA,COM2,0,45.0,FINE,2088,435044.200,1837960,28,18;SOL_COMPUTED,NARROW_INT,0.4318,157.7500,-13.7660,0.0000,0.4885,1.5475,"999",36,31,31,23,3,01,3,f3*5660aed8
